Event,Station,index,EventID,Error,Pick,Network,Location,Channel,Latitude,Longitude,Distance,Origem Latitude,Origem Longitude,Depth/km,Pick Time,Origin Time,Start Time,End Time,Cat,MLv,Certainty,Path,Compo,Warning,Pick Pred,Pick Prob_Nat,Pick Prob_Ant,Pick Pred_final,Event Pred,Event Prob_Nat,Event Prob_Ant,Event Pred_final,Label,SNR_P,SNR_S,Noise,p
20120208T184732,ESAR,928,usp2012cswi,[],P,BL,,HHZ,-23.0207,-44.4403,240.15230585028144,-24.56134415,-46.09851074,2000.0,2012-02-08T18:48:09.886932Z,2012-02-08T18:47:32.534268Z,2012-02-08T18:47:58.886932Z,2012-02-08T18:48:58.886932Z,earthquake,2.598904622,known,20120208T184732/BL_ESAR_20120208T184732.mseed,"[['E', 'N', 'Z']]",[],0.0,0.96,0.04,Natural,0,0.749,0.251,Natural,0,1.0024674259770305,1.438569815472169,305.7141233801459,306.4684503497192
20120208T184732,FRTB,931,usp2012cswi,[],P,BL,,HHZ,-23.3439,-49.564,377.6242218356404,-24.56134415,-46.09851074,2000.0,2012-02-08T18:48:26.919464Z,2012-02-08T18:47:32.534268Z,2012-02-08T18:48:15.919464Z,2012-02-08T18:49:15.919464Z,earthquake,2.598904622,known,20120208T184732/BL_FRTB_20120208T184732.mseed,"[['E', 'N', 'Z']]",[],1.0,0.15,0.85,Anthropogenic,0,0.749,0.251,Natural,0,1.0506082989859258,0.9512625948766343,5.313717639911379,5.582635850958801
20120208T184732,JAC01,933,usp2012cswi,[],P,ON,,HHZ,-24.81142,-48.102354,204.6796385964892,-24.56134415,-46.09851074,2000.0,2012-02-08T18:48:05.509094Z,2012-02-08T18:47:32.534268Z,2012-02-08T18:47:54.509094Z,2012-02-08T18:48:54.509094Z,earthquake,2.598904622,known,20120208T184732/ON_JAC01_20120208T184732.mseed,"[['E', 'N', 'Z']]",[],0.0,1.0,0.0,Natural,0,0.749,0.251,Natural,0,1.3319291728252032,2.3881620666794783,8.992504016367329,11.977378436147454
20120208T184732,MAN01,935,usp2012cswi,[],P,ON,,HHZ,-22.86516,-43.964094,287.5071378137774,-24.56134415,-46.09851074,2000.0,2012-02-08T18:48:16.061279Z,2012-02-08T18:47:32.534268Z,2012-02-08T18:48:05.061279Z,2012-02-08T18:49:05.061279Z,earthquake,2.598904622,known,20120208T184732/ON_MAN01_20120208T184732.mseed,"[['1', '2', 'Z']]",[],0.0,0.996,0.004,Natural,0,0.749,0.251,Natural,0,1.1278837305361933,2.05922061749234,5.823865528806365,6.568643178771263
20120208T184732,PET01,934,usp2012cswi,[],P,ON,,HHZ,-24.290108,-47.275344,123.0704462191412,-24.56134415,-46.09851074,2000.0,2012-02-08T18:47:54.173156Z,2012-02-08T18:47:32.534268Z,2012-02-08T18:47:43.173156Z,2012-02-08T18:48:43.173156Z,earthquake,2.598904622,known,20120208T184732/ON_PET01_20120208T184732.mseed,"[['E', 'N', 'Z']]",[],0.0,0.996,0.004,Natural,0,0.749,0.251,Natural,0,3.729536510495505,17.007202602886732,7.159675079575617,26.702269612562073
20120208T184732,RCLB,927,usp2012cswi,[],P,BL,1.0,HHZ,-22.4191,-47.531,278.74306692709104,-24.56134415,-46.09851074,2000.0,2012-02-08T18:48:14.627777Z,2012-02-08T18:47:32.534268Z,2012-02-08T18:48:03.627777Z,2012-02-08T18:49:03.627777Z,earthquake,2.598904622,known,20120208T184732/BL_RCLB_20120208T184732.mseed,"[['E', 'N', 'Z']]",[],0.0,0.776,0.224,Natural,0,0.749,0.251,Natural,0,0.7928384639208976,0.9273731317473337,129.090541113223,102.34794632292521
20120208T184732,SICB,930,usp2012cswi,[],P,BL,,HHZ,-23.62495,-49.87701,397.9269691987657,-24.56134415,-46.09851074,2000.0,2012-02-08T18:48:28.487121Z,2012-02-08T18:47:32.534268Z,2012-02-08T18:48:17.487121Z,2012-02-08T18:49:17.487121Z,earthquake,2.598904622,known,20120208T184732/BL_SICB_20120208T184732.mseed,"[['E', 'N', 'Z']]",[],1.0,0.034,0.966,Anthropogenic,0,0.749,0.251,Natural,0,1.1123611992608233,0.8505833898577735,9.689893174058039,10.778661191804465
20120208T184732,SLP01,929,usp2012cswi,[],P,ON,,HHZ,-23.3243,-45.1559,167.26903719007134,-24.56134415,-46.09851074,2000.0,2012-02-08T18:48:00.424285Z,2012-02-08T18:47:32.534268Z,2012-02-08T18:47:49.424285Z,2012-02-08T18:48:49.424285Z,earthquake,2.598904622,known,20120208T184732/ON_SLP01_20120208T184732.mseed,"[['E', 'N', 'Z']]",[],0.0,1.0,0.0,Natural,0,0.749,0.251,Natural,0,2.234825615460905,12.503706962429126,6.14261671875773,13.72767718903819
20120208T184732,TIJ01,926,usp2012cswi,[],P,ON,,HHZ,-25.908848,-49.024241,330.4119294138942,-24.56134415,-46.09851074,2000.0,2012-02-08T18:48:18.183349Z,2012-02-08T18:47:32.534268Z,2012-02-08T18:48:07.183349Z,2012-02-08T18:49:07.183349Z,earthquake,2.598904622,known,20120208T184732/ON_TIJ01_20120208T184732.mseed,"[['E', 'N', 'Z']]",[],0.0,0.633,0.367,Natural,0,0.749,0.251,Natural,0,1.284545091858806,1.483138518823531,9.739852022113174,12.511279110436544
20120208T184732,VAS01,932,usp2012cswi,[],P,ON,,HHZ,-22.280081,-43.442624,370.8002342580351,-24.56134415,-46.09851074,2000.0,2012-02-08T18:48:25.084289Z,2012-02-08T18:47:32.534268Z,2012-02-08T18:48:14.084289Z,2012-02-08T18:49:14.084289Z,earthquake,2.598904622,known,20120208T184732/ON_VAS01_20120208T184732.mseed,"[['E', 'N', 'Z']]",[],0.0,0.945,0.055,Natural,0,0.749,0.251,Natural,0,0.9245328823732212,1.0636793001980203,9.432736226787226,8.720874812417897
20120310T182547,NBPV,187,usp2012exme,[],P,NB,,HHZ,-6.417527,-35.290516,357.90777655224304,-3.657104731,-33.60528946,0.0,2012-03-10T18:26:39.694976Z,2012-03-10T18:25:47.940539Z,2012-03-10T18:26:28.694976Z,2012-03-10T18:27:28.694976Z,earthquake,2.839463079,suspected,20120310T182547/NB_NBPV_20120310T182547.mseed,"[['E', 'N', 'Z']]",[],0.0,0.999,0.001,Natural,0,0.999,0.001,Natural,0,5.682148924500196,5.202081179510944,100.74551392273892,572.4510135843105
20120423T092847,DUB01,1980,usp2012hzep,[],P,ON,,HHZ,-22.080966,-42.374182,287.6767069999659,-23.41172028,-44.7796669,0.0,2012-04-23T09:29:30.370849Z,2012-04-23T09:28:47.105631Z,2012-04-23T09:29:19.370849Z,2012-04-23T09:30:19.370849Z,earthquake,2.118416116,known,20120423T092847/ON_DUB01_20120423T092847.mseed,"[['E', 'N', 'Z']]",[],0.0,0.996,0.004,Natural,0,0.966,0.034,Natural,0,1.0538574473284688,1.179073497709307,4.134145971547622,4.3568005204584495
20120423T092847,ESAR,1983,usp2012hzep,[],P,BL,,HHZ,-23.0207,-44.4403,55.51507722542875,-23.41172028,-44.7796669,0.0,2012-04-23T09:28:56.762451Z,2012-04-23T09:28:47.105631Z,2012-04-23T09:28:45.762451Z,2012-04-23T09:29:45.762451Z,earthquake,2.118416116,known,20120423T092847/BL_ESAR_20120423T092847.mseed,"[['E', 'N', 'Z']]",[],0.0,0.957,0.043,Natural,0,0.966,0.034,Natural,0,6.913012094507365,6.796705163268407,253.20342166055707,1750.398316310079
20120423T092847,MAN01,1982,usp2012hzep,[],P,ON,,HHZ,-22.86516,-43.964094,103.15429954844728,-23.41172028,-44.7796669,0.0,2012-04-23T09:29:04.755493Z,2012-04-23T09:28:47.105631Z,2012-04-23T09:28:53.755493Z,2012-04-23T09:29:53.755493Z,earthquake,2.118416116,known,20120423T092847/ON_MAN01_20120423T092847.mseed,"[['1', '2', 'Z']]",[],0.0,0.947,0.053,Natural,0,0.966,0.034,Natural,0,12.176310790595286,12.139389222248228,5.180041081213998,63.07379011291288
20120423T092847,PET01,1985,usp2012hzep,[],P,ON,,HHZ,-24.290108,-47.275344,272.2031891273038,-23.41172028,-44.7796669,0.0,2012-04-23T09:29:27.727233Z,2012-04-23T09:28:47.105631Z,2012-04-23T09:29:16.727233Z,2012-04-23T09:30:16.727233Z,earthquake,2.118416116,known,20120423T092847/ON_PET01_20120423T092847.mseed,"[['E', 'N', 'Z']]",[],0.0,0.967,0.033,Natural,0,0.966,0.034,Natural,0,1.0085053389876104,1.2037397478561322,6.0413379377075405,6.092721564806454
20120423T092847,SLP01,1984,usp2012hzep,[],P,ON,,HHZ,-23.3243,-45.1559,39.66668038934037,-23.41172028,-44.7796669,0.0,2012-04-23T09:28:54.024658Z,2012-04-23T09:28:47.105631Z,2012-04-23T09:28:43.024658Z,2012-04-23T09:29:43.024658Z,earthquake,2.118416116,known,20120423T092847/ON_SLP01_20120423T092847.mseed,"[['E', 'N', 'Z']]",[],0.0,0.935,0.065,Natural,0,0.966,0.034,Natural,0,25.439330086791827,29.882279678712656,4.446110367859193,113.10606925027744
20120423T092847,VAS01,1981,usp2012hzep,[],P,ON,,HHZ,-22.280081,-43.442624,185.8404257845764,-23.41172028,-44.7796669,0.0,2012-04-23T09:29:17.311401Z,2012-04-23T09:28:47.105631Z,2012-04-23T09:29:06.311401Z,2012-04-23T09:30:06.311401Z,earthquake,2.118416116,known,20120423T092847/ON_VAS01_20120423T092847.mseed,"[['E', 'N', 'Z']]",[],0.0,0.994,0.006,Natural,0,0.966,0.034,Natural,0,3.9558541393856745,8.973373650369435,6.352249997177047,25.12857444574546
20120424T013412,PEXB,1388,bsb20120424013413,[],P,BL,,HHZ,-12.10584,-48.30085,203.41485681351816,-13.75092983,-49.13815308,0.0,2012-04-24T01:34:45.067420Z,2012-04-24T01:34:12.698199Z,2012-04-24T01:34:34.067420Z,2012-04-24T01:35:34.067420Z,earthquake,3.148031882,known,20120424T013412/BL_PEXB_20120424T013412.mseed,"[['E', 'N', 'Z']]",[],0.0,0.999,0.001,Natural,0,0.999,0.001,Natural,0,10.881275013959305,18.29757677904951,7.358084642917881,80.06534257558
20120619T143550,ALF01,1538,usp2012lzsk,[],P,ON,,HHZ,-20.616865,-40.725213,258.4226035131492,-22.18578339,-42.57048035,0.0,2012-06-19T14:36:29.767303Z,2012-06-19T14:35:50.122594Z,2012-06-19T14:36:18.767303Z,2012-06-19T14:37:18.767303Z,earthquake,2.142427942,known,20120619T143550/ON_ALF01_20120619T143550.mseed,"[['E', 'N', 'Z']]",[],0.0,0.87,0.13,Natural,0,0.918,0.082,Natural,0,1.2827552868226824,1.4813505762277022,7.665181752316704,9.832552417241004
20120619T143550,BSCB,1537,usp2012lzsk,[],P,BL,,HHZ,-20.9984,-44.7635,262.4022989752867,-22.18578339,-42.57048035,0.0,2012-06-19T14:36:29.971832Z,2012-06-19T14:35:50.122594Z,2012-06-19T14:36:18.971832Z,2012-06-19T14:37:18.971832Z,earthquake,2.142427942,known,20120619T143550/BL_BSCB_20120619T143550.mseed,"[['Z', 'N', 'E']]",[],0.0,0.975,0.025,Natural,0,0.918,0.082,Natural,0,1.0410753671039112,1.213006150262975,6.16357498991846,6.416746095301846
20120619T143550,CAM01,1541,usp2012lzsk,[],P,ON,,HHZ,-21.825656,-41.657401,102.36867529446648,-22.18578339,-42.57048035,0.0,2012-06-19T14:36:08.069793Z,2012-06-19T14:35:50.122594Z,2012-06-19T14:35:57.069793Z,2012-06-19T14:36:57.069793Z,earthquake,2.142427942,known,20120619T143550/ON_CAM01_20120619T143550.mseed,"[['1', '2', 'Z']]",[],0.0,0.725,0.275,Natural,0,0.918,0.082,Natural,0,7.789675079664797,6.815632381796219,14.717126369510021,114.64163252484987
20120619T143550,DUB01,1543,usp2012lzsk,[],P,ON,,HHZ,-22.080966,-42.374182,23.341472606369443,-22.18578339,-42.57048035,0.0,2012-06-19T14:35:55.246490Z,2012-06-19T14:35:50.122594Z,2012-06-19T14:35:44.246490Z,2012-06-19T14:36:44.246490Z,earthquake,2.142427942,known,20120619T143550/ON_DUB01_20120619T143550.mseed,"[['E', 'N', 'Z']]",[],0.0,0.912,0.088,Natural,0,0.918,0.082,Natural,0,58.04600108521743,21.923290705079683,5.761483283386727,334.431064919928
20120619T143550,ESAR,1539,usp2012lzsk,[],P,BL,,HHZ,-23.0207,-44.4403,213.3275168267925,-22.18578339,-42.57048035,0.0,2012-06-19T14:36:23.929870Z,2012-06-19T14:35:50.122594Z,2012-06-19T14:36:12.929870Z,2012-06-19T14:37:12.929870Z,earthquake,2.142427942,known,20120619T143550/BL_ESAR_20120619T143550.mseed,"[['E', 'N', 'Z']]",[],0.0,0.912,0.088,Natural,0,0.918,0.082,Natural,0,1.875129899862461,1.340356079477654,262.0312049113712,491.34254702629954
20120619T143550,MAN01,1540,usp2012lzsk,[],P,ON,,HHZ,-22.86516,-43.964094,161.90969258681469,-22.18578339,-42.57048035,0.0,2012-06-19T14:36:16.141418Z,2012-06-19T14:35:50.122594Z,2012-06-19T14:36:05.141418Z,2012-06-19T14:37:05.141418Z,earthquake,2.142427942,known,20120619T143550/ON_MAN01_20120619T143550.mseed,"[['1', '2', 'Z']]",[],0.0,0.985,0.015,Natural,0,0.918,0.082,Natural,0,2.4371787986065914,7.291796809134956,6.098150071868723,14.862282065879713
20120619T143550,SLP01,1536,usp2012lzsk,[],P,ON,,HHZ,-23.3243,-45.1559,293.9424414168043,-22.18578339,-42.57048035,0.0,2012-06-19T14:36:33.905426Z,2012-06-19T14:35:50.122594Z,2012-06-19T14:36:22.905426Z,2012-06-19T14:37:22.905426Z,earthquake,2.142427942,known,20120619T143550/ON_SLP01_20120619T143550.mseed,"[['E', 'N', 'Z']]",[],0.0,0.997,0.003,Natural,0,0.918,0.082,Natural,0,1.188209904910365,1.268542970161508,5.788352242598747,6.877777467765955
20120619T143550,VAS01,1542,usp2012lzsk,[],P,ON,,HHZ,-22.280081,-43.442624,90.51577822787404,-22.18578339,-42.57048035,0.0,2012-06-19T14:36:05.741119Z,2012-06-19T14:35:50.122594Z,2012-06-19T14:35:54.741119Z,2012-06-19T14:36:54.741119Z,earthquake,2.142427942,known,20120619T143550/ON_VAS01_20120619T143550.mseed,"[['E', 'N', 'Z']]",[],0.0,0.969,0.031,Natural,0,0.918,0.082,Natural,0,11.541839649684366,7.077298276704782,7.372171687109449,85.08842348256033
20120714T064016,CNLB,1042,usp2012nsuh,[],P,BL,,HHZ,-29.3148,-50.8533,39.22964290993779,-29.36829758,-51.25260162,0.0,2012-07-14T06:40:22.859558Z,2012-07-14T06:40:16.645323Z,2012-07-14T06:40:11.859558Z,2012-07-14T06:41:11.859558Z,earthquake,2.824844757,known,20120714T064016/BL_CNLB_20120714T064016.mseed,"[['2', '1', 'Z']]",[],0.0,0.717,0.283,Natural,0,0.636,0.364,Natural,0,13.691738993003879,22.16226034035349,2.678672951353616,36.67569089755309
20120714T064016,CPSB,1040,usp2012nsuh,[],P,BL,,HHZ,-30.4123,-53.4432,241.1670938736038,-29.36829758,-51.25260162,0.0,2012-07-14T06:40:53.746002Z,2012-07-14T06:40:16.645323Z,2012-07-14T06:40:42.746002Z,2012-07-14T06:41:42.746002Z,earthquake,2.824844757,known,20120714T064016/BL_CPSB_20120714T064016.mseed,"[['E', 'N', 'Z']]",[],0.0,0.651,0.349,Natural,0,0.636,0.364,Natural,0,1.8375805809739492,2.3617141826644086,9.799514881811392,18.00739824978184
20120714T064016,ITAB,1041,usp2012nsuh,[],P,BL,,HHZ,-27.2349,-52.1313,251.6488962169001,-29.36829758,-51.25260162,0.0,2012-07-14T06:40:54.991607Z,2012-07-14T06:40:16.645323Z,2012-07-14T06:40:43.991607Z,2012-07-14T06:41:43.991607Z,earthquake,2.824844757,known,20120714T064016/BL_ITAB_20120714T064016.mseed,"[['E', 'N', 'Z']]",[],0.0,0.965,0.035,Natural,0,0.636,0.364,Natural,0,2.0449943086363227,2.9831546341483683,2.4356966830746978,4.9809858544521255
20120714T064016,PLTB,1039,usp2012nsuh,[],P,BL,,HHZ,-31.76367,-53.60445,348.4371524314945,-29.36829758,-51.25260162,0.0,2012-07-14T06:41:07.063568Z,2012-07-14T06:40:16.645323Z,2012-07-14T06:40:56.063568Z,2012-07-14T06:41:56.063568Z,earthquake,2.824844757,known,20120714T064016/BL_PLTB_20120714T064016.mseed,"[['E', 'N', 'Z']]",[],1.0,0.211,0.789,Anthropogenic,0,0.636,0.364,Natural,0,1.4766275018922823,1.7915881876420698,1.8966431779373099,2.8006354778186093
20121105T110128,CNLB,433,usp2012vtkg,[],P,BL,,HHZ,-29.3148,-50.8533,181.9009346224648,-28.80874825,-49.0763588,0.0,2012-11-05T11:01:59.858596Z,2012-11-05T11:01:28.340560Z,2012-11-05T11:01:48.858596Z,2012-11-05T11:02:48.858596Z,earthquake,3.720452214,known,20121105T110128/BL_CNLB_20121105T110128.mseed,"[['2', '1', 'Z']]",[],0.0,1.0,0.0,Natural,0,0.969,0.031,Natural,0,2.7731214064343774,10.431299090665744,22.97198993643281,63.704117041116916
20121105T110128,ITAB,434,usp2012vtkg,[],P,BL,,HHZ,-27.2349,-52.1313,347.36519063321487,-28.80874825,-49.0763588,0.0,2012-11-05T11:02:17.208831Z,2012-11-05T11:01:28.340560Z,2012-11-05T11:02:06.208831Z,2012-11-05T11:03:06.208831Z,earthquake,3.720452214,known,20121105T110128/BL_ITAB_20121105T110128.mseed,"[['E', 'N', 'Z']]",[],0.0,0.939,0.061,Natural,0,0.969,0.031,Natural,0,1.0390824436857071,2.5449056294820522,9.653504501335723,10.030787047378897
20121219T045439,BSFB,1868,usp2012yvih,[],P,BL,,HHZ,-18.83133,-40.84653,388.7963796702807,-16.88484764,-43.900383,0.0,2012-12-19T04:55:35.377685Z,2012-12-19T04:54:39.332212Z,2012-12-19T04:55:24.377685Z,2012-12-19T04:56:24.377685Z,earthquake,3.917557032,known,20121219T045439/BL_BSFB_20121219T045439.mseed,"[['N', 'Z', 'E']]",[],0.0,0.984,0.016,Natural,0,0.8,0.2,Natural,0,1.9469067947542424,3.3908335235907168,7.703674449294615,14.998336129906333
20121219T045439,MCI6,1873,usp2012yvih,[],P,BL,,HHZ,-16.80705,-43.8933,8.642704939143986,-16.88484764,-43.900383,0.0,2012-12-19T04:54:40.790802Z,2012-12-19T04:54:39.332212Z,2012-12-19T04:54:29.790802Z,2012-12-19T04:55:29.790802Z,earthquake,3.917557032,known,20121219T045439/BL_MCI6_20121219T045439.mseed,"[['N', 'Z', 'E']]",[' Sampling rate is 200.0'],0.0,0.923,0.077,Natural,0,0.8,0.2,Natural,0,13263.10602319493,904.9414483036776,33.62007791777481,445906.65793152194
20121219T045439,MCI7,1871,usp2012yvih,[],P,BL,,HHZ,-16.7785,-43.8213,14.47610176472178,-16.88484764,-43.900383,0.0,2012-12-19T04:54:40.604522Z,2012-12-19T04:54:39.332212Z,2012-12-19T04:54:29.604522Z,2012-12-19T04:55:29.604522Z,earthquake,3.917557032,known,20121219T045439/BL_MCI7_20121219T045439.mseed,"[['N', 'Z', 'E']]",[' Sampling rate is 200.0'],0.0,0.724,0.276,Natural,0,0.8,0.2,Natural,0,9473.974030821815,868.4879190509808,24.9694118798678,236559.55971476124
20121219T045439,MCI8,1870,usp2012yvih,[],P,BL,,HHZ,-16.65967,-43.92041,25.01099293235417,-16.88484764,-43.900383,0.0,2012-12-19T04:54:39.737670Z,2012-12-19T04:54:39.332212Z,2012-12-19T04:54:28.737670Z,2012-12-19T04:55:28.737670Z,earthquake,3.917557032,known,20121219T045439/BL_MCI8_20121219T045439.mseed,"[['N', 'Z', 'E']]",[' Sampling rate is 200.0'],0.0,0.506,0.494,Natural,0,0.8,0.2,Natural,0,6228.502457510332,655.6679229086935,11.735341892505994,73093.60581719753
20121219T045439,MCI9,1872,usp2012yvih,[],P,BL,,HHZ,-16.69806,-43.89328,20.6850927354574,-16.88484764,-43.900383,0.0,2012-12-19T04:54:39.060302Z,2012-12-19T04:54:39.332212Z,2012-12-19T04:54:28.060302Z,2012-12-19T04:55:28.060302Z,earthquake,3.917557032,known,20121219T045439/BL_MCI9_20121219T045439.mseed,"[['N', 'Z', 'E']]",[' Sampling rate is 200.0'],0.0,0.517,0.483,Natural,0,0.8,0.2,Natural,0,2874.5074536228026,221.3126102728246,77.30691169614217,222219.29388712047
20121219T045439,PMNB,1867,usp2012yvih,[],P,BL,,HHZ,-18.54,-46.44,325.76275714956694,-16.88484764,-43.900383,0.0,2012-12-19T04:55:27.534875Z,2012-12-19T04:54:39.332212Z,2012-12-19T04:55:16.534875Z,2012-12-19T04:56:16.534875Z,earthquake,3.917557032,known,20121219T045439/BL_PMNB_20121219T045439.mseed,"[['E', 'N', 'Z']]",[],0.0,0.996,0.004,Natural,0,0.8,0.2,Natural,0,7.644258519291297,18.085552743750625,6.211451203286229,47.48193877788293
20121219T045439,SJMB,1869,usp2012yvih,[],P,BL,,HHZ,-18.702916,-41.184694,351.2648555494921,-16.88484764,-43.900383,0.0,2012-12-19T04:55:31.139648Z,2012-12-19T04:54:39.332212Z,2012-12-19T04:55:20.139648Z,2012-12-19T04:56:20.139648Z,earthquake,3.917557032,known,20121219T045439/BL_SJMB_20121219T045439.mseed,"[['E', 'N', 'Z']]",[],0.0,0.952,0.048,Natural,0,0.8,0.2,Natural,0,3.569627089063544,17.24172399817587,2.593638559253591,9.25832246035136
20121222T085622,CNLB,522,usp2012zbcu,[],P,BL,,HHZ,-29.3148,-50.8533,33.4157399000712,-29.32301331,-51.19717407,2000.0,2012-12-22T08:56:26.444824Z,2012-12-22T08:56:22.524912Z,2012-12-22T08:56:15.444824Z,2012-12-22T08:57:15.444824Z,earthquake,3.352902875,known,20121222T085622/BL_CNLB_20121222T085622.mseed,"[['2', '1', 'Z']]",[],0.0,0.978,0.022,Natural,0,0.724,0.276,Natural,0,15.103775016787816,39.06392058430219,7.2061444670194055,108.83998476833145
20121222T085622,CPSB,521,usp2012zbcu,[],P,BL,,HHZ,-30.4123,-53.4432,248.3217039270922,-29.32301331,-51.19717407,2000.0,2012-12-22T08:57:01.415832Z,2012-12-22T08:56:22.524912Z,2012-12-22T08:56:50.415832Z,2012-12-22T08:57:50.415832Z,earthquake,3.352902875,known,20121222T085622/BL_CPSB_20121222T085622.mseed,"[['E', 'N', 'Z']]",[],1.0,0.494,0.506,Anthropogenic,0,0.724,0.276,Natural,0,2.1526455648698763,2.9655563819964073,9.279345664661328,19.975142289927724
20121222T085622,ITAB,520,usp2012zbcu,[],P,BL,,HHZ,-27.2349,-52.1313,248.8955752330133,-29.32301331,-51.19717407,2000.0,2012-12-22T08:56:59.719650Z,2012-12-22T08:56:22.524912Z,2012-12-22T08:56:48.719650Z,2012-12-22T08:57:48.719650Z,earthquake,3.352902875,known,20121222T085622/BL_ITAB_20121222T085622.mseed,"[['E', 'N', 'Z']]",[],0.0,0.903,0.097,Natural,0,0.724,0.276,Natural,0,1.826979226447438,5.444014973082592,2.7419585654721166,5.0095013388971745
20121222T085622,PLTB,519,usp2012zbcu,[],P,BL,,HHZ,-31.76367,-53.60445,355.7393396158506,-29.32301331,-51.19717407,2000.0,2012-12-22T08:57:11.130126Z,2012-12-22T08:56:22.524912Z,2012-12-22T08:57:00.130126Z,2012-12-22T08:58:00.130126Z,earthquake,3.352902875,known,20121222T085622/BL_PLTB_20121222T085622.mseed,"[['E', 'N', 'Z']]",[],0.0,0.52,0.48,Natural,0,0.724,0.276,Natural,0,2.1747784174746014,2.993789117750585,2.2637443584776635,4.92314237349711
20121223T060642,BSFB,1294,usp2012zcsr,[],P,BL,,HHZ,-18.83133,-40.84653,396.3787825167415,-16.66916084,-43.82633972,0.0,2012-12-23T06:07:39.435729Z,2012-12-23T06:06:42.663038Z,2012-12-23T06:07:28.435729Z,2012-12-23T06:08:28.435729Z,earthquake,2.939217207,known,20121223T060642/BL_BSFB_20121223T060642.mseed,"[['N', 'Z', 'E']]",[],1.0,0.048,0.952,Anthropogenic,0,0.572,0.428,Natural,0,1.0356841747226009,0.991784149548947,6.536979710469943,6.770246436616449
20121223T060642,JANB,1297,usp2012zcsr,[],P,BR,,HHZ,-15.058097,-44.311197,185.68524199269484,-16.66916084,-43.82633972,0.0,2012-12-23T06:07:13.469436Z,2012-12-23T06:06:42.663038Z,2012-12-23T06:07:02.469436Z,2012-12-23T06:08:02.469436Z,earthquake,2.939217207,known,20121223T060642/BR_JANB_20121223T060642.mseed,"[['E', 'N', 'Z']]",[],0.0,0.998,0.002,Natural,0,0.572,0.428,Natural,0,23.443058060549237,76.50833555666394,1.6157650679653515,37.87847430051902
20121223T060642,MCI6,1298,usp2012zcsr,[],P,BL,,HHZ,-16.80705,-43.8933,16.847557979547542,-16.66916084,-43.82633972,0.0,2012-12-23T06:06:45.300476Z,2012-12-23T06:06:42.663038Z,2012-12-23T06:06:34.300476Z,2012-12-23T06:07:34.300476Z,earthquake,2.939217207,known,20121223T060642/BL_MCI6_20121223T060642.mseed,"[['N', 'Z', 'E']]",[' Sampling rate is 200.0'],0.0,0.98,0.02,Natural,0,0.572,0.428,Natural,0,475.31106209956187,66.35291288322689,63.7492210904897,30300.70998454045
20121223T060642,MCI7,1299,usp2012zcsr,[],P,BL,,HHZ,-16.7785,-43.8213,12.112087784441735,-16.66916084,-43.82633972,0.0,2012-12-23T06:06:45.102127Z,2012-12-23T06:06:42.663038Z,2012-12-23T06:06:34.102127Z,2012-12-23T06:07:34.102127Z,earthquake,2.939217207,known,20121223T060642/BL_MCI7_20121223T060642.mseed,"[['N', 'Z', 'E']]",[' Sampling rate is 200.0'],1.0,0.435,0.565,Anthropogenic,0,0.572,0.428,Natural,0,274.46152176820885,93.2521164194819,32.593568884664236,8945.680515941887
20121223T060642,MCI8,1300,usp2012zcsr,[],P,BL,,HHZ,-16.65967,-43.92041,10.08962480262478,-16.66916084,-43.82633972,0.0,2012-12-23T06:06:44.370391Z,2012-12-23T06:06:42.663038Z,2012-12-23T06:06:33.370391Z,2012-12-23T06:07:33.370391Z,earthquake,2.939217207,known,20121223T060642/BL_MCI8_20121223T060642.mseed,"[['N', 'Z', 'E']]",[' Sampling rate is 200.0'],1.0,0.184,0.816,Anthropogenic,0,0.572,0.428,Natural,0,1448.734772960863,117.30509562547986,10.108170111451763,14644.05753146385
20121223T060642,MCI9,1301,usp2012zcsr,[],P,BL,,HHZ,-16.69806,-43.89328,7.823578769888069,-16.66916084,-43.82633972,0.0,2012-12-23T06:06:43.661819Z,2012-12-23T06:06:42.663038Z,2012-12-23T06:06:32.661819Z,2012-12-23T06:07:32.661819Z,earthquake,2.939217207,known,20121223T060642/BL_MCI9_20121223T060642.mseed,"[['N', 'Z', 'E']]",[' Sampling rate is 200.0'],1.0,0.132,0.868,Anthropogenic,0,0.572,0.428,Natural,0,3479.821017759386,102.34105721221,27.681133223035605,96325.38918491692
20121223T060642,PMNB,1296,usp2012zcsr,[],P,BL,,HHZ,-18.54,-46.44,346.1485504091549,-16.66916084,-43.82633972,0.0,2012-12-23T06:07:32.953842Z,2012-12-23T06:06:42.663038Z,2012-12-23T06:07:21.953842Z,2012-12-23T06:08:21.953842Z,earthquake,2.939217207,known,20121223T060642/BL_PMNB_20121223T060642.mseed,"[['E', 'N', 'Z']]",[],0.0,0.982,0.018,Natural,0,0.572,0.428,Natural,0,1.9363486547267188,2.701765206980589,4.990713145733905,9.663760685868798
20121223T060642,SJMB,1295,usp2012zcsr,[],P,BL,,HHZ,-18.702916,-41.184694,359.4383027201669,-16.66916084,-43.82633972,0.0,2012-12-23T06:07:35.378967Z,2012-12-23T06:06:42.663038Z,2012-12-23T06:07:24.378967Z,2012-12-23T06:08:24.378967Z,earthquake,2.939217207,known,20121223T060642/BL_SJMB_20121223T060642.mseed,"[['E', 'N', 'Z']]",[],0.0,0.819,0.181,Natural,0,0.572,0.428,Natural,0,1.041324915950396,1.496495621663955,2.709661792799104,2.821638338640526
20130105T130147,NBCA,1862,usp2013aihu,[],P,NB,,HHZ,-8.225687,-36.013016,307.5550431320706,-5.447168827,-36.13132858,0.0,2013-01-05T13:02:32.395690Z,2013-01-05T13:01:47.168900Z,2013-01-05T13:02:21.395690Z,2013-01-05T13:03:21.395690Z,earthquake,2.6563333,known,20130105T130147/NB_NBCA_20130105T130147.mseed,"[['E', 'N', 'Z']]",[],0.0,0.975,0.025,Natural,0,0.871,0.129,Natural,0,1.8606998780466566,3.739522930718881,35.06975529570495,65.25428940184429
20130105T130147,NBCL,1863,usp2013aihu,[],P,NB,,HHZ,-4.224377,-38.291041,275.09043951950565,-5.447168827,-36.13132858,0.0,2013-01-05T13:02:28.593521Z,2013-01-05T13:01:47.168900Z,2013-01-05T13:02:17.593521Z,2013-01-05T13:03:17.593521Z,earthquake,2.6563333,known,20130105T130147/NB_NBCL_20130105T130147.mseed,"[['E', 'N', 'Z']]",[],0.0,1.0,0.0,Natural,0,0.871,0.129,Natural,0,8.023819359107216,11.724047665230279,138.54071296090422,1111.6256546802192
20130105T130147,NBLI,1864,usp2013aihu,[],P,NB,,HHZ,-7.364556,-36.949743,230.55998918700087,-5.447168827,-36.13132858,0.0,2013-01-05T13:02:23.069610Z,2013-01-05T13:01:47.168900Z,2013-01-05T13:02:12.069610Z,2013-01-05T13:03:12.069610Z,earthquake,2.6563333,known,20130105T130147/NB_NBLI_20130105T130147.mseed,"[['E', 'N', 'Z']]",[],0.0,1.0,0.0,Natural,0,0.871,0.129,Natural,0,8.044919624770372,24.93511703660121,115.38082950197438,928.229499582718
20130105T130147,NBMA,1861,usp2013aihu,[],P,NB,,HHZ,-7.365352,-38.764058,360.3058237517325,-5.447168827,-36.13132858,0.0,2013-01-05T13:02:38.852203Z,2013-01-05T13:01:47.168900Z,2013-01-05T13:02:27.852203Z,2013-01-05T13:03:27.852203Z,earthquake,2.6563333,known,20130105T130147/NB_NBMA_20130105T130147.mseed,"[['E', 'N', 'Z']]",[],0.0,0.991,0.009,Natural,0,0.871,0.129,Natural,0,1.5211563623930031,2.10746427821816,378.9081986009466,576.3786170647015
20130105T130147,NBPA,1866,usp2013aihu,[],P,NB,,HHZ,-5.75028,-37.112047,113.70837623873852,-5.447168827,-36.13132858,0.0,2013-01-05T13:02:07.538070Z,2013-01-05T13:01:47.168900Z,2013-01-05T13:01:56.538070Z,2013-01-05T13:02:56.538070Z,earthquake,2.6563333,known,20130105T130147/NB_NBPA_20130105T130147.mseed,"[['E', 'N', 'Z']]",[],0.0,0.982,0.018,Natural,0,0.871,0.129,Natural,0,138.3254621835412,401.1038790792132,102.03666462093561,14114.268793357904
20130105T130147,NBPB,1859,usp2013aihu,[],P,NB,,HHZ,-5.543242,-39.583619,382.6996831338697,-5.447168827,-36.13132858,0.0,2013-01-05T13:02:41.721740Z,2013-01-05T13:01:47.168900Z,2013-01-05T13:02:30.721740Z,2013-01-05T13:03:30.721740Z,earthquake,2.6563333,known,20130105T130147/NB_NBPB_20130105T130147.mseed,"[['E', 'N', 'Z']]",[],0.0,0.992,0.008,Natural,0,0.871,0.129,Natural,0,11.024059609590251,6.990413561290981,65.93964635455166,726.922592047878
20130105T130147,NBPV,1865,usp2013aihu,[],P,NB,,HHZ,-6.417527,-35.290516,142.06551494603147,-5.447168827,-36.13132858,0.0,2013-01-05T13:02:10.909820Z,2013-01-05T13:01:47.168900Z,2013-01-05T13:01:59.909820Z,2013-01-05T13:02:59.909820Z,earthquake,2.6563333,known,20130105T130147/NB_NBPV_20130105T130147.mseed,"[['E', 'N', 'Z']]",[],0.0,1.0,0.0,Natural,0,0.871,0.129,Natural,0,67.52080671820161,221.0619161375417,112.99346183395201,7629.409696910764
20130105T130147,NBRF,1860,usp2013aihu,[],P,NB,,HHZ,-8.679466,-35.127172,374.278993675471,-5.447168827,-36.13132858,0.0,2013-01-05T13:02:40.645660Z,2013-01-05T13:01:47.168900Z,2013-01-05T13:02:29.645660Z,2013-01-05T13:03:29.645660Z,earthquake,2.6563333,known,20130105T130147/NB_NBRF_20130105T130147.mseed,"[['E', 'N', 'Z']]",[],1.0,0.028,0.972,Anthropogenic,0,0.871,0.129,Natural,0,2.334034830627871,1.6961012731206897,501.03627631216483,1169.4361203206827
20130121T051932,AQDB,1078,usp2013bkyp,[],P,BL,,HHZ,-20.47579,-55.69971,359.41782498763433,-17.32059669,-56.50548553,0.0,2013-01-21T05:20:23.423896Z,2013-01-21T05:19:32.076853Z,2013-01-21T05:20:12.423896Z,2013-01-21T05:21:12.423896Z,earthquake,1.96781976,suspected,20130121T051932/BL_AQDB_20130121T051932.mseed,"[['E', 'N', 'Z']]",[],0.0,0.98,0.02,Natural,0,0.992,0.008,Natural,0,1.0965840688874429,1.3972124477888386,2.8135262092244124,3.0852680184327688
20130121T051932,SALB,1077,usp2013bkyp,[],P,BR,,HHZ,-15.90118,-55.69356,179.38570155580393,-17.32059669,-56.50548553,0.0,2013-01-21T05:20:01.722806Z,2013-01-21T05:19:32.076853Z,2013-01-21T05:19:50.722806Z,2013-01-21T05:20:50.722806Z,earthquake,1.96781976,suspected,20130121T051932/BR_SALB_20130121T051932.mseed,"[['E', 'N', 'Z']]",[],0.0,0.998,0.002,Natural,0,0.992,0.008,Natural,0,5.434839288230225,34.71853080527826,1.5616567665607533,8.487353549634959
20130121T051932,SALV,1079,usp2013bkyp,[],P,BR,,HHZ,-15.90118,-55.69356,179.38570155580393,-17.32059669,-56.50548553,0.0,2013-01-21T05:20:01.758636Z,2013-01-21T05:19:32.076853Z,2013-01-21T05:19:50.758636Z,2013-01-21T05:20:50.758636Z,earthquake,1.96781976,suspected,20130121T051932/BR_SALV_20130121T051932.mseed,"[['E', 'N', 'Z']]",[],0.0,0.998,0.002,Natural,0,0.992,0.008,Natural,0,5.449778047583421,34.83802269764015,1.5693223509835246,8.552458497972017
20130205T010256,ALF01,140,usp2013cmar,[],P,ON,,HHZ,-20.616865,-40.725213,201.12110513807576,-21.19421387,-42.55818939,0.0,2013-02-05T01:03:28.725737Z,2013-02-05T01:02:56.253829Z,2013-02-05T01:03:17.725737Z,2013-02-05T01:04:17.725737Z,earthquake,2.963358215,known,20130205T010256/ON_ALF01_20130205T010256.mseed,"[['E', 'N', 'Z']]",[],0.0,1.0,0.0,Natural,0,0.974,0.026,Natural,0,6.15079483427342,13.56989650704317,6.718856748930635,41.326309383545656
20130205T010256,BSCB,139,usp2013cmar,[],P,BL,,HHZ,-20.9984,-44.7635,230.16099898567225,-21.19421387,-42.55818939,0.0,2013-02-05T01:03:32.145636Z,2013-02-05T01:02:56.253829Z,2013-02-05T01:03:21.145636Z,2013-02-05T01:04:21.145636Z,earthquake,2.963358215,known,20130205T010256/BL_BSCB_20130205T010256.mseed,"[['Z', 'N', 'E']]",[],0.0,1.0,0.0,Natural,0,0.974,0.026,Natural,0,9.592330552970795,8.473403101310309,3.9019058307513728,37.428370515131284
20130205T010256,BSFB,135,usp2013cmar,[],P,BL,,HHZ,-18.83133,-40.84653,317.01325197122407,-21.19421387,-42.55818939,0.0,2013-02-05T01:03:42.761572Z,2013-02-05T01:02:56.253829Z,2013-02-05T01:03:31.761572Z,2013-02-05T01:04:31.761572Z,earthquake,2.963358215,known,20130205T010256/BL_BSFB_20130205T010256.mseed,"[['N', 'Z', 'E']]",[],0.0,0.992,0.008,Natural,0,0.974,0.026,Natural,0,1.0524947108298066,2.5088277132252714,6.325189317917671,6.6572283021055405
20130205T010256,CAM01,142,usp2013cmar,[],P,ON,,HHZ,-21.825656,-41.657401,116.61557189496943,-21.19421387,-42.55818939,0.0,2013-02-05T01:03:16.292984Z,2013-02-05T01:02:56.253829Z,2013-02-05T01:03:05.292984Z,2013-02-05T01:04:05.292984Z,earthquake,2.963358215,known,20130205T010256/ON_CAM01_20130205T010256.mseed,"[['1', '2', 'Z']]",[],0.0,0.789,0.211,Natural,0,0.974,0.026,Natural,0,21.270530686696457,23.737799814972988,14.379669274302808,305.86319656360405
20130205T010256,DUB01,143,usp2013cmar,[],P,ON,,HHZ,-22.080966,-42.374182,100.01671267954497,-21.19421387,-42.55818939,0.0,2013-02-05T01:03:13.799316Z,2013-02-05T01:02:56.253829Z,2013-02-05T01:03:02.799316Z,2013-02-05T01:04:02.799316Z,earthquake,2.963358215,known,20130205T010256/ON_DUB01_20130205T010256.mseed,"[['E', 'N', 'Z']]",[],0.0,0.988,0.012,Natural,0,0.974,0.026,Natural,0,45.63511960898158,75.32511769531595,4.185547342977593,191.0079536258375
20130205T010256,ESAR,138,usp2013cmar,[],P,BL,,HHZ,-23.0207,-44.4403,280.3837634729403,-21.19421387,-42.55818939,0.0,2013-02-05T01:03:38.629194Z,2013-02-05T01:02:56.253829Z,2013-02-05T01:03:27.629194Z,2013-02-05T01:04:27.629194Z,earthquake,2.963358215,known,20130205T010256/BL_ESAR_20130205T010256.mseed,"[['E', 'N', 'Z']]",[],0.0,0.998,0.002,Natural,0,0.974,0.026,Natural,0,1.3785221415341586,2.835635714354703,0.00018740110149052724,0.00025833656775258183
20130205T010256,RIB01,137,usp2013cmar,[],P,ON,,HHZ,-19.314216,-40.394365,307.27763628381774,-21.19421387,-42.55818939,0.0,2013-02-05T01:03:41.265368Z,2013-02-05T01:02:56.253829Z,2013-02-05T01:03:30.265368Z,2013-02-05T01:04:30.265368Z,earthquake,2.963358215,known,20130205T010256/ON_RIB01_20130205T010256.mseed,"[['E', 'N', 'Z']]",[],0.0,0.997,0.003,Natural,0,0.974,0.026,Natural,0,1.7022763681042812,4.2187332971843645,4.466850822934256,7.603814595728145
20130205T010256,SJMB,136,usp2013cmar,[],P,BL,,HHZ,-18.702916,-41.184694,311.0164238209841,-21.19421387,-42.55818939,0.0,2013-02-05T01:03:43.331557Z,2013-02-05T01:02:56.253829Z,2013-02-05T01:03:32.331557Z,2013-02-05T01:04:32.331557Z,earthquake,2.963358215,known,20130205T010256/BL_SJMB_20130205T010256.mseed,"[['E', 'N', 'Z']]",[],0.0,1.0,0.0,Natural,0,0.974,0.026,Natural,0,2.068498564557425,4.7673878959290406,3.4179182156884926,7.0699589229263236
20130205T010256,VAS01,141,usp2013cmar,[],P,ON,,HHZ,-22.280081,-43.442624,151.0876178678291,-21.19421387,-42.55818939,0.0,2013-02-05T01:03:21.066574Z,2013-02-05T01:02:56.253829Z,2013-02-05T01:03:10.066574Z,2013-02-05T01:04:10.066574Z,earthquake,2.963358215,known,20130205T010256/ON_VAS01_20130205T010256.mseed,"[['E', 'N', 'Z']]",[],0.0,0.999,0.001,Natural,0,0.974,0.026,Natural,0,18.551229336410096,77.10190173097945,5.369823738281576,99.6168316649605
20130213T045908,BB19B,1701,usp2013dayn,[],P,BL,,HHZ,-21.0662,-48.5279,145.27925457507803,-20.20763969,-47.47369003,0.0,2013-02-13T04:59:32.660465Z,2013-02-13T04:59:08.489259Z,2013-02-13T04:59:21.660465Z,2013-02-13T05:00:21.660465Z,earthquake,2.405332479,known,20130213T045908/BL_BB19B_20130213T045908.mseed,"[['E', 'N', 'Z']]",[],0.0,0.993,0.007,Natural,0,0.974,0.026,Natural,0,0.9070860587580065,4.937866642896811,7.2212709610355486,6.550314215269378
20130213T045908,BSCB,1699,usp2013dayn,[],P,BL,,HHZ,-20.9984,-44.7635,295.76528076799684,-20.20763969,-47.47369003,0.0,2013-02-13T04:59:52.030029Z,2013-02-13T04:59:08.489259Z,2013-02-13T04:59:41.030029Z,2013-02-13T05:00:41.030029Z,earthquake,2.405332479,known,20130213T045908/BL_BSCB_20130213T045908.mseed,"[['Z', 'N', 'E']]",[],0.0,0.999,0.001,Natural,0,0.974,0.026,Natural,0,1.5716039173066512,3.057154804892715,3.4671505542851175,5.448987393006417
20130213T045908,IPMB,1700,usp2013dayn,[],P,BR,,HHZ,-17.982956,-48.211734,258.2126206151169,-20.20763969,-47.47369003,0.0,2013-02-13T04:59:47.653942Z,2013-02-13T04:59:08.489259Z,2013-02-13T04:59:36.653942Z,2013-02-13T05:00:36.653942Z,earthquake,2.405332479,known,20130213T045908/BR_IPMB_20130213T045908.mseed,"[['E', 'N', 'Z']]",[],0.0,0.993,0.007,Natural,0,0.974,0.026,Natural,0,1.7741469180339025,4.536093891340063,3.693895147807681,6.553512692023384
20130213T045908,ITRB,1698,usp2013dayn,[],P,BL,,HHZ,-19.7042,-50.359,307.11741124561763,-20.20763969,-47.47369003,0.0,2013-02-13T04:59:53.393074Z,2013-02-13T04:59:08.489259Z,2013-02-13T04:59:42.393074Z,2013-02-13T05:00:42.393074Z,earthquake,2.405332479,known,20130213T045908/BL_ITRB_20130213T045908.mseed,"[['E', 'N', 'Z']]",[],0.0,0.91,0.09,Natural,0,0.974,0.026,Natural,0,1.064383163931699,1.758770306501467,4.407016343693999,4.6907539993997265
20130303T133631,NBCA,60,usp2013eimq,[],P,NB,,HHZ,-8.225687,-36.013016,310.83983276411755,-5.416610718,-36.10967636,0.0,2013-03-03T13:37:17.260947Z,2013-03-03T13:36:31.106094Z,2013-03-03T13:37:06.260947Z,2013-03-03T13:38:06.260947Z,earthquake,2.323119832,known,20130303T133631/NB_NBCA_20130303T133631.mseed,"[['E', 'N', 'Z']]",[],0.0,0.993,0.007,Natural,0,0.841,0.159,Natural,0,1.0759460335605027,1.4651792026567612,26.422028602793144,28.428676873797436
20130303T133631,NBCL,61,usp2013eimq,[],P,NB,,HHZ,-4.224377,-38.291041,275.5567667405452,-5.416610718,-36.10967636,0.0,2013-03-03T13:37:12.669677Z,2013-03-03T13:36:31.106094Z,2013-03-03T13:37:01.669677Z,2013-03-03T13:38:01.669677Z,earthquake,2.323119832,known,20130303T133631/NB_NBCL_20130303T133631.mseed,"[['E', 'N', 'Z']]",[],0.0,0.998,0.002,Natural,0,0.841,0.159,Natural,0,1.5970707463564557,2.0273662401864136,146.37272829340813,233.76760242178403
20130303T133631,NBLI,62,usp2013eimq,[],P,NB,,HHZ,-7.364556,-36.949743,234.6110341811506,-5.416610718,-36.10967636,0.0,2013-03-03T13:37:07.181610Z,2013-03-03T13:36:31.106094Z,2013-03-03T13:36:56.181610Z,2013-03-03T13:37:56.181610Z,earthquake,2.323119832,known,20130303T133631/NB_NBLI_20130303T133631.mseed,"[['E', 'N', 'Z']]",[],0.0,1.0,0.0,Natural,0,0.841,0.159,Natural,0,1.8875803669337072,5.894967612071447,84.65237156369858,159.78815457801468
20130303T133631,NBMA,59,usp2013eimq,[],P,NB,,HHZ,-7.365352,-38.764058,364.2405219292938,-5.416610718,-36.10967636,0.0,2013-03-03T13:37:23.251166Z,2013-03-03T13:36:31.106094Z,2013-03-03T13:37:12.251166Z,2013-03-03T13:38:12.251166Z,earthquake,2.323119832,known,20130303T133631/NB_NBMA_20130303T133631.mseed,"[['E', 'N', 'Z']]",[],0.0,0.966,0.034,Natural,0,0.841,0.159,Natural,0,1.021893248858708,1.1888882672480405,333.82089584979474,341.12931979687113
20130303T133631,NBPA,64,usp2013eimq,[],P,NB,,HHZ,-5.75028,-37.112047,117.02670115249276,-5.416610718,-36.10967636,0.0,2013-03-03T13:36:51.757720Z,2013-03-03T13:36:31.106094Z,2013-03-03T13:36:40.757720Z,2013-03-03T13:37:40.757720Z,earthquake,2.323119832,known,20130303T133631/NB_NBPA_20130303T133631.mseed,"[['E', 'N', 'Z']]",[],0.0,0.991,0.009,Natural,0,0.841,0.159,Natural,0,13.0617818306401,32.82978501842287,183.34641354715936,2394.8308531833122
20130303T133631,NBPB,57,usp2013eimq,[],P,NB,,HHZ,-5.543242,-39.583619,385.2158625819844,-5.416610718,-36.10967636,0.0,2013-03-03T13:37:25.941386Z,2013-03-03T13:36:31.106094Z,2013-03-03T13:37:14.941386Z,2013-03-03T13:38:14.941386Z,earthquake,2.323119832,known,20130303T133631/NB_NBPB_20130303T133631.mseed,"[['E', 'N', 'Z']]",[],0.0,0.78,0.22,Natural,0,0.841,0.159,Natural,0,2.2119344217024386,2.7463429270763218,48.635469790261894,107.57846974474937
20130303T133631,NBPV,63,usp2013eimq,[],P,NB,,HHZ,-6.417527,-35.290516,143.10503922776738,-5.416610718,-36.10967636,0.0,2013-03-03T13:36:55.021850Z,2013-03-03T13:36:31.106094Z,2013-03-03T13:36:44.021850Z,2013-03-03T13:37:44.021850Z,earthquake,2.323119832,known,20130303T133631/NB_NBPV_20130303T133631.mseed,"[['E', 'N', 'Z']]",[],0.0,0.998,0.002,Natural,0,0.841,0.159,Natural,0,17.477545593061993,58.08152577040467,3.144887993795012,54.96492329662558
20130303T133631,NBRF,58,usp2013eimq,[],P,NB,,HHZ,-8.679466,-35.127172,376.81283772105286,-5.416610718,-36.10967636,0.0,2013-03-03T13:37:24.865298Z,2013-03-03T13:36:31.106094Z,2013-03-03T13:37:13.865298Z,2013-03-03T13:38:13.865298Z,earthquake,2.323119832,known,20130303T133631/NB_NBRF_20130303T133631.mseed,"[['E', 'N', 'Z']]",[],1.0,0.005,0.995,Anthropogenic,0,0.841,0.159,Natural,0,1.447109708012545,1.909998497675023,15.178873883242474,21.965495753138264
20130402T193419,JANB,1916,usp2013gltn,[],P,BR,,HHZ,-15.058097,-44.311197,180.30250073809705,-16.64261627,-43.91891861,0.0,2013-04-02T19:34:49.021679Z,2013-04-02T19:34:19.283403Z,2013-04-02T19:34:38.021679Z,2013-04-02T19:35:38.021679Z,earthquake,1.50856413,known,20130402T193419/BR_JANB_20130402T193419.mseed,"[['E', 'N', 'Z']]",[],1.0,0.105,0.895,Anthropogenic,1,0.139,0.861,Anthropogenic,0,1.407231963527995,3.2809876540342495,6.8515991920185515,9.64178938429109
20130402T193419,MCI6,1917,usp2013gltn,[],P,BL,,HHZ,-16.80705,-43.8933,18.401204553905348,-16.64261627,-43.91891861,0.0,2013-04-02T19:34:22.254379Z,2013-04-02T19:34:19.283403Z,2013-04-02T19:34:11.254379Z,2013-04-02T19:35:11.254379Z,earthquake,1.50856413,known,20130402T193419/BL_MCI6_20130402T193419.mseed,"[['N', 'Z', 'E']]",[' Sampling rate is 200.0'],1.0,0.045,0.955,Anthropogenic,1,0.139,0.861,Anthropogenic,0,20.95126951598696,7.573471225732996,122.63858221869397,2569.4339891223835
20130402T193419,MCI8,1919,usp2013gltn,[],P,BL,,HHZ,-16.65967,-43.92041,1.8939542454988447,-16.64261627,-43.91891861,0.0,2013-04-02T19:34:19.806259Z,2013-04-02T19:34:19.283403Z,2013-04-02T19:34:08.806259Z,2013-04-02T19:35:08.806259Z,earthquake,1.50856413,known,20130402T193419/BL_MCI8_20130402T193419.mseed,"[['N', 'Z', 'E']]",[' Sampling rate is 200.0'],1.0,0.074,0.926,Anthropogenic,1,0.139,0.861,Anthropogenic,0,183.87259364842066,11.811363961913106,26.619937415420857,4894.676935332069
20130402T193419,MCI9,1918,usp2013gltn,[],P,BL,,HHZ,-16.69806,-43.89328,6.717634049434391,-16.64261627,-43.91891861,0.0,2013-04-02T19:34:20.222727Z,2013-04-02T19:34:19.283403Z,2013-04-02T19:34:09.222727Z,2013-04-02T19:35:09.222727Z,earthquake,1.50856413,known,20130402T193419/BL_MCI9_20130402T193419.mseed,"[['N', 'Z', 'E']]",[' Sampling rate is 200.0'],1.0,0.331,0.669,Anthropogenic,1,0.139,0.861,Anthropogenic,0,33.45084632206239,3.4744885302889066,190.6871675509894,6378.647137337508
20130420T145821,BSCB,449,usp2013hshm,[],P,BL,,HHZ,-20.9984,-44.7635,74.05626972472044,-21.16717148,-44.07388306,0.0,2013-04-20T14:58:33.998321Z,2013-04-20T14:58:21.477830Z,2013-04-20T14:58:22.998321Z,2013-04-20T14:59:22.998321Z,earthquake,2.520786619,suspected,20130420T145821/BL_BSCB_20130420T145821.mseed,"[['Z', 'N', 'E']]",[],0.0,0.935,0.065,Natural,0,0.965,0.035,Natural,0,14.09575084844941,36.36917453145284,10.623270166124984,149.74296945746354
20130420T145821,ESAR,450,usp2013hshm,[],P,BL,,HHZ,-23.0207,-44.4403,208.6977373925137,-21.16717148,-44.07388306,0.0,2013-04-20T14:58:55.003540Z,2013-04-20T14:58:21.477830Z,2013-04-20T14:58:44.003540Z,2013-04-20T14:59:44.003540Z,earthquake,2.520786619,suspected,20130420T145821/BL_ESAR_20130420T145821.mseed,"[['E', 'N', 'Z']]",[],0.0,0.994,0.006,Natural,0,0.965,0.035,Natural,0,1.9286632063868383,2.6660761810255824,0.00025314109413199974,0.0004882239142768951
20130511T024543,CLDB,2352,usp2013jdsw,[],P,BL,,HHZ,-10.8732,-55.7965,380.9906169673393,-8.096297264,-57.84969711,0.0,2013-05-11T02:46:38.031097Z,2013-05-11T02:45:43.483959Z,2013-05-11T02:46:27.031097Z,2013-05-11T02:47:27.031097Z,earthquake,2.537685559,suspected,20130511T024543/BL_CLDB_20130511T024543.mseed,"[['E', 'N', 'Z']]",[],0.0,0.83,0.17,Natural,0,0.83,0.17,Natural,0,2.2251114562107417,5.2297607313684935,2.195739463868549,4.88576503590794
20130730T042204,PEXB,2171,usp2013ouah,[],P,BL,,HHZ,-12.10584,-48.30085,185.34759893942044,-13.77977657,-48.37178421,0.0,2013-07-30T04:22:34.957214Z,2013-07-30T04:22:04.048669Z,2013-07-30T04:22:23.957214Z,2013-07-30T04:23:23.957214Z,earthquake,3.289682375,known,20130730T042204/BL_PEXB_20130730T042204.mseed,"[['E', 'N', 'Z']]",[],0.0,1.0,0.0,Natural,0,1.0,0.0,Natural,0,3.8691986918904515,8.204091004407019,52.667307556310604,203.7802775022691
20130730T095231,PEXB,1282,usp2013oulb,[],P,BL,,HHZ,-12.10584,-48.30085,189.50898451153813,-13.66854668,-49.01609039,0.0,2013-07-30T09:53:01.496032Z,2013-07-30T09:52:31.834511Z,2013-07-30T09:52:50.496032Z,2013-07-30T09:53:50.496032Z,earthquake,2.515409305,suspected,20130730T095231/BL_PEXB_20130730T095231.mseed,"[['E', 'N', 'Z']]",[],0.0,0.997,0.003,Natural,0,0.997,0.003,Natural,0,12.33707239852286,24.0877114456256,3.5067772127128984,43.26336435872923
20130731T212621,BB19B,357,usp2013oxdp,[],P,BL,,HHZ,-21.0662,-48.5279,155.26875007252775,-22.35198784,-47.92907333,0.0,2013-07-31T21:26:47.904270Z,2013-07-31T21:26:21.216588Z,2013-07-31T21:26:36.904270Z,2013-07-31T21:27:36.904270Z,earthquake,2.548764321,known,20130731T212621/BL_BB19B_20130731T212621.mseed,"[['E', 'N', 'Z']]",[],1.0,0.234,0.766,Anthropogenic,1,0.255,0.745,Anthropogenic,0,0.9648875739391884,2.218068716556682,17.551361273806325,16.93509039881321
20130731T212621,BSCB,359,usp2013oxdp,[],P,BL,,HHZ,-20.9984,-44.7635,360.2624023188962,-22.35198784,-47.92907333,0.0,2013-07-31T21:27:13.101375Z,2013-07-31T21:26:21.216588Z,2013-07-31T21:27:02.101375Z,2013-07-31T21:28:02.101375Z,earthquake,2.548764321,known,20130731T212621/BL_BSCB_20130731T212621.mseed,"[['Z', 'N', 'E']]",[],0.0,0.892,0.108,Natural,1,0.255,0.745,Anthropogenic,0,1.2184288605770044,1.070078329009732,5.02354498170775,6.120832188119502
20130731T212621,FRTB,358,usp2013oxdp,[],P,BL,,HHZ,-23.3439,-49.564,200.5567555471296,-22.35198784,-47.92907333,0.0,2013-07-31T21:26:53.084978Z,2013-07-31T21:26:21.216588Z,2013-07-31T21:26:42.084978Z,2013-07-31T21:27:42.084978Z,earthquake,2.548764321,known,20130731T212621/BL_FRTB_20130731T212621.mseed,"[['E', 'N', 'Z']]",[],1.0,0.011,0.989,Anthropogenic,1,0.255,0.745,Anthropogenic,0,1.4705752192624646,1.4922174772730137,6.5222928394639785,9.591522222488743
20130731T212621,ITRB,360,usp2013oxdp,[],P,BL,,HHZ,-19.7042,-50.359,386.9450596930393,-22.35198784,-47.92907333,0.0,2013-07-31T21:27:15.621090Z,2013-07-31T21:26:21.216588Z,2013-07-31T21:27:04.621090Z,2013-07-31T21:28:04.621090Z,earthquake,2.548764321,known,20130731T212621/BL_ITRB_20130731T212621.mseed,"[['E', 'N', 'Z']]",[],1.0,0.059,0.941,Anthropogenic,1,0.255,0.745,Anthropogenic,0,1.0946613724514558,0.8887214797205324,39.71740885381747,43.47711328613543
20130731T212621,PARB,361,usp2013oxdp,[],P,BL,,HHZ,-23.3421,-45.6246,260.69836125611846,-22.35198784,-47.92907333,0.0,2013-07-31T21:26:55.492775Z,2013-07-31T21:26:21.216588Z,2013-07-31T21:26:44.492775Z,2013-07-31T21:27:44.492775Z,earthquake,2.548764321,known,20130731T212621/BL_PARB_20130731T212621.mseed,"[['E', 'N', 'Z']]",[],1.0,0.322,0.678,Anthropogenic,1,0.255,0.745,Anthropogenic,0,1.2883086581475998,1.0346903655268633,28.26035711090426,36.40806274832104
20130731T212621,VABB,362,usp2013oxdp,[],P,BL,,HHZ,-23.0021,-46.9657,122.40910399741608,-22.35198784,-47.92907333,0.0,2013-07-31T21:26:32.160514Z,2013-07-31T21:26:21.216588Z,2013-07-31T21:26:21.160514Z,2013-07-31T21:27:21.160514Z,earthquake,2.548764321,known,20130731T212621/BL_VABB_20130731T212621.mseed,"[['E', 'N', 'Z']]",[],1.0,0.01,0.99,Anthropogenic,1,0.255,0.745,Anthropogenic,0,2.087142921147464,5.9074129930909285,16.000730470766584,33.39581133524901
20130802T192427,ALF01,2065,usp2013paqo,[],P,ON,,HHZ,-20.616865,-40.725213,318.30370067368386,-19.03210449,-43.26053238,0.0,2013-08-02T19:25:13.333984Z,2013-08-02T19:24:27.125830Z,2013-08-02T19:25:02.333984Z,2013-08-02T19:26:02.333984Z,earthquake,2.117617234,suspected,20130802T192427/ON_ALF01_20130802T192427.mseed,"[['E', 'N', 'Z']]",[],1.0,0.42,0.58,Anthropogenic,0,0.537,0.463,Natural,0,1.0781550426003605,0.9469137118845484,9.119225212097351,9.831938647031102
20130802T192427,BSCB,2064,usp2013paqo,[],P,BL,,HHZ,-20.9984,-44.7635,268.5381043224231,-19.03210449,-43.26053238,0.0,2013-08-02T19:25:11.559371Z,2013-08-02T19:24:27.125830Z,2013-08-02T19:25:00.559371Z,2013-08-02T19:26:00.559371Z,earthquake,2.117617234,suspected,20130802T192427/BL_BSCB_20130802T192427.mseed,"[['Z', 'N', 'E']]",[],0.0,0.874,0.126,Natural,0,0.537,0.463,Natural,0,26.937634697196255,21.23382906590942,6.266761861317428,168.81174175449053
20130802T192427,PMNB,2061,usp2013paqo,[],P,BL,,HHZ,-18.54,-46.44,339.58930007816593,-19.03210449,-43.26053238,0.0,2013-08-02T19:25:29.442633Z,2013-08-02T19:24:27.125830Z,2013-08-02T19:25:18.442633Z,2013-08-02T19:26:18.442633Z,earthquake,2.117617234,suspected,20130802T192427/BL_PMNB_20130802T192427.mseed,"[['E', 'N', 'Z']]",[],0.0,0.892,0.108,Natural,0,0.537,0.463,Natural,0,2.2008330501966564,1.821990640923773,15.12146878717568,33.27982827433338
20130802T192427,SJMB,2062,usp2013paqo,[],P,BL,,HHZ,-18.702916,-41.184694,221.7541256896605,-19.03210449,-43.26053238,0.0,2013-08-02T19:25:01.468772Z,2013-08-02T19:24:27.125830Z,2013-08-02T19:24:50.468772Z,2013-08-02T19:25:50.468772Z,earthquake,2.117617234,suspected,20130802T192427/BL_SJMB_20130802T192427.mseed,"[['E', 'N', 'Z']]",[],1.0,0.248,0.752,Anthropogenic,0,0.537,0.463,Natural,0,0.9415242571401924,0.9717444338464887,5.1327538224886045,4.832612229802066
20130802T192427,VAS01,2063,usp2013paqo,[],P,ON,,HHZ,-22.280081,-43.442624,360.09272367966986,-19.03210449,-43.26053238,0.0,2013-08-02T19:25:19.058791Z,2013-08-02T19:24:27.125830Z,2013-08-02T19:25:08.058791Z,2013-08-02T19:26:08.058791Z,earthquake,2.117617234,suspected,20130802T192427/ON_VAS01_20130802T192427.mseed,"[['E', 'N', 'Z']]",[],1.0,0.253,0.747,Anthropogenic,0,0.537,0.463,Natural,0,0.9466225963291662,0.9931291688992001,9.287142890718668,8.791419315692064
20131006T125323,AQDB,1531,usp2013toxj,[],P,BL,,HHZ,-20.47579,-55.69971,138.52825595320542,-19.50574112,-56.53590393,0.0,2013-10-06T12:53:46.910125Z,2013-10-06T12:53:23.533179Z,2013-10-06T12:53:35.910125Z,2013-10-06T12:54:35.910125Z,earthquake,2.576038655,suspected,20131006T125323/BL_AQDB_20131006T125323.mseed,"[['E', 'N', 'Z']]",[],1.0,0.001,0.999,Anthropogenic,1,0.005,0.995,Anthropogenic,0,13.97525980418679,34.027029940276805,7.043918406839604,98.44058977507697
20131006T125323,PP1B,1530,usp2013toxj,[],P,BL,,HHZ,-17.6003,-54.8796,273.9571353834868,-19.50574112,-56.53590393,0.0,2013-10-06T12:54:04.873310Z,2013-10-06T12:53:23.533179Z,2013-10-06T12:53:53.873310Z,2013-10-06T12:54:53.873310Z,earthquake,2.576038655,suspected,20131006T125323/BL_PP1B_20131006T125323.mseed,"[['Z', 'N', 'E']]",[],1.0,0.009,0.991,Anthropogenic,1,0.005,0.995,Anthropogenic,0,1.7453990568134568,1.189595667313645,19.86076877793012,34.66496709258938
20131009T204028,ALF01,894,usp2013tuzh,[],P,ON,,HHZ,-20.616865,-40.725213,225.77102716024663,-22.65029144,-40.5638237,0.0,2013-10-09T20:41:03.674774Z,2013-10-09T20:40:28.507225Z,2013-10-09T20:40:52.674774Z,2013-10-09T20:41:52.674774Z,earthquake,2.751872807,known,20131009T204028/ON_ALF01_20131009T204028.mseed,"[['E', 'N', 'Z']]",[],0.0,1.0,0.0,Natural,0,0.965,0.035,Natural,0,4.99990932921674,4.2161325114693335,6.6195607883163,33.097203740819985
20131009T204028,CAM01,895,usp2013tuzh,[],P,ON,,HHZ,-21.825656,-41.657401,145.07707359653998,-22.65029144,-40.5638237,0.0,2013-10-09T20:40:53.515996Z,2013-10-09T20:40:28.507225Z,2013-10-09T20:40:42.515996Z,2013-10-09T20:41:42.515996Z,earthquake,2.751872807,known,20131009T204028/ON_CAM01_20131009T204028.mseed,"[['1', '2', 'Z']]",[],0.0,0.991,0.009,Natural,0,0.965,0.035,Natural,0,4.305091017019934,15.009220442140428,18.267268885262425,78.642255183431
20131009T204028,DUB01,893,usp2013tuzh,[],P,ON,,HHZ,-22.080966,-42.374182,196.8261015578308,-22.65029144,-40.5638237,0.0,2013-10-09T20:40:59.940364Z,2013-10-09T20:40:28.507225Z,2013-10-09T20:40:48.940364Z,2013-10-09T20:41:48.940364Z,earthquake,2.751872807,known,20131009T204028/ON_DUB01_20131009T204028.mseed,"[['E', 'N', 'Z']]",[],0.0,0.997,0.003,Natural,0,0.965,0.035,Natural,0,11.278191769572025,17.381088307818658,6.136837121793092,69.21242591821093
20131009T204028,VAS01,892,usp2013tuzh,[],P,ON,,HHZ,-22.280081,-43.442624,299.10925629921246,-22.65029144,-40.5638237,0.0,2013-10-09T20:41:12.791596Z,2013-10-09T20:40:28.507225Z,2013-10-09T20:41:01.791596Z,2013-10-09T20:42:01.791596Z,earthquake,2.751872807,known,20131009T204028/ON_VAS01_20131009T204028.mseed,"[['E', 'N', 'Z']]",[],0.0,0.872,0.128,Natural,0,0.965,0.035,Natural,0,1.9429648902221777,4.779868449459871,6.786109661221004,13.185172812949927
20131024T223441,NBCL,919,usp2013uwnq,[],P,NB,,HHZ,-4.224377,-38.291041,273.1728906438302,-5.379933834,-36.11449432,0.0,2013-10-24T22:35:23.352696Z,2013-10-24T22:34:41.065476Z,2013-10-24T22:35:12.352696Z,2013-10-24T22:36:12.352696Z,earthquake,2.696338179,known,20131024T223441/NB_NBCL_20131024T223441.mseed,"[['E', 'N', 'Z']]",[],0.0,0.997,0.003,Natural,0,0.827,0.173,Natural,0,10.764514110487086,18.925095991639125,3.329991828667854,35.84574402750181
20131024T223441,NBLI,920,usp2013uwnq,[],P,NB,,HHZ,-7.364556,-36.949743,238.13444228616723,-5.379933834,-36.11449432,0.0,2013-10-24T22:35:17.038785Z,2013-10-24T22:34:41.065476Z,2013-10-24T22:35:06.038785Z,2013-10-24T22:36:06.038785Z,earthquake,2.696338179,known,20131024T223441/NB_NBLI_20131024T223441.mseed,"[['E', 'N', 'Z']]",[],0.0,1.0,0.0,Natural,0,0.827,0.173,Natural,0,7.513232666145234,76.54767957817153,1.79744208442733,13.504600584223596
20131024T223441,NBMA,918,usp2013uwnq,[],P,NB,,HHZ,-7.365352,-38.764058,366.23599716974127,-5.379933834,-36.11449432,0.0,2013-10-24T22:35:33.897580Z,2013-10-24T22:34:41.065476Z,2013-10-24T22:35:22.897580Z,2013-10-24T22:36:22.897580Z,earthquake,2.696338179,known,20131024T223441/NB_NBMA_20131024T223441.mseed,"[['E', 'N', 'Z']]",[],0.0,0.985,0.015,Natural,0,0.827,0.173,Natural,0,2.5998732208459963,3.5300704912663496,9.226049118305301,23.98655803689177
20131024T223441,NBPB,916,usp2013uwnq,[],P,NB,,HHZ,-5.543242,-39.583619,384.8629533976512,-5.379933834,-36.11449432,0.0,2013-10-24T22:35:35.947976Z,2013-10-24T22:34:41.065476Z,2013-10-24T22:35:24.947976Z,2013-10-24T22:36:24.947976Z,earthquake,2.696338179,known,20131024T223441/NB_NBPB_20131024T223441.mseed,"[['E', 'N', 'Z']]",[],0.0,0.96,0.04,Natural,0,0.827,0.173,Natural,0,18.398888944733276,9.310296709820943,1.6732933296285208,30.786738143798125
20131024T223441,NBPV,921,usp2013uwnq,[],P,NB,,HHZ,-6.417527,-35.290516,146.5979816554089,-5.379933834,-36.11449432,0.0,2013-10-24T22:35:05.712798Z,2013-10-24T22:34:41.065476Z,2013-10-24T22:34:54.712798Z,2013-10-24T22:35:54.712798Z,earthquake,2.696338179,known,20131024T223441/NB_NBPV_20131024T223441.mseed,"[['E', 'N', 'Z']]",[],0.0,0.999,0.001,Natural,0,0.827,0.173,Natural,0,120.17175851912032,379.67216666773214,2.925776747831806,351.595736821301
20131024T223441,NBRF,917,usp2013uwnq,[],P,NB,,HHZ,-8.679466,-35.127172,380.8518276817195,-5.379933834,-36.11449432,0.0,2013-10-24T22:35:35.557423Z,2013-10-24T22:34:41.065476Z,2013-10-24T22:35:24.557423Z,2013-10-24T22:36:24.557423Z,earthquake,2.696338179,known,20131024T223441/NB_NBRF_20131024T223441.mseed,"[['E', 'N', 'Z']]",[],1.0,0.024,0.976,Anthropogenic,0,0.827,0.173,Natural,0,10.962463138238489,6.440267306753871,5.1678167718372,56.65200086643593
20131101T010514,NBCL,1999,usp2013vjnc,[],P,NB,,HHZ,-4.224377,-38.291041,275.6141674860024,-5.440600872,-36.12224579,2000.0,2013-11-01T01:05:55.498490Z,2013-11-01T01:05:14.259611Z,2013-11-01T01:05:44.498490Z,2013-11-01T01:06:44.498490Z,earthquake,1.978852545,known,20131101T010514/NB_NBCL_20131101T010514.mseed,"[['E', 'N', 'Z']]",[],0.0,1.0,0.0,Natural,0,0.815,0.185,Natural,0,2.512452441904714,4.818567038328427,2.554645843271648,6.418426187129579
20131101T010514,NBLI,2000,usp2013vjnc,[],P,NB,,HHZ,-7.364556,-36.949743,231.6236143062008,-5.440600872,-36.12224579,2000.0,2013-11-01T01:05:49.507455Z,2013-11-01T01:05:14.259611Z,2013-11-01T01:05:38.507455Z,2013-11-01T01:06:38.507455Z,earthquake,1.978852545,known,20131101T010514/NB_NBLI_20131101T010514.mseed,"[['E', 'N', 'Z']]",[],0.0,1.0,0.0,Natural,0,0.815,0.185,Natural,0,2.1348090476469683,10.23679118501472,2.1461716031758074,4.581666556262713
20131101T010514,NBMA,1998,usp2013vjnc,[],P,NB,,HHZ,-7.365352,-38.764058,361.5470421017158,-5.440600872,-36.12224579,2000.0,2013-11-01T01:06:05.781609Z,2013-11-01T01:05:14.259611Z,2013-11-01T01:05:54.781609Z,2013-11-01T01:06:54.781609Z,earthquake,1.978852545,known,20131101T010514/NB_NBMA_20131101T010514.mseed,"[['E', 'N', 'Z']]",[],0.0,0.722,0.278,Natural,0,0.815,0.185,Natural,0,1.1330082014721998,1.3704723094538018,6.108111336565951,6.920540239834542
20131101T010514,NBPA,2002,usp2013vjnc,[],P,NB,,HHZ,-5.75028,-37.112047,114.8853305672145,-5.440600872,-36.12224579,2000.0,2013-11-01T01:05:34.753326Z,2013-11-01T01:05:14.259611Z,2013-11-01T01:05:23.753326Z,2013-11-01T01:06:23.753326Z,earthquake,1.978852545,known,20131101T010514/NB_NBPA_20131101T010514.mseed,"[['E', 'N', 'Z']]",[],0.0,0.959,0.041,Natural,0,0.815,0.185,Natural,0,50.22839046223749,142.04220002582198,2.300830157867947,115.56699555668277
20131101T010514,NBPB,1996,usp2013vjnc,[],P,NB,,HHZ,-5.543242,-39.583619,383.7286584475449,-5.440600872,-36.12224579,2000.0,2013-11-01T01:06:08.762223Z,2013-11-01T01:05:14.259611Z,2013-11-01T01:05:57.762223Z,2013-11-01T01:06:57.762223Z,earthquake,1.978852545,known,20131101T010514/NB_NBPB_20131101T010514.mseed,"[['E', 'N', 'Z']]",[],0.0,0.98,0.02,Natural,0,0.815,0.185,Natural,0,3.186007380474804,2.012846823560035,1.6630640459997768,5.298534324757578
20131101T010514,NBPV,2001,usp2013vjnc,[],P,NB,,HHZ,-6.417527,-35.290516,141.96078582088276,-5.440600872,-36.12224579,2000.0,2013-11-01T01:05:38.136414Z,2013-11-01T01:05:14.259611Z,2013-11-01T01:05:27.136414Z,2013-11-01T01:06:27.136414Z,earthquake,1.978852545,known,20131101T010514/NB_NBPV_20131101T010514.mseed,"[['E', 'N', 'Z']]",[],0.0,0.999,0.001,Natural,0,0.815,0.185,Natural,0,25.03573613782162,69.70374143229162,2.7388227340911997,68.56844329897446
20131101T010514,NBRF,1997,usp2013vjnc,[],P,NB,,HHZ,-8.679466,-35.127172,374.6773686219617,-5.440600872,-36.12224579,2000.0,2013-11-01T01:06:07.569978Z,2013-11-01T01:05:14.259611Z,2013-11-01T01:05:56.569978Z,2013-11-01T01:06:56.569978Z,earthquake,1.978852545,known,20131101T010514/NB_NBRF_20131101T010514.mseed,"[['E', 'N', 'Z']]",[],1.0,0.042,0.958,Anthropogenic,0,0.815,0.185,Natural,0,2.2921258660770936,1.6341032786339655,5.4565788959873265,12.507165627782943
20131101T115117,NBCL,1901,usp2013vkik,[],P,NB,,HHZ,-4.224377,-38.291041,274.8622264517161,-5.443225384,-36.13148117,2000.0,2013-11-01T11:51:58.432463Z,2013-11-01T11:51:17.305096Z,2013-11-01T11:51:47.432463Z,2013-11-01T11:52:47.432463Z,earthquake,2.756984597,known,20131101T115117/NB_NBCL_20131101T115117.mseed,"[['E', 'N', 'Z']]",[],0.0,0.999,0.001,Natural,0,0.857,0.143,Natural,0,7.915870749898022,17.17891811406895,5.399716725517096,42.74345968525591
20131101T115117,NBLI,1902,usp2013vkik,[],P,NB,,HHZ,-7.364556,-36.949743,230.95462010233788,-5.443225384,-36.13148117,2000.0,2013-11-01T11:51:54.703212Z,2013-11-01T11:51:17.305096Z,2013-11-01T11:51:43.703212Z,2013-11-01T11:52:43.703212Z,earthquake,2.756984597,known,20131101T115117/NB_NBLI_20131101T115117.mseed,"[['E', 'N', 'Z']]",[],0.0,1.0,0.0,Natural,0,0.857,0.143,Natural,0,9.467791610432913,19.683105365759186,10.131141473848635,95.91953625021304
20131101T115117,NBMA,1900,usp2013vkik,[],P,NB,,HHZ,-7.365352,-38.764058,360.54995978189953,-5.443225384,-36.13148117,2000.0,2013-11-01T11:52:09.039031Z,2013-11-01T11:51:17.305096Z,2013-11-01T11:51:58.039031Z,2013-11-01T11:52:58.039031Z,earthquake,2.756984597,known,20131101T115117/NB_NBMA_20131101T115117.mseed,"[['E', 'N', 'Z']]",[],0.0,0.997,0.003,Natural,0,0.857,0.143,Natural,0,1.829817850801174,2.394817704604812,17.541672324310504,32.09806515192828
20131101T115117,NBPA,1904,usp2013vkik,[],P,NB,,HHZ,-5.75028,-37.112047,113.82189766396048,-5.443225384,-36.13148117,2000.0,2013-11-01T11:51:37.506759Z,2013-11-01T11:51:17.305096Z,2013-11-01T11:51:26.506759Z,2013-11-01T11:52:26.506759Z,earthquake,2.756984597,known,20131101T115117/NB_NBPA_20131101T115117.mseed,"[['E', 'N', 'Z']]",[],0.0,0.996,0.004,Natural,0,0.857,0.143,Natural,0,160.4294860217099,483.57402586321916,3.9738680011461245,637.5256009419924
20131101T115117,NBPB,1898,usp2013vkik,[],P,NB,,HHZ,-5.543242,-39.583619,382.6963898616709,-5.443225384,-36.13148117,2000.0,2013-11-01T11:52:11.702780Z,2013-11-01T11:51:17.305096Z,2013-11-01T11:52:00.702780Z,2013-11-01T11:53:00.702780Z,earthquake,2.756984597,known,20131101T115117/NB_NBPB_20131101T115117.mseed,"[['E', 'N', 'Z']]",[],0.0,0.991,0.009,Natural,0,0.857,0.143,Natural,0,14.72570959748511,7.260201522950417,3.3284345130539936,49.01356005347987
20131101T115117,NBPV,1903,usp2013vkik,[],P,NB,,HHZ,-6.417527,-35.290516,142.40645113716164,-5.443225384,-36.13148117,2000.0,2013-11-01T11:51:41.119853Z,2013-11-01T11:51:17.305096Z,2013-11-01T11:51:30.119853Z,2013-11-01T11:52:30.119853Z,earthquake,2.756984597,known,20131101T115117/NB_NBPV_20131101T115117.mseed,"[['E', 'N', 'Z']]",[],0.0,1.0,0.0,Natural,0,0.857,0.143,Natural,0,133.63835304383423,394.75547599912915,3.2578864261151335,435.37857638988953
20131101T115117,NBRF,1899,usp2013vkik,[],P,NB,,HHZ,-8.679466,-35.127172,374.7006257667661,-5.443225384,-36.13148117,2000.0,2013-11-01T11:52:10.588851Z,2013-11-01T11:51:17.305096Z,2013-11-01T11:51:59.588851Z,2013-11-01T11:52:59.588851Z,earthquake,2.756984597,known,20131101T115117/NB_NBRF_20131101T115117.mseed,"[['E', 'N', 'Z']]",[],1.0,0.014,0.986,Anthropogenic,0,0.857,0.143,Natural,0,5.223735178253074,3.798075131705984,10.232483095027904,53.45178190437716
20131101T220749,NBPA,1750,usp2013vlct,[],P,NB,,HHZ,-5.75028,-37.112047,115.23846453320752,-5.448509693,-36.11647797,2000.0,2013-11-01T22:08:09.853149Z,2013-11-01T22:07:49.639990Z,2013-11-01T22:07:58.853149Z,2013-11-01T22:08:58.853149Z,earthquake,2.460861112,known,20131101T220749/NB_NBPA_20131101T220749.mseed,"[['E', 'N', 'Z']]",[],0.0,0.992,0.008,Natural,0,0.992,0.008,Natural,0,29.253286828377387,91.70943308165258,4.793841393929502,140.2356173063682
20131103T114157,NBCL,36,usp2013vnzc,[],P,NB,,HHZ,-4.224377,-38.291041,276.3812091736086,-5.485337734,-36.13970184,2000.0,2013-11-03T11:42:38.520309Z,2013-11-03T11:41:57.021223Z,2013-11-03T11:42:27.520309Z,2013-11-03T11:43:27.520309Z,earthquake,2.111703109,known,20131103T114157/NB_NBCL_20131103T114157.mseed,"[['E', 'N', 'Z']]",[],0.0,0.998,0.002,Natural,0,0.771,0.229,Natural,0,1.2838703442696202,1.1274693815138785,6.61784249989804,8.496451728666221
20131103T114157,NBLI,37,usp2013vnzc,[],P,NB,,HHZ,-7.364556,-36.949743,226.3145947923779,-5.485337734,-36.13970184,2000.0,2013-11-03T11:42:32.349762Z,2013-11-03T11:41:57.021223Z,2013-11-03T11:42:21.349762Z,2013-11-03T11:43:21.349762Z,earthquake,2.111703109,known,20131103T114157/NB_NBLI_20131103T114157.mseed,"[['E', 'N', 'Z']]",[],0.0,1.0,0.0,Natural,0,0.771,0.229,Natural,0,1.0381008517076675,1.7455487863786383,6.4666329062986385,6.713017127709446
20131103T114157,NBMA,35,usp2013vnzc,[],P,NB,,HHZ,-7.365352,-38.764058,357.0752377936774,-5.485337734,-36.13970184,2000.0,2013-11-03T11:42:48.528640Z,2013-11-03T11:41:57.021223Z,2013-11-03T11:42:37.528640Z,2013-11-03T11:43:37.528640Z,earthquake,2.111703109,known,20131103T114157/NB_NBMA_20131103T114157.mseed,"[['E', 'N', 'Z']]",[],0.0,0.649,0.351,Natural,0,0.771,0.229,Natural,0,1.0407863456328985,0.8688081062809098,13.400046806304776,13.94658574684374
20131103T114157,NBPA,39,usp2013vnzc,[],P,NB,,HHZ,-5.75028,-37.112047,111.63764024322153,-5.485337734,-36.13970184,2000.0,2013-11-03T11:42:16.265602Z,2013-11-03T11:41:57.021223Z,2013-11-03T11:42:05.265602Z,2013-11-03T11:43:05.265602Z,earthquake,2.111703109,known,20131103T114157/NB_NBPA_20131103T114157.mseed,"[['E', 'N', 'Z']]",[],0.0,0.987,0.013,Natural,0,0.771,0.229,Natural,0,3.6937371701713437,16.257022117155334,10.815201405972433,39.94851143612975
20131103T114157,NBPV,38,usp2013vnzc,[],P,NB,,HHZ,-6.417527,-35.290516,139.52582322377944,-5.485337734,-36.13970184,2000.0,2013-11-03T11:42:19.858160Z,2013-11-03T11:41:57.021223Z,2013-11-03T11:42:08.858160Z,2013-11-03T11:43:08.858160Z,earthquake,2.111703109,known,20131103T114157/NB_NBPV_20131103T114157.mseed,"[['E', 'N', 'Z']]",[],0.0,0.994,0.006,Natural,0,0.771,0.229,Natural,0,6.3208952320013045,21.58010351153313,5.542655498185263,35.03454471110504
20131103T114157,NBRF,34,usp2013vnzc,[],P,NB,,HHZ,-8.679466,-35.127172,370.526732472232,-5.485337734,-36.13970184,2000.0,2013-11-03T11:42:50.108902Z,2013-11-03T11:41:57.021223Z,2013-11-03T11:42:39.108902Z,2013-11-03T11:43:39.108902Z,earthquake,2.111703109,known,20131103T114157/NB_NBRF_20131103T114157.mseed,"[['E', 'N', 'Z']]",[],1.0,0.001,0.999,Anthropogenic,0,0.771,0.229,Natural,0,1.1624120301985597,2.8955754236610463,14.102942133976303,16.3934295977282
20131105T163813,NBCL,2390,usp2013vrzw,[],P,NB,,HHZ,-4.224377,-38.291041,275.45958834182056,-5.486532211,-36.15002823,2000.0,2013-11-05T16:38:54.695574Z,2013-11-05T16:38:13.214002Z,2013-11-05T16:38:43.695574Z,2013-11-05T16:39:43.695574Z,earthquake,2.998965564,known,20131105T163813/NB_NBCL_20131105T163813.mseed,"[['E', 'N', 'Z']]",[],0.0,0.918,0.082,Natural,0,0.839,0.161,Natural,0,20.262978633585128,59.61653223049676,4.27643080099176,86.65322594850137
20131105T163813,NBLI,2391,usp2013vrzw,[],P,NB,,HHZ,-7.364556,-36.949743,225.74317911696767,-5.486532211,-36.15002823,2000.0,2013-11-05T16:38:47.919279Z,2013-11-05T16:38:13.214002Z,2013-11-05T16:38:36.919279Z,2013-11-05T16:39:36.919279Z,earthquake,2.998965564,known,20131105T163813/NB_NBLI_20131105T163813.mseed,"[['E', 'N', 'Z']]",[],0.0,0.98,0.02,Natural,0,0.839,0.161,Natural,0,10.585798797341056,60.570052345882374,4.471012863347204,47.329242591717225
20131105T163813,NBMA,2389,usp2013vrzw,[],P,NB,,HHZ,-7.365352,-38.764058,356.0698053327793,-5.486532211,-36.15002823,2000.0,2013-11-05T16:39:01.898989Z,2013-11-05T16:38:13.214002Z,2013-11-05T16:38:50.898989Z,2013-11-05T16:39:50.898989Z,earthquake,2.998965564,known,20131105T163813/NB_NBMA_20131105T163813.mseed,"[['E', 'N', 'Z']]",[],0.0,0.98,0.02,Natural,0,0.839,0.161,Natural,0,1.1478059704096804,7.746699482490048,9.661802958274777,11.089875120429701
20131105T163813,NBPA,2393,usp2013vrzw,[],P,NB,,HHZ,-5.75028,-37.112047,110.49906436366464,-5.486532211,-36.15002823,2000.0,2013-11-05T16:38:33.064132Z,2013-11-05T16:38:13.214002Z,2013-11-05T16:38:22.064132Z,2013-11-05T16:39:22.064132Z,earthquake,2.998965564,known,20131105T163813/NB_NBPA_20131105T163813.mseed,"[['E', 'N', 'Z']]",[],0.0,0.993,0.007,Natural,0,0.839,0.161,Natural,0,71.27592870065308,296.97419372680724,12.00900364544459,855.9528875985915
20131105T163813,NBPB,2387,usp2013vrzw,[],P,NB,,HHZ,-5.543242,-39.583619,380.51925475084136,-5.486532211,-36.15002823,2000.0,2013-11-05T16:39:07.255377Z,2013-11-05T16:38:13.214002Z,2013-11-05T16:38:56.255377Z,2013-11-05T16:39:56.255377Z,earthquake,2.998965564,known,20131105T163813/NB_NBPB_20131105T163813.mseed,"[['E', 'N', 'Z']]",[],0.0,0.993,0.007,Natural,0,0.839,0.161,Natural,0,33.87293654058132,32.64496188903648,2.0003459646430817,67.75759191956303
20131105T163813,NBPV,2392,usp2013vrzw,[],P,NB,,HHZ,-6.417527,-35.290516,140.20175955362103,-5.486532211,-36.15002823,2000.0,2013-11-05T16:38:36.663948Z,2013-11-05T16:38:13.214002Z,2013-11-05T16:38:25.663948Z,2013-11-05T16:39:25.663948Z,earthquake,2.998965564,known,20131105T163813/NB_NBPV_20131105T163813.mseed,"[['E', 'N', 'Z']]",[],0.0,0.999,0.001,Natural,0,0.839,0.161,Natural,0,271.3060775891188,1235.8003979313746,4.612874754535034,1251.5009560627693
20131105T163813,NBRF,2388,usp2013vrzw,[],P,NB,,HHZ,-8.679466,-35.127172,370.7467892744271,-5.486532211,-36.15002823,2000.0,2013-11-05T16:39:06.516565Z,2013-11-05T16:38:13.214002Z,2013-11-05T16:38:55.516565Z,2013-11-05T16:39:55.516565Z,earthquake,2.998965564,known,20131105T163813/NB_NBRF_20131105T163813.mseed,"[['E', 'N', 'Z']]",[],1.0,0.008,0.992,Anthropogenic,0,0.839,0.161,Natural,0,12.839572221300058,10.861320613014323,8.61279652922031,110.58462306428665
20131115T074234,NBLI,2168,usp2013wjpg,[],P,NB,,HHZ,-7.364556,-36.949743,227.6160397383889,-5.476953506,-36.12945557,2000.0,2013-11-15T07:43:11.092208Z,2013-11-15T07:42:34.513681Z,2013-11-15T07:43:00.092208Z,2013-11-15T07:44:00.092208Z,earthquake,3.031879807,known,20131115T074234/NB_NBLI_20131115T074234.mseed,"[['E', 'N', 'Z']]",[],0.0,0.981,0.019,Natural,0,0.989,0.011,Natural,0,3.124633556364422,7.263732224225142,2.3288558918022715,7.276821267462369
20131115T074234,NBPA,2169,usp2013wjpg,[],P,NB,,HHZ,-5.75028,-37.112047,112.97866405159265,-5.476953506,-36.12945557,2000.0,2013-11-15T07:42:53.923339Z,2013-11-15T07:42:34.513681Z,2013-11-15T07:42:42.923339Z,2013-11-15T07:43:42.923339Z,earthquake,3.031879807,known,20131115T074234/NB_NBPA_20131115T074234.mseed,"[['E', 'N', 'Z']]",[],0.0,0.996,0.004,Natural,0,0.989,0.011,Natural,0,20.68844619547151,71.5858090335307,3.242678401077298,67.08597762990527
20131125T130610,NBCL,79,usp2013xcgw,[],P,NB,,HHZ,-4.224377,-38.291041,246.56045815288024,-3.758060455,-40.46218872,0.0,2013-11-25T13:06:48.261642Z,2013-11-25T13:06:10.314619Z,2013-11-25T13:06:37.261642Z,2013-11-25T13:07:37.261642Z,earthquake,2.281128726,known,20131125T130610/NB_NBCL_20131125T130610.mseed,"[['E', 'N', 'Z']]",[],0.0,0.999,0.001,Natural,0,0.996,0.004,Natural,0,1.2294725474742443,2.874740369513073,4.334427804816901,5.3290599950314315
20131125T130610,NBMO,82,usp2013xcgw,[],P,NB,,HHZ,-3.310348,-40.042927,67.97810046123843,-3.758060455,-40.46218872,0.0,2013-11-25T13:06:22.020431Z,2013-11-25T13:06:10.314619Z,2013-11-25T13:06:11.020431Z,2013-11-25T13:07:11.020431Z,earthquake,2.281128726,known,20131125T130610/NB_NBMO_20131125T130610.mseed,"[['E', 'N', 'Z']]",[],0.0,0.995,0.005,Natural,0,0.996,0.004,Natural,0,15.889728330782354,17.273162464469127,5.842596357487654,92.83726886689736
20131125T130610,NBPB,80,usp2013xcgw,[],P,NB,,HHZ,-5.543242,-39.583619,220.16364331110063,-3.758060455,-40.46218872,0.0,2013-11-25T13:06:44.590484Z,2013-11-25T13:06:10.314619Z,2013-11-25T13:06:33.590484Z,2013-11-25T13:07:33.590484Z,earthquake,2.281128726,known,20131125T130610/NB_NBPB_20131125T130610.mseed,"[['E', 'N', 'Z']]",[],0.0,0.99,0.01,Natural,0,0.996,0.004,Natural,0,0.7551071760400389,3.6474732360103905,7.165524277703123,5.4107388021827445
20131125T130610,NBPS,81,usp2013xcgw,[],P,NB,,HHZ,-4.393969,-41.445618,129.88144243192548,-3.758060455,-40.46218872,0.0,2013-11-25T13:06:31.568252Z,2013-11-25T13:06:10.314619Z,2013-11-25T13:06:20.568252Z,2013-11-25T13:07:20.568252Z,earthquake,2.281128726,known,20131125T130610/NB_NBPS_20131125T130610.mseed,"[['E', 'N', 'Z']]",[],0.0,1.0,0.0,Natural,0,0.996,0.004,Natural,0,2.12783427290621,75.77794367391036,6.521816885010073,13.877345489542853
20131202T061640,NBPA,591,usp2013xony,[],P,NB,,HHZ,-5.75028,-37.112047,117.92969634465965,-5.41067028,-36.10306931,0.0,2013-12-02T06:17:00.843322Z,2013-12-02T06:16:40.414104Z,2013-12-02T06:16:49.843322Z,2013-12-02T06:17:49.843322Z,earthquake,3.145486516,known,20131202T061640/NB_NBPA_20131202T061640.mseed,"[['E', 'N', 'Z']]",[],0.0,0.999,0.001,Natural,0,0.999,0.001,Natural,0,164.43924238492932,510.3687952490974,3.018135032144834,496.29983810131074
20131204T191228,NBCL,579,usp2013xteo,[],P,NB,,HHZ,-4.224377,-38.291041,276.3422967391548,-5.464837074,-36.12832642,0.0,2013-12-04T19:13:10.311902Z,2013-12-04T19:12:28.483907Z,2013-12-04T19:12:59.311902Z,2013-12-04T19:13:59.311902Z,earthquake,2.206177895,known,20131204T191228/NB_NBCL_20131204T191228.mseed,"[['E', 'N', 'Z']]",[],0.0,1.0,0.0,Natural,0,0.582,0.418,Natural,0,1.6179349639514438,2.0989222472213602,6.813597497381349,11.02395762130534
20131204T191228,NBLI,580,usp2013xteo,[],P,NB,,HHZ,-7.364556,-36.949743,228.89543548641348,-5.464837074,-36.12832642,0.0,2013-12-04T19:13:03.724595Z,2013-12-04T19:12:28.483907Z,2013-12-04T19:12:52.724595Z,2013-12-04T19:13:52.724595Z,earthquake,2.206177895,known,20131204T191228/NB_NBLI_20131204T191228.mseed,"[['E', 'N', 'Z']]",[],0.0,1.0,0.0,Natural,0,0.582,0.418,Natural,0,0.5903564824826881,0.887121872296739,23.67053198809207,13.974052002983985
20131204T191228,NBMA,578,usp2013xteo,[],P,NB,,HHZ,-7.365352,-38.764058,359.42448305321244,-5.464837074,-36.12832642,0.0,2013-12-04T19:13:20.437543Z,2013-12-04T19:12:28.483907Z,2013-12-04T19:13:09.437543Z,2013-12-04T19:14:09.437543Z,earthquake,2.206177895,known,20131204T191228/NB_NBMA_20131204T191228.mseed,"[['E', 'N', 'Z']]",[],1.0,0.025,0.975,Anthropogenic,0,0.582,0.418,Natural,0,0.8486714498569974,0.7784765268803543,22.089814385209493,18.7469948013677
20131204T191228,NBPA,582,usp2013xteo,[],P,NB,,HHZ,-5.75028,-37.112047,113.46570916449356,-5.464837074,-36.12832642,0.0,2013-12-04T19:12:48.144393Z,2013-12-04T19:12:28.483907Z,2013-12-04T19:12:37.144393Z,2013-12-04T19:13:37.144393Z,earthquake,2.206177895,known,20131204T191228/NB_NBPA_20131204T191228.mseed,"[['E', 'N', 'Z']]",[],0.0,0.989,0.011,Natural,0,0.582,0.418,Natural,0,11.53447893232293,46.274892084748174,6.845717971396155,78.96178971769342
20131204T191228,NBPB,576,usp2013xteo,[],P,NB,,HHZ,-5.543242,-39.583619,382.97738203957056,-5.464837074,-36.12832642,0.0,2013-12-04T19:13:23.411248Z,2013-12-04T19:12:28.483907Z,2013-12-04T19:13:12.411248Z,2013-12-04T19:14:12.411248Z,earthquake,2.206177895,known,20131204T191228/NB_NBPB_20131204T191228.mseed,"[['E', 'N', 'Z']]",[],1.0,0.005,0.995,Anthropogenic,0,0.582,0.418,Natural,0,0.7180012510821732,0.48554079427212726,9.350754628533851,6.713853521849726
20131204T191228,NBPV,581,usp2013xteo,[],P,NB,,HHZ,-6.417527,-35.290516,140.3746842440608,-5.464837074,-36.12832642,0.0,2013-12-04T19:12:51.603942Z,2013-12-04T19:12:28.483907Z,2013-12-04T19:12:40.603942Z,2013-12-04T19:13:40.603942Z,earthquake,2.206177895,known,20131204T191228/NB_NBPV_20131204T191228.mseed,"[['E', 'N', 'Z']]",[],0.0,0.999,0.001,Natural,0,0.582,0.418,Natural,0,16.765001485809226,59.76530769360642,3.7581330319169903,63.00510586395707
20131204T191228,NBRF,577,usp2013xteo,[],P,NB,,HHZ,-8.679466,-35.127172,372.3141726305847,-5.464837074,-36.12832642,0.0,2013-12-04T19:13:21.378586Z,2013-12-04T19:12:28.483907Z,2013-12-04T19:13:10.378586Z,2013-12-04T19:14:10.378586Z,earthquake,2.206177895,known,20131204T191228/NB_NBRF_20131204T191228.mseed,"[['E', 'N', 'Z']]",[],1.0,0.054,0.946,Anthropogenic,0,0.582,0.418,Natural,0,1.0292502017757788,0.662322125850604,20.505772110073714,21.105570081861504
20140405T170841,BSCB,312,usp2014grbg,[],P,BL,,HHZ,-20.9984,-44.7635,120.64427554566058,-20.25478172,-43.91736984,0.0,2014-04-05T17:09:01.595678Z,2014-04-05T17:08:41.037385Z,2014-04-05T17:08:50.595678Z,2014-04-05T17:09:50.595678Z,earthquake,2.219028011,known,20140405T170841/BL_BSCB_20140405T170841.mseed,"[['Z', 'N', 'E']]",[],0.0,0.953,0.047,Natural,0,0.66,0.34,Natural,0,1.799316742610559,6.91811938572007,5.314447312973918,9.562374027955668
20140405T170841,BSFB,311,usp2014grbg,[],P,BL,,HHZ,-18.83133,-40.84653,358.71779534326606,-20.25478172,-43.91736984,0.0,2014-04-05T17:09:32.978282Z,2014-04-05T17:08:41.037385Z,2014-04-05T17:09:21.978282Z,2014-04-05T17:10:21.978282Z,earthquake,2.219028011,known,20140405T170841/BL_BSFB_20140405T170841.mseed,"[['N', 'Z', 'E']]",[],1.0,0.389,0.611,Anthropogenic,0,0.66,0.34,Natural,0,0.9968712068839505,1.046464184771386,9.234439450326654,9.205546799743896
20140405T170841,ESAR,314,usp2014grbg,[],P,BL,,HHZ,-23.0207,-44.4403,311.0042638343384,-20.25478172,-43.91736984,0.0,2014-04-05T17:09:26.756517Z,2014-04-05T17:08:41.037385Z,2014-04-05T17:09:15.756517Z,2014-04-05T17:10:15.756517Z,earthquake,2.219028011,known,20140405T170841/BL_ESAR_20140405T170841.mseed,"[['N', 'Z', 'E']]",[' Sampling rate is 200.0'],0.0,0.879,0.121,Natural,0,0.66,0.34,Natural,0,1.109583907621541,1.1369542044892387,0.0002580915909148484,0.0002863742759715577
20140405T170841,PARB,310,usp2014grbg,[],P,BL,,HHZ,-23.3421,-45.6246,384.73067927999983,-20.25478172,-43.91736984,0.0,2014-04-05T17:09:35.795673Z,2014-04-05T17:08:41.037385Z,2014-04-05T17:09:24.795673Z,2014-04-05T17:10:24.795673Z,earthquake,2.219028011,known,20140405T170841/BL_PARB_20140405T170841.mseed,"[['E', 'N', 'Z']]",[],1.0,0.08,0.92,Anthropogenic,0,0.66,0.34,Natural,0,1.1358114702558417,0.8343182435380069,15.488346065497378,17.59184111648386
20140405T170841,SJMB,313,usp2014grbg,[],P,BL,,HHZ,-18.702916,-41.184694,334.38275659823444,-20.25478172,-43.91736984,0.0,2014-04-05T17:09:29.886951Z,2014-04-05T17:08:41.037385Z,2014-04-05T17:09:18.886951Z,2014-04-05T17:10:18.886951Z,earthquake,2.219028011,known,20140405T170841/BL_SJMB_20140405T170841.mseed,"[['E', 'N', 'Z']]",[],0.0,0.998,0.002,Natural,0,0.66,0.34,Natural,0,1.0673955818082637,1.0113590494159221,6.236722382797315,6.657049916362561
20140405T171155,BSCB,849,usp2014grbi,[],P,BL,,HHZ,-20.9984,-44.7635,118.56602122618482,-20.2534008,-43.94628143,0.0,2014-04-05T17:12:16.473922Z,2014-04-05T17:11:55.711356Z,2014-04-05T17:12:05.473922Z,2014-04-05T17:13:05.473922Z,earthquake,2.153049959,known,20140405T171155/BL_BSCB_20140405T171155.mseed,"[['Z', 'N', 'E']]",[],0.0,0.948,0.052,Natural,0,0.689,0.311,Natural,0,2.797288755812779,4.115337669753697,5.401790315270286,15.110367310163939
20140405T171155,ESAR,848,usp2014grbi,[],P,BL,,HHZ,-23.0207,-44.4403,310.6482528054381,-20.2534008,-43.94628143,0.0,2014-04-05T17:12:41.713073Z,2014-04-05T17:11:55.711356Z,2014-04-05T17:12:30.713073Z,2014-04-05T17:13:30.713073Z,earthquake,2.153049959,known,20140405T171155/BL_ESAR_20140405T171155.mseed,"[['N', 'Z', 'E']]",[' Sampling rate is 200.0'],1.0,0.144,0.856,Anthropogenic,0,0.689,0.311,Natural,0,1.1894824634755543,1.49961001972459,0.00029148870335289585,0.0003467207009394976
20140405T171155,SJMB,847,usp2014grbi,[],P,BL,,HHZ,-18.702916,-41.184694,336.91348937100946,-20.2534008,-43.94628143,0.0,2014-04-05T17:12:44.452194Z,2014-04-05T17:11:55.711356Z,2014-04-05T17:12:33.452194Z,2014-04-05T17:13:33.452194Z,earthquake,2.153049959,known,20140405T171155/BL_SJMB_20140405T171155.mseed,"[['E', 'N', 'Z']]",[],0.0,0.974,0.026,Natural,0,0.689,0.311,Natural,0,1.0211440522148838,1.062034950869983,6.065464467466029,6.193712964873653
20140405T172203,BSCB,316,usp2014grbr,[],P,BL,,HHZ,-20.9984,-44.7635,117.02275607032918,-20.2589035,-43.96124268,0.0,2014-04-05T17:22:24.382637Z,2014-04-05T17:22:03.891424Z,2014-04-05T17:22:13.382637Z,2014-04-05T17:23:13.382637Z,earthquake,2.062884783,known,20140405T172203/BL_BSCB_20140405T172203.mseed,"[['Z', 'N', 'E']]",[],0.0,0.973,0.027,Natural,0,0.88,0.12,Natural,0,1.5454402200684145,2.8095565667907096,4.904307864360554,7.579314625180631
20140405T172203,SJMB,315,usp2014grbr,[],P,BL,,HHZ,-18.702916,-41.184694,338.571172005935,-20.2589035,-43.96124268,0.0,2014-04-05T17:22:53.065231Z,2014-04-05T17:22:03.891424Z,2014-04-05T17:22:42.065231Z,2014-04-05T17:23:42.065231Z,earthquake,2.062884783,known,20140405T172203/BL_SJMB_20140405T172203.mseed,"[['E', 'N', 'Z']]",[],0.0,0.787,0.213,Natural,0,0.88,0.12,Natural,0,1.0209618950696486,1.0092943165856503,6.930399795216991,7.075674108515044
20140408T025523,JANB,1145,usp2014gvlp,[],P,BR,,HHZ,-15.058097,-44.311197,192.75179571505768,-16.76839447,-43.97000122,2000.0,2014-04-08T02:55:54.750185Z,2014-04-08T02:55:23.688371Z,2014-04-08T02:55:43.750185Z,2014-04-08T02:56:43.750185Z,earthquake,2.877060129,known,20140408T025523/BR_JANB_20140408T025523.mseed,"[['E', 'N', 'Z']]",[],0.0,0.984,0.016,Natural,0,0.979,0.021,Natural,0,54.482139152899705,260.0558097336899,1.9498692636291983,106.23304855100807
20140408T025523,SJMB,1144,usp2014gvlp,[],P,BL,,HHZ,-18.702916,-41.184694,364.827951046998,-16.76839447,-43.97000122,2000.0,2014-04-08T02:56:18.290245Z,2014-04-08T02:55:23.688371Z,2014-04-08T02:56:07.290245Z,2014-04-08T02:57:07.290245Z,earthquake,2.877060129,known,20140408T025523/BL_SJMB_20140408T025523.mseed,"[['E', 'N', 'Z']]",[],0.0,0.975,0.025,Natural,0,0.979,0.021,Natural,0,1.3874866253759826,3.5860690085776286,4.331316655809966,6.009643930204556
20140411T185137,JANB,2113,usp2014hcdq,[],P,BR,,HHZ,-15.058097,-44.311197,191.1378437637516,-16.6922,-43.7329,2000.0,2014-04-11T18:52:01.352203Z,2014-04-11T18:51:37.000000Z,2014-04-11T18:51:50.352203Z,2014-04-11T18:52:50.352203Z,earthquake,1.590647206,known,20140411T185137/BR_JANB_20140411T185137.mseed,"[['E', 'N', 'Z']]",[],0.0,0.986,0.014,Natural,0,0.986,0.014,Natural,0,1.5737768402215302,5.403004158224013,3.7077140096760597,5.835114438593089
20140417T163405,CPSB,1276,usp2014hmyd,[],P,BL,,HHZ,-30.4123,-53.4432,298.8064664958245,-32.81098938,-54.87865448,0.0,2014-04-17T16:34:49.958740Z,2014-04-17T16:34:05.685113Z,2014-04-17T16:34:38.958740Z,2014-04-17T16:35:38.958740Z,earthquake,2.32592166,suspected,20140417T163405/BL_CPSB_20140417T163405.mseed,"[['E', 'N', 'Z']]",[],1.0,0.108,0.892,Anthropogenic,1,0.175,0.825,Anthropogenic,0,1.1035818272978486,1.3772994969143852,8.885190289909495,9.805534536027421
20140417T163405,PLTB,1275,usp2014hmyd,[],P,BL,,HHZ,-31.76367,-53.60445,167.01390500346724,-32.81098938,-54.87865448,0.0,2014-04-17T16:34:33.117431Z,2014-04-17T16:34:05.685113Z,2014-04-17T16:34:22.117431Z,2014-04-17T16:35:22.117431Z,earthquake,2.32592166,suspected,20140417T163405/BL_PLTB_20140417T163405.mseed,"[['E', 'N', 'Z']]",[],1.0,0.243,0.757,Anthropogenic,1,0.175,0.825,Anthropogenic,0,5.667915326879301,9.326343057042086,3.1458962895183,17.830673796133496
20140423T164524,PTLB,1406,usp2014hxxn,[],P,BR,,HHZ,-15.44874,-59.13676,95.01211186151664,-15.11504841,-59.95182037,0.0,2014-04-23T16:45:41.348794Z,2014-04-23T16:45:24.812630Z,2014-04-23T16:45:30.348794Z,2014-04-23T16:46:30.348794Z,earthquake,2.885285308,suspected,20140423T164524/BR_PTLB_20140423T164524.mseed,"[['1', '2', 'Z']]",[],1.0,0.013,0.987,Anthropogenic,1,0.169,0.831,Anthropogenic,0,20.15246522274955,21.119500807470832,2.8421578935205094,57.276488106735194
20140423T164524,VILB,1407,usp2014hxxn,[],P,BR,,HHZ,-12.9528,-60.2002,240.73009519739583,-15.11504841,-59.95182037,0.0,2014-04-23T16:46:02.113858Z,2014-04-23T16:45:24.812630Z,2014-04-23T16:45:51.113858Z,2014-04-23T16:46:51.113858Z,earthquake,2.885285308,suspected,20140423T164524/BR_VILB_20140423T164524.mseed,"[['1', '2', 'Z']]",[],1.0,0.325,0.675,Anthropogenic,1,0.169,0.831,Anthropogenic,0,1.6399867940081623,0.9658512154575316,32.64741329064308,53.54132665518121
20140429T163032,BOAV,1875,usp2014iiwa,[],P,BR,,HHZ,2.3953,-60.5225,27.979321948405698,2.6342,-60.6054,0.0,2014-04-29T16:30:34.324743Z,2014-04-29T16:30:32.000000Z,2014-04-29T16:30:23.324743Z,2014-04-29T16:31:23.324743Z,earthquake,1.391774031,suspected,20140429T163032/BR_BOAV_20140429T163032.mseed,"[['1', '2', 'Z']]",[],1.0,0.047,0.953,Anthropogenic,1,0.047,0.953,Anthropogenic,0,13.259195848571263,66.6182844862027,2.719714171335981,36.061222849878476
20140513T024937,ESAR,195,usp2014jhka,[],P,BL,,HHZ,-23.0207,-44.4403,172.133765449427,-23.66120529,-45.97399139,0.0,2014-05-13T02:50:05.582519Z,2014-05-13T02:49:37.556308Z,2014-05-13T02:49:54.582519Z,2014-05-13T02:50:54.582519Z,earthquake,2.082081335,suspected,20140513T024937/BL_ESAR_20140513T024937.mseed,"[['E', 'N', 'Z']]",[],0.0,0.991,0.009,Natural,0,0.672,0.328,Natural,0,1.932701334030282,2.809879069002282,0.0005600529567809869,0.0010824150966982173
20140513T024937,MAN01,198,usp2014jhka,[],P,ON,,HHZ,-22.86516,-43.964094,223.75377112196225,-23.66120529,-45.97399139,0.0,2014-05-13T02:50:13.017028Z,2014-05-13T02:49:37.556308Z,2014-05-13T02:50:02.017028Z,2014-05-13T02:51:02.017028Z,earthquake,2.082081335,suspected,20140513T024937/ON_MAN01_20140513T024937.mseed,"[['1', '2', 'Z']]",[],0.0,0.981,0.019,Natural,0,0.672,0.328,Natural,0,1.6129058020288223,1.2272057075137923,5.721582230991551,9.228373177151285
20140513T024937,PARB,200,usp2014jhka,[],P,BL,,HHZ,-23.3421,-45.6246,50.224923504575706,-23.66120529,-45.97399139,0.0,2014-05-13T02:49:46.369384Z,2014-05-13T02:49:37.556308Z,2014-05-13T02:49:35.369384Z,2014-05-13T02:50:35.369384Z,earthquake,2.082081335,suspected,20140513T024937/BL_PARB_20140513T024937.mseed,"[['E', 'N', 'Z']]",[],1.0,0.012,0.988,Anthropogenic,0,0.672,0.328,Natural,0,35.43257021693755,43.798733709267815,10.954526945794617,388.14704520020223
20140513T024937,PET01,196,usp2014jhka,[],P,ON,,HHZ,-24.290108,-47.275344,149.6390766045918,-23.66120529,-45.97399139,0.0,2014-05-13T02:50:03.156433Z,2014-05-13T02:49:37.556308Z,2014-05-13T02:49:52.156433Z,2014-05-13T02:50:52.156433Z,earthquake,2.082081335,suspected,20140513T024937/ON_PET01_20140513T024937.mseed,"[['E', 'N', 'Z']]",[],0.0,0.987,0.013,Natural,0,0.672,0.328,Natural,0,3.3496138764929984,9.66453527059555,4.957843019731769,16.606859776367482
20140513T024937,VABB,199,usp2014jhka,[],P,BL,,HHZ,-23.0021,-46.9657,124.95823326734298,-23.66120529,-45.97399139,0.0,2014-05-13T02:49:59.399719Z,2014-05-13T02:49:37.556308Z,2014-05-13T02:49:48.399719Z,2014-05-13T02:50:48.399719Z,earthquake,2.082081335,suspected,20140513T024937/BL_VABB_20140513T024937.mseed,"[['E', 'N', 'Z']]",[],1.0,0.126,0.874,Anthropogenic,0,0.672,0.328,Natural,0,2.016282334233871,2.6686522637118224,17.649048439890695,35.585464585389474
20140513T024937,VAS01,197,usp2014jhka,[],P,ON,,HHZ,-22.280081,-43.442624,301.27750069956465,-23.66120529,-45.97399139,0.0,2014-05-13T02:50:21.547546Z,2014-05-13T02:49:37.556308Z,2014-05-13T02:50:10.547546Z,2014-05-13T02:51:10.547546Z,earthquake,2.082081335,suspected,20140513T024937/ON_VAS01_20140513T024937.mseed,"[['E', 'N', 'Z']]",[],0.0,0.934,0.066,Natural,0,0.672,0.328,Natural,0,0.9036070964240958,0.993811914138009,7.411833231915689,6.697385105870957
20140515T141759,FRTB,1316,usp2014jlxs,[],P,BL,,HHZ,-23.3439,-49.564,229.62196757724288,-23.58703041,-51.79602051,0.0,2014-05-15T14:18:35.026077Z,2014-05-15T14:17:59.824654Z,2014-05-15T14:18:24.026077Z,2014-05-15T14:19:24.026077Z,earthquake,2.708386007,suspected,20140515T141759/BL_FRTB_20140515T141759.mseed,"[['E', 'N', 'Z']]",[],0.0,0.987,0.013,Natural,0,0.808,0.192,Natural,0,1.1729434523202307,3.0552274343672874,3.7592502528687,4.409387969735513
20140515T141759,PCMB,1315,usp2014jlxs,[],P,BL,,HHZ,-21.6074,-51.2619,225.9950908525589,-23.58703041,-51.79602051,0.0,2014-05-15T14:18:35.104339Z,2014-05-15T14:17:59.824654Z,2014-05-15T14:18:24.104339Z,2014-05-15T14:19:24.104339Z,earthquake,2.708386007,suspected,20140515T141759/BL_PCMB_20140515T141759.mseed,"[['E', 'N', 'Z']]",[],0.0,0.983,0.017,Natural,0,0.808,0.192,Natural,0,1.4997058706103041,2.8944820055605307,10.843034618254432,16.26136267222693
20140515T141759,PTGB,1317,usp2014jlxs,[],P,BL,,HHZ,-24.72095,-52.01182,127.49391012177486,-23.58703041,-51.79602051,0.0,2014-05-15T14:18:21.878269Z,2014-05-15T14:17:59.824654Z,2014-05-15T14:18:10.878269Z,2014-05-15T14:19:10.878269Z,earthquake,2.708386007,suspected,20140515T141759/BL_PTGB_20140515T141759.mseed,"[['E', 'N', 'Z']]",[],0.0,0.852,0.148,Natural,0,0.808,0.192,Natural,0,8.848856396818002,48.626320415812636,2.7828185899515154,24.62476208087652
20140515T141759,TRCB,1314,usp2014jlxs,[],P,BL,,HHZ,-22.79461,-52.63569,122.84538191123691,-23.58703041,-51.79602051,0.0,2014-05-15T14:18:20.626094Z,2014-05-15T14:17:59.824654Z,2014-05-15T14:18:09.626094Z,2014-05-15T14:19:09.626094Z,earthquake,2.708386007,suspected,20140515T141759/BL_TRCB_20140515T141759.mseed,"[['E', 'N', 'Z']]",[],1.0,0.409,0.591,Anthropogenic,0,0.808,0.192,Natural,0,1.1430263386390842,3.7979631482082685,46.44419889023863,53.086942608534876
20140515T145742,JANB,645,usp2014jlza,[],P,BR,,HHZ,-15.058097,-44.311197,187.01430984036816,-16.6898,-43.8564,2000.0,2014-05-15T14:58:12.865295Z,2014-05-15T14:57:42.000000Z,2014-05-15T14:58:01.865295Z,2014-05-15T14:59:01.865295Z,earthquake,1.468061325,suspected,20140515T145742/BR_JANB_20140515T145742.mseed,"[['E', 'N', 'Z']]",[],0.0,0.756,0.244,Natural,1,0.388,0.612,Anthropogenic,0,1.2470052456194047,2.3358142877752113,6.411609124652379,7.9953102113027565
20140515T145742,MC01,644,usp2014jlza,[],P,BR,,HHZ,-16.70744,-43.94167,9.301592295413387,-16.6898,-43.8564,2000.0,2014-05-15T14:57:44.887054Z,2014-05-15T14:57:42.000000Z,2014-05-15T14:57:33.887054Z,2014-05-15T14:58:33.887054Z,earthquake,1.468061325,suspected,20140515T145742/BR_MC01_20140515T145742.mseed,"[['E', 'N', 'Z']]",[],1.0,0.02,0.98,Anthropogenic,1,0.388,0.612,Anthropogenic,0,146.30223832477017,7.382508795690146,7.233971082161752,1058.3461612969243
20140516T200122,JANB,1672,usp2014joeo,[],P,BR,,HHZ,-15.058097,-44.311197,188.39185176990185,-16.7329464,-43.99555969,2000.0,2014-05-16T20:01:53.279811Z,2014-05-16T20:01:22.989823Z,2014-05-16T20:01:42.279811Z,2014-05-16T20:02:42.279811Z,earthquake,1.46459146,suspected,20140516T200122/BR_JANB_20140516T200122.mseed,"[['E', 'N', 'Z']]",[],0.0,0.867,0.133,Natural,1,0.459,0.541,Anthropogenic,0,1.4174466578649898,2.958137672590841,4.383188228595165,6.212935505415381
20140516T200122,MC01,1673,usp2014joeo,[],P,BR,,HHZ,-16.70744,-43.94167,6.40272512643673,-16.7329464,-43.99555969,2000.0,2014-05-16T20:01:24.368469Z,2014-05-16T20:01:22.989823Z,2014-05-16T20:01:13.368469Z,2014-05-16T20:02:13.368469Z,earthquake,1.46459146,suspected,20140516T200122/BR_MC01_20140516T200122.mseed,"[['E', 'N', 'Z']]",[],1.0,0.051,0.949,Anthropogenic,1,0.459,0.541,Anthropogenic,0,94.41773568464568,8.928956650532992,8.529549687039092,805.3407678599092
20140519T163828,PTLB,1479,usp2014jtkj,[],P,BR,,HHZ,-15.44874,-59.13676,81.57702658911882,-14.71256542,-59.09567261,0.0,2014-05-19T16:38:41.980279Z,2014-05-19T16:38:28.008366Z,2014-05-19T16:38:30.980279Z,2014-05-19T16:39:30.980279Z,earthquake,2.093043547,suspected,20140519T163828/BR_PTLB_20140519T163828.mseed,"[['1', '2', 'Z']]",[],1.0,0.005,0.995,Anthropogenic,1,0.067,0.933,Anthropogenic,0,12.834953397701847,13.988160421468935,3.0775275182598287,39.49992227700992
20140519T163828,SALV,1477,usp2014jtkj,[],P,BR,,HHZ,-15.90118,-55.69356,388.3118626368645,-14.71256542,-59.09567261,0.0,2014-05-19T16:39:23.545475Z,2014-05-19T16:38:28.008366Z,2014-05-19T16:39:12.545475Z,2014-05-19T16:40:12.545475Z,earthquake,2.093043547,suspected,20140519T163828/BR_SALV_20140519T163828.mseed,"[['E', 'N', 'Z']]",[],1.0,0.19,0.81,Anthropogenic,1,0.067,0.933,Anthropogenic,0,0.9766914517519573,0.9357903648363474,3.623571909294603,3.539111708616557
20140519T163828,VILB,1478,usp2014jtkj,[],P,BR,,HHZ,-12.9528,-60.2002,228.3960449492168,-14.71256542,-59.09567261,0.0,2014-05-19T16:39:03.476852Z,2014-05-19T16:38:28.008366Z,2014-05-19T16:38:52.476852Z,2014-05-19T16:39:52.476852Z,earthquake,2.093043547,suspected,20140519T163828/BR_VILB_20140519T163828.mseed,"[['1', '2', 'Z']]",[],1.0,0.006,0.994,Anthropogenic,1,0.067,0.933,Anthropogenic,0,1.1626299237345417,1.2708355792115673,17.80879541739771,20.705038457933156
20140522T054256,BSCB,2232,usp2014jybg,[],P,BL,,HHZ,-20.9984,-44.7635,12.750955793603062,-21.053,-44.6555,0.0,2014-05-22T05:42:56.644843Z,2014-05-22T05:42:56.000000Z,2014-05-22T05:42:45.644843Z,2014-05-22T05:43:45.644843Z,earthquake,0.8015361742,known,20140522T054256/BL_BSCB_20140522T054256.mseed,"[['Z', 'N', 'E']]",[],0.0,0.96,0.04,Natural,0,0.96,0.04,Natural,0,58.49708858378689,3.9770607958902198,3.918669932136832,229.23078215083044
20140530T181648,MACA,643,usp2014knqd,[],P,BR,,HHZ,-3.1615,-60.6838,265.19192468155984,-1.006558895,-59.63747787,0.0,2014-05-30T18:17:27.190826Z,2014-05-30T18:16:48.967319Z,2014-05-30T18:17:16.190826Z,2014-05-30T18:18:16.190826Z,earthquake,3.722206381,known,20140530T181648/BR_MACA_20140530T181648.mseed,"[['E', 'N', 'Z']]",[],0.0,0.967,0.033,Natural,0,0.967,0.033,Natural,0,1.7564623521859057,5.178992273392728,75.6907478433775,132.9479489956891
20140530T210323,CNLB,2029,usp2014knvq,[],P,BL,,HHZ,-29.3148,-50.8533,236.762567872455,-30.45086479,-52.92890167,0.0,2014-05-30T21:04:00.595809Z,2014-05-30T21:03:23.974415Z,2014-05-30T21:03:49.595809Z,2014-05-30T21:04:49.595809Z,earthquake,2.008775651,suspected,20140530T210323/BL_CNLB_20140530T210323.mseed,"[['2', '1', 'Z']]",[],0.0,0.919,0.081,Natural,0,0.576,0.424,Natural,0,0.9168612730131069,0.9264599128672814,5.03645395377127,4.617729583526622
20140530T210323,CPSB,2031,usp2014knvq,[],P,BL,,HHZ,-30.4123,-53.4432,49.59119395976085,-30.45086479,-52.92890167,0.0,2014-05-30T21:03:32.329925Z,2014-05-30T21:03:23.974415Z,2014-05-30T21:03:21.329925Z,2014-05-30T21:04:21.329925Z,earthquake,2.008775651,suspected,20140530T210323/BL_CPSB_20140530T210323.mseed,"[['E', 'N', 'Z']]",[],1.0,0.018,0.982,Anthropogenic,0,0.576,0.424,Natural,0,22.422276563683944,20.10954844431308,9.224324939743607,206.83036491221839
20140530T210323,ITAB,2028,usp2014knvq,[],P,BL,,HHZ,-27.2349,-52.1313,364.8312914614276,-30.45086479,-52.92890167,0.0,2014-05-30T21:04:16.290390Z,2014-05-30T21:03:23.974415Z,2014-05-30T21:04:05.290390Z,2014-05-30T21:05:05.290390Z,earthquake,2.008775651,suspected,20140530T210323/BL_ITAB_20140530T210323.mseed,"[['E', 'N', 'Z']]",[],1.0,0.375,0.625,Anthropogenic,0,0.576,0.424,Natural,0,0.9841652498916413,1.1015434957157224,3.7726743707050874,3.712935014804763
20140530T210323,PLTB,2030,usp2014knvq,[],P,BL,,HHZ,-31.76367,-53.60445,159.1802050608254,-30.45086479,-52.92890167,0.0,2014-05-30T21:03:50.416366Z,2014-05-30T21:03:23.974415Z,2014-05-30T21:03:39.416366Z,2014-05-30T21:04:39.416366Z,earthquake,2.008775651,suspected,20140530T210323/BL_PLTB_20140530T210323.mseed,"[['E', 'N', 'Z']]",[],0.0,0.993,0.007,Natural,0,0.576,0.424,Natural,0,7.378097104694223,18.546739213254625,3.1013292659507385,22.881908477814605
20140530T213012,PEXB,914,usp2014knwn,[],P,BL,,HHZ,-12.10584,-48.30085,79.94100092452804,-11.74709034,-47.6638031,0.0,2014-05-30T21:30:26.497855Z,2014-05-30T21:30:12.677033Z,2014-05-30T21:30:15.497855Z,2014-05-30T21:31:15.497855Z,earthquake,2.372036502,suspected,20140530T213012/BL_PEXB_20140530T213012.mseed,"[['E', 'N', 'Z']]",[],1.0,0.019,0.981,Anthropogenic,1,0.019,0.981,Anthropogenic,0,13.166625302366475,39.9634923168697,5.732012635105051,75.4712625948585
20140602T190015,ESAR,1393,usp2014ktec,[],P,BL,,HHZ,-23.0207,-44.4403,142.53066409106702,-23.42913055,-45.76087952,0.0,2014-06-02T19:00:39.050061Z,2014-06-02T19:00:15.585528Z,2014-06-02T19:00:28.050061Z,2014-06-02T19:01:28.050061Z,earthquake,2.143164322,suspected,20140602T190015/BL_ESAR_20140602T190015.mseed,"[['E', 'N', 'Z']]",[],1.0,0.005,0.995,Anthropogenic,1,0.018,0.982,Anthropogenic,0,3.7196284564317934,2.5251136040643782,0.0006524385276221286,0.00242682891341573
20140602T190015,MAN01,1391,usp2014ktec,[],P,ON,,HHZ,-22.86516,-43.964094,194.3194272013299,-23.42913055,-45.76087952,0.0,2014-06-02T19:00:46.891535Z,2014-06-02T19:00:15.585528Z,2014-06-02T19:00:35.891535Z,2014-06-02T19:01:35.891535Z,earthquake,2.143164322,suspected,20140602T190015/ON_MAN01_20140602T190015.mseed,"[['1', '2', 'Z']]",[],1.0,0.0,1.0,Anthropogenic,1,0.018,0.982,Anthropogenic,0,3.3495116324797944,2.7152551872128816,5.249968625582444,17.584830981542353
20140602T190015,PARB,1389,usp2014ktec,[],P,BL,,HHZ,-23.3421,-45.6246,16.940927151678466,-23.42913055,-45.76087952,0.0,2014-06-02T19:00:18.331106Z,2014-06-02T19:00:15.585528Z,2014-06-02T19:00:07.331106Z,2014-06-02T19:01:07.331106Z,earthquake,2.143164322,suspected,20140602T190015/BL_PARB_20140602T190015.mseed,"[['E', 'N', 'Z']]",[],1.0,0.001,0.999,Anthropogenic,1,0.018,0.982,Anthropogenic,0,50.25102651872296,24.95278650437183,21.993205235284556,1105.1811395100008
20140602T190015,PET01,1392,usp2014ktec,[],P,ON,,HHZ,-24.290108,-47.275344,181.3570250082188,-23.42913055,-45.76087952,0.0,2014-06-02T19:00:45.017573Z,2014-06-02T19:00:15.585528Z,2014-06-02T19:00:34.017573Z,2014-06-02T19:01:34.017573Z,earthquake,2.143164322,suspected,20140602T190015/ON_PET01_20140602T190015.mseed,"[['E', 'N', 'Z']]",[],1.0,0.002,0.998,Anthropogenic,1,0.018,0.982,Anthropogenic,0,3.024440000746843,1.654965019832987,6.395447268172148,19.342646540526967
20140602T190015,RCLB,1390,usp2014ktec,[],P,BL,1.0,HHZ,-22.4191,-47.531,213.2611605928715,-23.42913055,-45.76087952,0.0,2014-06-02T19:00:49.077824Z,2014-06-02T19:00:15.585528Z,2014-06-02T19:00:38.077824Z,2014-06-02T19:01:38.077824Z,earthquake,2.143164322,suspected,20140602T190015/BL_RCLB_20140602T190015.mseed,"[['E', 'N', 'Z']]",[],1.0,0.089,0.911,Anthropogenic,1,0.018,0.982,Anthropogenic,0,0.965302583397246,1.1870777009806133,120.54544990113392,116.36283420634786
20140602T190015,VABB,1394,usp2014ktec,[],P,BL,,HHZ,-23.0021,-46.9657,132.08038244178977,-23.42913055,-45.76087952,0.0,2014-06-02T19:00:37.530578Z,2014-06-02T19:00:15.585528Z,2014-06-02T19:00:26.530578Z,2014-06-02T19:01:26.530578Z,earthquake,2.143164322,suspected,20140602T190015/BL_VABB_20140602T190015.mseed,"[['E', 'N', 'Z']]",[],1.0,0.013,0.987,Anthropogenic,1,0.018,0.982,Anthropogenic,0,1.1777192982199964,2.7415287350609847,33.01411311660661,38.881358131045516
20140603T192800,PTLB,2319,usp2014kvam,[],P,BR,,HHZ,-15.44874,-59.13676,80.83176278096403,-14.71889496,-59.10443115,0.0,2014-06-03T19:28:14.759750Z,2014-06-03T19:28:00.887646Z,2014-06-03T19:28:03.759750Z,2014-06-03T19:29:03.759750Z,earthquake,2.838132818,suspected,20140603T192800/BR_PTLB_20140603T192800.mseed,"[['1', '2', 'Z']]",[],1.0,0.028,0.972,Anthropogenic,1,0.07,0.93,Anthropogenic,0,28.10143360708203,25.480519552943804,3.8954140298975344,109.46671873326142
20140603T192800,SALV,2317,usp2014kvam,[],P,BR,,HHZ,-15.90118,-55.69356,388.95576411082,-14.71889496,-59.10443115,0.0,2014-06-03T19:28:55.895721Z,2014-06-03T19:28:00.887646Z,2014-06-03T19:28:44.895721Z,2014-06-03T19:29:44.895721Z,earthquake,2.838132818,suspected,20140603T192800/BR_SALV_20140603T192800.mseed,"[['E', 'N', 'Z']]",[],1.0,0.079,0.921,Anthropogenic,1,0.07,0.93,Anthropogenic,0,1.0318687173627967,1.2450598933348798,4.14650213756571,4.278645842232024
20140603T192800,VILB,2318,usp2014kvam,[],P,BR,,HHZ,-12.9528,-60.2002,228.5001904157153,-14.71889496,-59.10443115,0.0,2014-06-03T19:28:36.408691Z,2014-06-03T19:28:00.887646Z,2014-06-03T19:28:25.408691Z,2014-06-03T19:29:25.408691Z,earthquake,2.838132818,suspected,20140603T192800/BR_VILB_20140603T192800.mseed,"[['1', '2', 'Z']]",[],1.0,0.104,0.896,Anthropogenic,1,0.07,0.93,Anthropogenic,0,2.1762913587893085,0.9730598466622221,135.42713486149327,294.7289033446621
20140605T202027,JANB,280,usp2014kytg,[],P,BR,,HHZ,-15.058097,-44.311197,182.3338233090068,-16.65131378,-43.87691879,0.0,2014-06-05T20:20:57.851371Z,2014-06-05T20:20:27.910472Z,2014-06-05T20:20:46.851371Z,2014-06-05T20:21:46.851371Z,earthquake,1.508831748,suspected,20140605T202027/BR_JANB_20140605T202027.mseed,"[['E', 'N', 'Z']]",[],0.0,0.902,0.098,Natural,0,0.562,0.438,Natural,0,1.068228817196906,1.0310461449961896,7.798737981070308,8.330836649147322
20140605T202027,MC01,281,usp2014kytg,[],P,BR,,HHZ,-16.70744,-43.94167,9.288821795770543,-16.65131378,-43.87691879,0.0,2014-06-05T20:20:29.158132Z,2014-06-05T20:20:27.910472Z,2014-06-05T20:20:18.158132Z,2014-06-05T20:21:18.158132Z,earthquake,1.508831748,suspected,20140605T202027/BR_MC01_20140605T202027.mseed,"[['E', 'N', 'Z']]",[],1.0,0.222,0.778,Anthropogenic,0,0.562,0.438,Natural,0,77.87061002778832,3.889093614856555,7.279872411287533,566.8881055914264
20140611T163953,PTLB,1922,usp2014ljkz,[],P,BR,,HHZ,-15.44874,-59.13676,83.59858354648765,-14.69815445,-59.04797745,0.0,2014-06-11T16:40:08.452613Z,2014-06-11T16:39:53.315625Z,2014-06-11T16:39:57.452613Z,2014-06-11T16:40:57.452613Z,earthquake,2.791735553,suspected,20140611T163953/BR_PTLB_20140611T163953.mseed,"[['1', '2', 'Z']]",[],1.0,0.017,0.983,Anthropogenic,1,0.139,0.861,Anthropogenic,0,65.74484864578882,44.50014766373686,4.212398566725451,276.94350620510255
20140611T163953,SALV,1920,usp2014ljkz,[],P,BR,,HHZ,-15.90118,-55.69356,384.0576956148576,-14.69815445,-59.04797745,0.0,2014-06-11T16:40:46.785598Z,2014-06-11T16:39:53.315625Z,2014-06-11T16:40:35.785598Z,2014-06-11T16:41:35.785598Z,earthquake,2.791735553,suspected,20140611T163953/BR_SALV_20140611T163953.mseed,"[['E', 'N', 'Z']]",[],1.0,0.032,0.968,Anthropogenic,1,0.139,0.861,Anthropogenic,0,0.7522945157412607,0.4463679050185776,28.113292691195856,21.14947591101551
20140611T163953,VILB,1921,usp2014ljkz,[],P,BR,,HHZ,-12.9528,-60.2002,229.7940925910406,-14.69815445,-59.04797745,0.0,2014-06-11T16:40:29.186950Z,2014-06-11T16:39:53.315625Z,2014-06-11T16:40:18.186950Z,2014-06-11T16:41:18.186950Z,earthquake,2.791735553,suspected,20140611T163953/BR_VILB_20140611T163953.mseed,"[['1', '2', 'Z']]",[],1.0,0.367,0.633,Anthropogenic,1,0.139,0.861,Anthropogenic,0,13.962399427661667,5.080218727861671,26.003071488843936,363.06527047328
20140616T143507,CLDB,941,usp2014lskj,[],P,BL,,HHZ,-10.8732,-55.7965,352.1702155918508,-8.85251236,-53.31507492,0.0,2014-06-16T14:35:52.078266Z,2014-06-16T14:35:07.008048Z,2014-06-16T14:35:41.078266Z,2014-06-16T14:36:41.078266Z,earthquake,3.690933276,suspected,20140616T143507/BL_CLDB_20140616T143507.mseed,"[['E', 'N', 'Z']]",[],0.0,0.862,0.138,Natural,0,0.92,0.08,Natural,0,0.8258474562969357,0.9300297418968384,22.266473729435372,18.388710690156746
20140616T143507,NPGB,942,usp2014lskj,[],P,BR,,HHZ,-7.0454,-55.3579,301.1147133776737,-8.85251236,-53.31507492,0.0,2014-06-16T14:35:55.639129Z,2014-06-16T14:35:07.008048Z,2014-06-16T14:35:44.639129Z,2014-06-16T14:36:44.639129Z,earthquake,3.690933276,suspected,20140616T143507/BR_NPGB_20140616T143507.mseed,"[['N', 'E', 'Z']]",[],0.0,0.977,0.023,Natural,0,0.92,0.08,Natural,0,3.363061347600098,9.567819547105767,11.312909257367133,38.046007852358734
20140617T170004,JANB,1842,usp2014lukr,[],P,BR,,HHZ,-15.058097,-44.311197,202.44975081080136,-16.82752609,-43.83058167,2000.0,2014-06-17T17:00:38.205432Z,2014-06-17T17:00:04.756675Z,2014-06-17T17:00:27.205432Z,2014-06-17T17:01:27.205432Z,earthquake,2.253811115,suspected,20140617T170004/BR_JANB_20140617T170004.mseed,"[['E', 'N', 'Z']]",[],0.0,0.65,0.35,Natural,1,0.396,0.604,Anthropogenic,0,3.0760118018437215,7.633101005477445,3.549474697194718,10.918226058916622
20140617T170004,MC01,1843,usp2014lukr,[],P,BR,,HHZ,-16.70744,-43.94167,17.801344702158097,-16.82752609,-43.83058167,2000.0,2014-06-17T17:00:09.307587Z,2014-06-17T17:00:04.756675Z,2014-06-17T16:59:58.307587Z,2014-06-17T17:00:58.307587Z,earthquake,2.253811115,suspected,20140617T170004/BR_MC01_20140617T170004.mseed,"[['E', 'N', 'Z']]",[],1.0,0.143,0.857,Anthropogenic,1,0.396,0.604,Anthropogenic,0,155.02725160783032,9.866066354682927,10.8125422885943,1676.2387138942138
20140619T043928,ARAG,996,usp2014lxdg,[],P,BR,,HHZ,-15.706,-51.812,113.21480277749887,-16.21765327,-50.89619827,0.0,2014-06-19T04:39:48.095397Z,2014-06-19T04:39:28.321652Z,2014-06-19T04:39:37.095397Z,2014-06-19T04:40:37.095397Z,earthquake,3.039163236,suspected,20140619T043928/BR_ARAG_20140619T043928.mseed,"[['E', 'N', 'Z']]",[],0.0,0.96,0.04,Natural,0,0.642,0.358,Natural,0,112.9054602968426,276.0688048528274,1.1666506095523221,131.72122407709693
