Event,Station,index,EventID,Error,Pick,Network,Location,Channel,Latitude,Longitude,Distance,Origem Latitude,Origem Longitude,Depth/km,Pick Time,Origin Time,Start Time,End Time,Cat,MLv,Certainty,Path,Compo,Warning
20120520T193210,JAN7,124,usp2012jxhc,[],P,BR,,HHZ,-15.058097,-44.311197,175.9031558868767,-16.61113548,-43.9609108,0.0,2012-05-20T19:32:39.093200Z,2012-05-20T19:32:10.423255Z,2012-05-20T19:32:28.093200Z,2012-05-20T19:33:28.093200Z,earthquake,2.602437608,known,20120520T193210/BR_JAN7_20120520T193210.mseed,"['E', 'N', 'Z']",[]
20120520T193210,PMNB,123,usp2012jxhc,[],P,BL,,HHZ,-18.54,-46.44,338.8530466738104,-16.61113548,-43.9609108,0.0,2012-05-20T19:33:00.128051Z,2012-05-20T19:32:10.423255Z,2012-05-20T19:32:49.128051Z,2012-05-20T19:33:49.128051Z,earthquake,2.602437608,known,20120520T193210/BL_PMNB_20120520T193210.mseed,"['E', 'N', 'Z']",[]
20120520T193210,SJMB,122,usp2012jxhc,[],P,BL,,HHZ,-18.702916,-41.184694,374.64613570592337,-16.61113548,-43.9609108,0.0,2012-05-20T19:33:04.034835Z,2012-05-20T19:32:10.423255Z,2012-05-20T19:32:53.034835Z,2012-05-20T19:33:53.034835Z,earthquake,2.602437608,known,20120520T193210/BL_SJMB_20120520T193210.mseed,"['E', 'N', 'Z']",[]
20121003T045247,NBLI,78,usp2012tkqn,[],P,NB,,HHZ,-7.364556,-36.949743,125.71970872595578,-8.223321915,-36.20291901,0.0,2012-10-03T04:53:08.230648Z,2012-10-03T04:52:47.696524Z,2012-10-03T04:52:57.230648Z,2012-10-03T04:53:57.230648Z,earthquake,1.786019986,known,20121003T045247/NB_NBLI_20121003T045247.mseed,"['E', 'N', 'Z']",[]
20130304T122916,BSCB,58,usp2013ekfx,[],P,BL,,HHZ,-20.9984,-44.7635,283.40109081514606,-18.53904152,-45.51453018,0.0,2013-03-04T12:29:58.732604Z,2013-03-04T12:29:16.156417Z,2013-03-04T12:29:47.732604Z,2013-03-04T12:30:47.732604Z,earthquake,2.989014876,known,20130304T122916/BL_BSCB_20130304T122916.mseed,"['Z', 'N', 'E']",[]
20130304T122916,IPMB,57,usp2013ekfx,[],P,BR,,HHZ,-17.982956,-48.211734,291.7855844429491,-18.53904152,-45.51453018,0.0,2013-03-04T12:30:00.059783Z,2013-03-04T12:29:16.156417Z,2013-03-04T12:29:49.059783Z,2013-03-04T12:30:49.059783Z,earthquake,2.989014876,known,20130304T122916/BR_IPMB_20130304T122916.mseed,"['E', 'N', 'Z']",[]
20130304T122916,MCI6,61,usp2013ekfx,[],P,BL,,HHZ,-16.80705,-43.8933,257.54580563836595,-18.53904152,-45.51453018,0.0,2013-03-04T12:29:55.791290Z,2013-03-04T12:29:16.156417Z,2013-03-04T12:29:44.791290Z,2013-03-04T12:30:44.791290Z,earthquake,2.989014876,known,20130304T122916/BL_MCI6_20130304T122916.mseed,"['N', 'Z', 'E']",[' Sampling rate is 200.0']
20130304T122916,MCI8,59,usp2013ekfx,[],P,BL,,HHZ,-16.65967,-43.92041,268.1239655529116,-18.53904152,-45.51453018,0.0,2013-03-04T12:29:56.652160Z,2013-03-04T12:29:16.156417Z,2013-03-04T12:29:45.652160Z,2013-03-04T12:30:45.652160Z,earthquake,2.989014876,known,20130304T122916/BL_MCI8_20130304T122916.mseed,"['N', 'Z', 'E']",[' Sampling rate is 200.0']
20130304T122916,MCI9,60,usp2013ekfx,[],P,BL,,HHZ,-16.69806,-43.89328,266.6789523004077,-18.53904152,-45.51453018,0.0,2013-03-04T12:29:56.580413Z,2013-03-04T12:29:16.156417Z,2013-03-04T12:29:45.580413Z,2013-03-04T12:30:45.580413Z,earthquake,2.989014876,known,20130304T122916/BL_MCI9_20130304T122916.mseed,"['N', 'Z', 'E']",[' Sampling rate is 200.0']
20140429T163032,BOAV,160,usp2014iiwa,[],P,BR,,HHZ,2.3953,-60.5225,27.979321948405698,2.6342,-60.6054,0.0,2014-04-29T16:30:34.324743Z,2014-04-29T16:30:32.000000Z,2014-04-29T16:30:23.324743Z,2014-04-29T16:31:23.324743Z,earthquake,1.391774031,suspected,20140429T163032/BR_BOAV_20140429T163032.mseed,"['1', '2', 'Z']",[]
20140521T195850,JANB,102,usp2014jxhz,[],P,BR,,HHZ,-15.058097,-44.311197,195.17361957184727,-16.77572632,-43.89704895,2000.0,2014-05-21T19:59:21.363964Z,2014-05-21T19:58:50.361814Z,2014-05-21T19:59:10.363964Z,2014-05-21T20:00:10.363964Z,earthquake,1.665542941,suspected,20140521T195850/BR_JANB_20140521T195850.mseed,"['E', 'N', 'Z']",[]
20140521T195850,MC01,103,usp2014jxhz,[],P,BR,,HHZ,-16.70744,-43.94167,8.930097802328334,-16.77572632,-43.89704895,2000.0,2014-05-21T19:58:52.361547Z,2014-05-21T19:58:50.361814Z,2014-05-21T19:58:41.361547Z,2014-05-21T19:59:41.361547Z,earthquake,1.665542941,suspected,20140521T195850/BR_MC01_20140521T195850.mseed,"['E', 'N', 'Z']",[]
20140521T195850,SJMB,101,usp2014jxhz,[],P,BL,,HHZ,-18.702916,-41.184694,358.1039481054652,-16.77572632,-43.89704895,2000.0,2014-05-21T19:59:25.582145Z,2014-05-21T19:58:50.361814Z,2014-05-21T19:59:14.582145Z,2014-05-21T20:00:14.582145Z,earthquake,1.665542941,suspected,20140521T195850/BL_SJMB_20140521T195850.mseed,"['E', 'N', 'Z']",[]
20141020T113018,CZSB,79,usp2014uojr,[],P,BR,,HHZ,-7.7299,-72.7049,360.1212023630309,-9.98493576,-75.06663513,10000.0,2014-10-20T11:31:08.934265Z,2014-10-20T11:30:18.188049Z,2014-10-20T11:30:57.934265Z,2014-10-20T11:31:57.934265Z,earthquake,3.970977507,known,20141020T113018/BR_CZSB_20141020T113018.mseed,"['E', 'N', 'Z']",[]
20141101T062236,CLDB,158,usp2014vjxo,[],P,BL,,HHZ,-10.8732,-55.7965,370.0039207370007,-8.667116165,-53.26119614,0.0,2014-11-01T06:23:29.634796Z,2014-11-01T06:22:36.194511Z,2014-11-01T06:23:18.634796Z,2014-11-01T06:24:18.634796Z,earthquake,2.91464146,suspected,20141101T062236/BL_CLDB_20141101T062236.mseed,"['E', 'N', 'Z']",[]
20141101T062236,NPGB,159,usp2014vjxo,[],P,BR,,HHZ,-7.0454,-55.3579,292.6264170682435,-8.667116165,-53.26119614,0.0,2014-11-01T06:23:19.323898Z,2014-11-01T06:22:36.194511Z,2014-11-01T06:23:08.323898Z,2014-11-01T06:24:08.323898Z,earthquake,2.91464146,suspected,20141101T062236/BR_NPGB_20141101T062236.mseed,"['N', 'E', 'Z']",[]
20141123T004607,ARAG,190,usp2014wxrn,[],P,BR,,HHZ,-15.706,-51.812,90.19108937890272,-15.32147884,-51.07078934,0.0,2014-11-23T00:46:22.164733Z,2014-11-23T00:46:07.955333Z,2014-11-23T00:46:11.164733Z,2014-11-23T00:47:11.164733Z,earthquake,3.307072926,suspected,20141123T004607/BR_ARAG_20141123T004607.mseed,"['E', 'N', 'Z']",[]
20141123T004607,SNDB,189,usp2014wxrn,[],P,BR,,HHZ,-11.9742,-51.2943,371.1193807148127,-15.32147884,-51.07078934,0.0,2014-11-23T00:47:01.451870Z,2014-11-23T00:46:07.955333Z,2014-11-23T00:46:50.451870Z,2014-11-23T00:47:50.451870Z,earthquake,3.307072926,suspected,20141123T004607/BR_SNDB_20141123T004607.mseed,"['E', 'N', 'Z']",[]
20150106T163952,ARAG,0,usp2015akkm,[],P,BR,,HHZ,-15.706,-51.812,272.10662116650826,-17.00253868,-53.97602844,0.0,2015-01-06T16:40:33.623061Z,2015-01-06T16:39:52.513537Z,2015-01-06T16:40:22.623061Z,2015-01-06T16:41:22.623061Z,earthquake,2.543128837,known,20150106T163952/BR_ARAG_20150106T163952.mseed,"['E', 'N', 'Z']",[]
20150106T163952,C2SB,1,usp2015akkm,[],P,BL,,HHZ,-18.7688,-52.8377,229.7090208386392,-17.00253868,-53.97602844,0.0,2015-01-06T16:40:28.368561Z,2015-01-06T16:39:52.513537Z,2015-01-06T16:40:17.368561Z,2015-01-06T16:41:17.368561Z,earthquake,2.543128837,known,20150106T163952/BL_C2SB_20150106T163952.mseed,"['E', 'N', 'Z']",[]
20150106T163952,PP1B,2,usp2015akkm,[],P,BL,,HHZ,-17.6003,-54.8796,116.63813280346686,-17.00253868,-53.97602844,0.0,2015-01-06T16:40:12.126082Z,2015-01-06T16:39:52.513537Z,2015-01-06T16:40:01.126082Z,2015-01-06T16:41:01.126082Z,earthquake,2.543128837,known,20150106T163952/BL_PP1B_20150106T163952.mseed,"['Z', 'N', 'E']",[]
20150110T065510,PDRB,11,usp2015aqzf,[],P,BR,,HHZ,-11.612297,-56.729597,22.449255331835285,-11.41101742,-56.75588989,0.0,2015-01-10T06:55:14.256011Z,2015-01-10T06:55:10.210676Z,2015-01-10T06:55:03.256011Z,2015-01-10T06:56:03.256011Z,earthquake,3.246361719,known,20150110T065510/BR_PDRB_20150110T065510.mseed,"['E', 'N', 'Z']",[]
20150212T130734,SNDB,179,usp2015cztc,[],P,BR,,HHZ,-11.9742,-51.2943,168.94188959143085,-10.51813412,-51.76122284,0.0,2015-02-12T13:08:02.910919Z,2015-02-12T13:07:34.304073Z,2015-02-12T13:07:51.910919Z,2015-02-12T13:08:51.910919Z,earthquake,3.104425459,suspected,20150212T130734/BR_SNDB_20150212T130734.mseed,"['E', 'N', 'Z']",[]
20150316T200239,NBLI,65,usp2015fgsx,[],P,NB,,HHZ,-7.364556,-36.949743,239.30407496357213,-8.20911026,-34.95222855,0.0,2015-03-16T20:03:16.773910Z,2015-03-16T20:02:39.460731Z,2015-03-16T20:03:05.773910Z,2015-03-16T20:04:05.773910Z,earthquake,1.257805545,suspected,20150316T200239/NB_NBLI_20150316T200239.mseed,"['E', 'N', 'Z']",[]
20150316T200239,NBRF,66,usp2015fgsx,[],P,NB,,HHZ,-8.679466,-35.127172,55.47312180187522,-8.20911026,-34.95222855,0.0,2015-03-16T20:02:48.678268Z,2015-03-16T20:02:39.460731Z,2015-03-16T20:02:37.678268Z,2015-03-16T20:03:37.678268Z,earthquake,1.257805545,suspected,20150316T200239/NB_NBRF_20150316T200239.mseed,"['E', 'N', 'Z']",[]
20150407T115017,CLDB,133,usp2015guhs,[],P,BL,,HHZ,-10.8732,-55.7965,394.9792958541258,-9.015133858,-52.72040939,0.0,2015-04-07T11:51:13.457580Z,2015-04-07T11:50:17.315692Z,2015-04-07T11:51:02.457580Z,2015-04-07T11:52:02.457580Z,earthquake,3.135158039,known,20150407T115017/BL_CLDB_20150407T115017.mseed,"['E', 'N', 'Z']",[]
20150407T115017,NPGB,134,usp2015guhs,[],P,BR,,HHZ,-7.0454,-55.3579,363.2897546613274,-9.015133858,-52.72040939,0.0,2015-04-07T11:51:09.838043Z,2015-04-07T11:50:17.315692Z,2015-04-07T11:50:58.838043Z,2015-04-07T11:51:58.838043Z,earthquake,3.135158039,known,20150407T115017/BR_NPGB_20150407T115017.mseed,"['N', 'E', 'Z']",[]
20150407T115017,SNDB,135,usp2015guhs,[],P,BR,,HHZ,-11.9742,-51.2943,362.62304326656255,-9.015133858,-52.72040939,0.0,2015-04-07T11:51:09.436950Z,2015-04-07T11:50:17.315692Z,2015-04-07T11:50:58.436950Z,2015-04-07T11:51:58.436950Z,earthquake,3.135158039,known,20150407T115017/BR_SNDB_20150407T115017.mseed,"['E', 'N', 'Z']",[]
20150414T145908,BSCB,119,usp2015hhim,[],P,BL,,HHZ,-20.9984,-44.7635,111.02181621755015,-20.10749054,-45.25223541,0.0,2015-04-14T14:59:26.904403Z,2015-04-14T14:59:08.021184Z,2015-04-14T14:59:15.904403Z,2015-04-14T15:00:15.904403Z,earthquake,2.254227869,suspected,20150414T145908/BL_BSCB_20150414T145908.mseed,"['Z', 'N', 'E']",[]
20150414T145908,DUB01,115,usp2015hhim,[],P,ON,,HHZ,-22.080966,-42.374182,370.3436634790887,-20.10749054,-45.25223541,0.0,2015-04-14T15:00:01.104400Z,2015-04-14T14:59:08.021184Z,2015-04-14T14:59:50.104400Z,2015-04-14T15:00:50.104400Z,earthquake,2.254227869,suspected,20150414T145908/ON_DUB01_20150414T145908.mseed,"['E', 'N', 'Z']",[]
20150414T145908,ESAR,116,usp2015hhim,[],P,BL,,HHZ,-23.0207,-44.4403,333.3427941629899,-20.10749054,-45.25223541,0.0,2015-04-14T14:59:56.956573Z,2015-04-14T14:59:08.021184Z,2015-04-14T14:59:45.956573Z,2015-04-14T15:00:45.956573Z,earthquake,2.254227869,suspected,20150414T145908/BL_ESAR_20150414T145908.mseed,"['E', 'N', 'Z']",[]
20150414T145908,IPMB,114,usp2015hhim,[],P,BR,,HHZ,-17.982956,-48.211734,390.3037919417351,-20.10749054,-45.25223541,0.0,2015-04-14T15:00:00.713134Z,2015-04-14T14:59:08.021184Z,2015-04-14T14:59:49.713134Z,2015-04-14T15:00:49.713134Z,earthquake,2.254227869,suspected,20150414T145908/BR_IPMB_20150414T145908.mseed,"['E', 'N', 'Z']",[]
20150414T145908,VAS01,117,usp2015hhim,[],P,ON,,HHZ,-22.280081,-43.442624,305.2282042380239,-20.10749054,-45.25223541,0.0,2015-04-14T14:59:53.043548Z,2015-04-14T14:59:08.021184Z,2015-04-14T14:59:42.043548Z,2015-04-14T15:00:42.043548Z,earthquake,2.254227869,suspected,20150414T145908/ON_VAS01_20150414T145908.mseed,"['E', 'N', 'Z']",[]
20150622T223108,DIAM,146,usp2015mdzc,[],P,BL,,HHZ,-18.2952,-43.6648,172.0136509502423,-16.75398445,-43.87394333,2000.0,2015-06-22T22:31:36.608871Z,2015-06-22T22:31:08.560591Z,2015-06-22T22:31:25.608871Z,2015-06-22T22:32:25.608871Z,earthquake,1.62317473,suspected,20150622T223108/BL_DIAM_20150622T223108.mseed,"['E', 'N', 'Z']",[]
20150622T223108,JANB,147,usp2015mdzc,[],P,BR,,HHZ,-15.058097,-44.311197,193.41575997055827,-16.75398445,-43.87394333,2000.0,2015-06-22T22:31:39.700149Z,2015-06-22T22:31:08.560591Z,2015-06-22T22:31:28.700149Z,2015-06-22T22:32:28.700149Z,earthquake,1.62317473,suspected,20150622T223108/BR_JANB_20150622T223108.mseed,"['E', 'N', 'Z']",[]
20150622T223108,MC01,149,usp2015mdzc,[],P,BR,,HHZ,-16.70744,-43.94167,8.870810430615538,-16.75398445,-43.87394333,2000.0,2015-06-22T22:31:10.332687Z,2015-06-22T22:31:08.560591Z,2015-06-22T22:30:59.332687Z,2015-06-22T22:31:59.332687Z,earthquake,1.62317473,suspected,20150622T223108/BR_MC01_20150622T223108.mseed,"['E', 'N', 'Z']",[]
20150622T223108,SJMB,148,usp2015mdzc,[],P,BL,,HHZ,-18.702916,-41.184694,357.59831157231406,-16.75398445,-43.87394333,2000.0,2015-06-22T22:31:59.539260Z,2015-06-22T22:31:08.560591Z,2015-06-22T22:31:48.539260Z,2015-06-22T22:32:48.539260Z,earthquake,1.62317473,suspected,20150622T223108/BL_SJMB_20150622T223108.mseed,"['E', 'N', 'Z']",[]
20150910T232853,NBCL,6,usp2015rufg,[],P,NB,,HHZ,-4.224377,-38.291041,184.83312196229184,-3.817320824,-39.90538788,0.0,2015-09-10T23:29:23.781799Z,2015-09-10T23:28:53.080856Z,2015-09-10T23:29:12.781799Z,2015-09-10T23:30:12.781799Z,earthquake,2.269619269,known,20150910T232853/NB_NBCL_20150910T232853.mseed,"['E', 'N', 'Z']",[]
20150910T232853,NBMO,3,usp2015rufg,[],P,NB,,HHZ,-3.310348,-40.042927,58.1057625388312,-3.817320824,-39.90538788,0.0,2015-09-10T23:29:02.289398Z,2015-09-10T23:28:53.080856Z,2015-09-10T23:28:51.289398Z,2015-09-10T23:29:51.289398Z,earthquake,2.269619269,known,20150910T232853/NB_NBMO_20150910T232853.mseed,"['E', 'N', 'Z']",[]
20150910T232853,NBPB,5,usp2015rufg,[],P,NB,,HHZ,-5.543242,-39.583619,194.16541145630043,-3.817320824,-39.90538788,0.0,2015-09-10T23:29:23.057861Z,2015-09-10T23:28:53.080856Z,2015-09-10T23:29:12.057861Z,2015-09-10T23:30:12.057861Z,earthquake,2.269619269,known,20150910T232853/NB_NBPB_20150910T232853.mseed,"['E', 'N', 'Z']",[]
20150910T232853,NBPS,4,usp2015rufg,[],P,NB,,HHZ,-4.393969,-41.445618,182.520804408637,-3.817320824,-39.90538788,0.0,2015-09-10T23:29:22.676696Z,2015-09-10T23:28:53.080856Z,2015-09-10T23:29:11.676696Z,2015-09-10T23:30:11.676696Z,earthquake,2.269619269,known,20150910T232853/NB_NBPS_20150910T232853.mseed,"['E', 'N', 'Z']",[]
20151030T044549,CZSB,136,usp2015vgdj,[],P,BR,,HHZ,-7.7299,-72.7049,289.65863590195505,-9.920454979,-74.14811707,10000.0,2015-10-30T04:46:32.433743Z,2015-10-30T04:45:49.545124Z,2015-10-30T04:46:21.433743Z,2015-10-30T04:47:21.433743Z,earthquake,4.160530297,known,20151030T044549/BR_CZSB_20151030T044549.mseed,"['E', 'N', 'Z']",[]
20160122T191159,CZSB,181,usp2016bnvo,[],P,BR,,HHZ,-7.7299,-72.7049,206.4769222105748,-8.733635902,-74.28502655,139254.837,2016-01-22T19:12:33.974096Z,2016-01-22T19:11:59.482118Z,2016-01-22T19:12:22.974096Z,2016-01-22T19:13:22.974096Z,earthquake,4.198250182,known,20160122T191159/BR_CZSB_20160122T191159.mseed,"['E', 'N', 'Z']",[]
20160218T115201,ITAB,71,usp2016dkpq,[],P,BL,,HHZ,-27.2349,-52.1313,61.745909299490485,-27.18205452,-51.51086044,0.0,2016-02-18T11:52:11.790581Z,2016-02-18T11:52:01.033857Z,2016-02-18T11:52:00.790581Z,2016-02-18T11:53:00.790581Z,earthquake,2.257516451,suspected,20160218T115201/BL_ITAB_20160218T115201.mseed,"['E', 'N', 'Z']",[]
20160218T115201,PTGB,73,usp2016dkpq,[],P,BL,,HHZ,-24.72095,-52.01182,277.23634438196547,-27.18205452,-51.51086044,0.0,2016-02-18T11:52:42.651447Z,2016-02-18T11:52:01.033857Z,2016-02-18T11:52:31.651447Z,2016-02-18T11:53:31.651447Z,earthquake,2.257516451,suspected,20160218T115201/BL_PTGB_20160218T115201.mseed,"['E', 'N', 'Z']",[]
20160218T115201,TIJ01,72,usp2016dkpq,[],P,ON,,HHZ,-25.908848,-49.024241,285.12316416426336,-27.18205452,-51.51086044,0.0,2016-02-18T11:52:48.207973Z,2016-02-18T11:52:01.033857Z,2016-02-18T11:52:37.207973Z,2016-02-18T11:53:37.207973Z,earthquake,2.257516451,suspected,20160218T115201/ON_TIJ01_20160218T115201.mseed,"['E', 'N', 'Z']",[]
20160225T165133,NBAN,26,usp2016dxua,[],P,NB,,HHZ,-9.668656,-36.274726,154.0305013898977,-8.285860062,-36.10827255,0.0,2016-02-25T16:51:58.721313Z,2016-02-25T16:51:33.183460Z,2016-02-25T16:51:47.721313Z,2016-02-25T16:52:47.721313Z,earthquake,2.267070145,suspected,20160225T165133/NB_NBAN_20160225T165133.mseed,"['E', 'N', 'Z']",[]
20160225T165133,NBLA,24,usp2016dxua,[],P,NB,,HHZ,-10.99255,-37.788972,351.6360158233867,-8.285860062,-36.10827255,0.0,2016-02-25T16:52:24.111158Z,2016-02-25T16:51:33.183460Z,2016-02-25T16:52:13.111158Z,2016-02-25T16:53:13.111158Z,earthquake,2.267070145,suspected,20160225T165133/NB_NBLA_20160225T165133.mseed,"['E', 'N', 'Z']",[]
20160225T165133,NBLV,27,usp2016dxua,[],P,NB,,HHZ,-7.357693,-36.921745,136.33169140437096,-8.285860062,-36.10827255,0.0,2016-02-25T16:51:56.177856Z,2016-02-25T16:51:33.183460Z,2016-02-25T16:51:45.177856Z,2016-02-25T16:52:45.177856Z,earthquake,2.267070145,suspected,20160225T165133/NB_NBLV_20160225T165133.mseed,"['E', 'N', 'Z']",[]
20160225T165133,NBMA,25,usp2016dxua,[],P,NB,,HHZ,-7.365352,-38.764058,310.0893545967207,-8.285860062,-36.10827255,0.0,2016-02-25T16:52:19.102461Z,2016-02-25T16:51:33.183460Z,2016-02-25T16:52:08.102461Z,2016-02-25T16:53:08.102461Z,earthquake,2.267070145,suspected,20160225T165133/NB_NBMA_20160225T165133.mseed,"['E', 'N', 'Z']",[]
20160225T165133,NBPV,22,usp2016dxua,[],P,NB,,HHZ,-6.417527,-35.290516,225.48765846436905,-8.285860062,-36.10827255,0.0,2016-02-25T16:52:08.375112Z,2016-02-25T16:51:33.183460Z,2016-02-25T16:51:57.375112Z,2016-02-25T16:52:57.375112Z,earthquake,2.267070145,suspected,20160225T165133/NB_NBPV_20160225T165133.mseed,"['E', 'N', 'Z']",[]
20160225T165133,NBRF,23,usp2016dxua,[],P,NB,,HHZ,-8.679466,-35.127172,116.46975064297553,-8.285860062,-36.10827255,0.0,2016-02-25T16:51:53.058632Z,2016-02-25T16:51:33.183460Z,2016-02-25T16:51:42.058632Z,2016-02-25T16:52:42.058632Z,earthquake,2.267070145,suspected,20160225T165133/NB_NBRF_20160225T165133.mseed,"['E', 'N', 'Z']",[]
20160312T073113,BB19B,202,usp2016fahp,[],P,BL,,HHZ,-21.0662,-48.5279,34.15670825295021,-21.3719,-48.5721,0.0,2016-03-12T07:31:18.895733Z,2016-03-12T07:31:13.000000Z,2016-03-12T07:31:07.895733Z,2016-03-12T07:32:07.895733Z,earthquake,1.651960237,suspected,20160312T073113/BL_BB19B_20160312T073113.mseed,"['E', 'N', 'Z']",[]
20160320T025046,NBIT,125,usp2016fooj,[],P,NB,,HHZ,-14.930689,-39.434579,235.3538995735069,-12.82451534,-39.12890625,0.0,2016-03-20T02:51:23.285533Z,2016-03-20T02:50:46.697961Z,2016-03-20T02:51:12.285533Z,2016-03-20T02:52:12.285533Z,earthquake,1.284617825,known,20160320T025046/NB_NBIT_20160320T025046.mseed,"['E', 'N', 'Z']",[]
20160320T025046,NBLA,126,usp2016fooj,[],P,NB,,HHZ,-10.99255,-37.788972,249.74913193976644,-12.82451534,-39.12890625,0.0,2016-03-20T02:51:25.600646Z,2016-03-20T02:50:46.697961Z,2016-03-20T02:51:14.600646Z,2016-03-20T02:52:14.600646Z,earthquake,1.284617825,known,20160320T025046/NB_NBLA_20160320T025046.mseed,"['E', 'N', 'Z']",[]
20160321T191400,BB19B,49,usp2016frpw,[],P,BL,,HHZ,-21.0662,-48.5279,34.35020916503184,-21.3736,-48.5726,0.0,2016-03-21T19:14:07.262939Z,2016-03-21T19:14:00.000000Z,2016-03-21T19:13:56.262939Z,2016-03-21T19:14:56.262939Z,earthquake,1.336833567,known,20160321T191400/BL_BB19B_20160321T191400.mseed,"['E', 'N', 'Z']",[]
20160329T191619,CLDB,151,usp2016gggk,[],P,BL,,HHZ,-10.8732,-55.7965,134.23158527033132,-11.5597229,-56.81003952,0.0,2016-03-29T19:16:42.000028Z,2016-03-29T19:16:19.425338Z,2016-03-29T19:16:31.000028Z,2016-03-29T19:17:31.000028Z,earthquake,2.708852754,known,20160329T191619/BL_CLDB_20160329T191619.mseed,"['E', 'N', 'Z']",[]
20160329T191619,NBRS,150,usp2016gggk,[],P,XC,,HHZ,-14.32244,-55.77729,325.53225475839025,-11.5597229,-56.81003952,0.0,2016-03-29T19:17:07.096125Z,2016-03-29T19:16:19.425338Z,2016-03-29T19:16:56.096125Z,2016-03-29T19:17:56.096125Z,earthquake,2.708852754,known,20160329T191619/XC_NBRS_20160329T191619.mseed,"['E', 'N', 'Z']",[]
20160329T191619,PDRB,152,usp2016gggk,[],P,BR,,HHZ,-11.612297,-56.729597,10.526035513289902,-11.5597229,-56.81003952,0.0,2016-03-29T19:16:21.465518Z,2016-03-29T19:16:19.425338Z,2016-03-29T19:16:10.465518Z,2016-03-29T19:17:10.465518Z,earthquake,2.708852754,known,20160329T191619/BR_PDRB_20160329T191619.mseed,"['E', 'N', 'Z']",[]
20160411T115522,ALF01,14,usp2016hdlg,[],P,ON,,HHZ,-20.616865,-40.725213,380.2150302791897,-19.44933333,-44.143,0.0,2016-04-11T11:56:16.043921Z,2016-04-11T11:55:22.449999Z,2016-04-11T11:56:05.043921Z,2016-04-11T11:57:05.043921Z,earthquake,3.281836033,known,20160411T115522/ON_ALF01_20160411T115522.mseed,"['E', 'N', 'Z']",[]
20160411T115522,DIAM,19,usp2016hdlg,[],P,BL,,HHZ,-18.2952,-43.6648,137.32960539063723,-19.44933333,-44.143,0.0,2016-04-11T11:55:45.688486Z,2016-04-11T11:55:22.449999Z,2016-04-11T11:55:34.688486Z,2016-04-11T11:56:34.688486Z,earthquake,3.281836033,known,20160411T115522/BL_DIAM_20160411T115522.mseed,"['E', 'N', 'Z']",[]
20160411T115522,DUB01,16,usp2016hdlg,[],P,ON,,HHZ,-22.080966,-42.374182,344.6845561216187,-19.44933333,-44.143,0.0,2016-04-11T11:56:12.186737Z,2016-04-11T11:55:22.449999Z,2016-04-11T11:56:01.186737Z,2016-04-11T11:57:01.186737Z,earthquake,3.281836033,known,20160411T115522/ON_DUB01_20160411T115522.mseed,"['E', 'N', 'Z']",[]
20160411T115522,RIB01,12,usp2016hdlg,[],P,ON,,HHZ,-19.314216,-40.394365,394.068525452159,-19.44933333,-44.143,0.0,2016-04-11T11:56:17.431997Z,2016-04-11T11:55:22.449999Z,2016-04-11T11:56:06.431997Z,2016-04-11T11:57:06.431997Z,earthquake,3.281836033,known,20160411T115522/ON_RIB01_20160411T115522.mseed,"['E', 'N', 'Z']",[]
20160411T115522,SJMB,18,usp2016hdlg,[],P,BL,,HHZ,-18.702916,-41.184694,322.1141950225438,-19.44933333,-44.143,0.0,2016-04-11T11:56:09.084020Z,2016-04-11T11:55:22.449999Z,2016-04-11T11:55:58.084020Z,2016-04-11T11:56:58.084020Z,earthquake,3.281836033,known,20160411T115522/BL_SJMB_20160411T115522.mseed,"['E', 'N', 'Z']",[]
20160411T115522,VAS01,17,usp2016hdlg,[],P,ON,,HHZ,-22.280081,-43.442624,321.76814876053953,-19.44933333,-44.143,0.0,2016-04-11T11:56:09.015445Z,2016-04-11T11:55:22.449999Z,2016-04-11T11:55:58.015445Z,2016-04-11T11:56:58.015445Z,earthquake,3.281836033,known,20160411T115522/ON_VAS01_20160411T115522.mseed,"['E', 'N', 'Z']",[]
20160920T201657,NBAN,203,usp2016sobl,[],P,NB,,HHZ,-9.668656,-36.274726,152.03654414387947,-8.669340134,-35.32483292,0.0,2016-09-20T20:17:22.523356Z,2016-09-20T20:16:57.441520Z,2016-09-20T20:17:11.523356Z,2016-09-20T20:18:11.523356Z,earthquake,1.248428194,suspected,20160920T201657/NB_NBAN_20160920T201657.mseed,"['E', 'N', 'Z']",[]
20160920T201657,NBRF,204,usp2016sobl,[],P,NB,,HHZ,-8.679466,-35.127172,21.78228758501417,-8.669340134,-35.32483292,0.0,2016-09-20T20:17:01.293327Z,2016-09-20T20:16:57.441520Z,2016-09-20T20:16:50.293327Z,2016-09-20T20:17:50.293327Z,earthquake,1.248428194,suspected,20160920T201657/NB_NBRF_20160920T201657.mseed,"['E', 'N', 'Z']",[]
20170227T070540,AZCA,93,usp2017ears,[],P,XC,,HHZ,-28.0799,-55.9832,153.44856370833207,-26.95033333,-56.88166667,15000.0,2017-02-27T07:06:06.539026Z,2017-02-27T07:05:40.689999Z,2017-02-27T07:05:55.539026Z,2017-02-27T07:06:55.539026Z,earthquake,3.365370339,known,20170227T070540/XC_AZCA_20170227T070540.mseed,"['E', 'N', 'Z']",[]
20170227T070540,CRSM,94,usp2017ears,[],P,XC,,HHZ,-27.49373,-54.0433,287.53361812795646,-26.95033333,-56.88166667,15000.0,2017-02-27T07:06:22.658967Z,2017-02-27T07:05:40.689999Z,2017-02-27T07:06:11.658967Z,2017-02-27T07:07:11.658967Z,earthquake,3.365370339,known,20170227T070540/XC_CRSM_20170227T070540.mseed,"['E', 'N', 'Z']",[]
20170227T070540,ESFA,99,usp2017ears,[],P,XC,,HHZ,-24.9575,-58.4883,273.19047766263594,-26.95033333,-56.88166667,15000.0,2017-02-27T07:06:20.311460Z,2017-02-27T07:05:40.689999Z,2017-02-27T07:06:09.311460Z,2017-02-27T07:07:09.311460Z,earthquake,3.365370339,known,20170227T070540/XC_ESFA_20170227T070540.mseed,"['E', 'N', 'Z']",[]
20170227T070540,FRBT,96,usp2017ears,[],P,XC,,HHZ,-25.975008,-53.06258,395.8607109669784,-26.95033333,-56.88166667,15000.0,2017-02-27T07:06:36.108629Z,2017-02-27T07:05:40.689999Z,2017-02-27T07:06:25.108629Z,2017-02-27T07:07:25.108629Z,earthquake,3.365370339,known,20170227T070540/XC_FRBT_20170227T070540.mseed,"['E', 'N', 'Z']",[]
20170227T070540,ITQB,97,usp2017ears,[],P,BL,,HHZ,-29.6638,-56.6275,301.74984525056027,-26.95033333,-56.88166667,15000.0,2017-02-27T07:06:24.325021Z,2017-02-27T07:05:40.689999Z,2017-02-27T07:06:13.325021Z,2017-02-27T07:07:13.325021Z,earthquake,3.365370339,known,20170227T070540/BL_ITQB_20170227T070540.mseed,"['2', '1', 'Z']",[]
20170227T070540,MCR1,95,usp2017ears,[],P,XC,,HHZ,-24.4591,-54.0367,397.0860930248116,-26.95033333,-56.88166667,15000.0,2017-02-27T07:06:34.839460Z,2017-02-27T07:05:40.689999Z,2017-02-27T07:06:23.839460Z,2017-02-27T07:07:23.839460Z,earthquake,3.365370339,known,20170227T070540/XC_MCR1_20170227T070540.mseed,"['E', 'N', 'Z']",[]
20170227T070540,MECA,98,usp2017ears,[],P,XC,,HHZ,-29.29687,-58.17347,289.3586232506383,-26.95033333,-56.88166667,15000.0,2017-02-27T07:06:22.282430Z,2017-02-27T07:05:40.689999Z,2017-02-27T07:06:11.282430Z,2017-02-27T07:07:11.282430Z,earthquake,3.365370339,known,20170227T070540/XC_MECA_20170227T070540.mseed,"['E', 'N', 'Z']",[]
20170511T204807,BB19B,75,usp2017jfco,[],P,BL,,HHZ,-21.0662,-48.5279,225.3203605507753,-21.26412582,-50.68718719,0.0,2017-05-11T20:48:42.493564Z,2017-05-11T20:48:07.286636Z,2017-05-11T20:48:31.493564Z,2017-05-11T20:49:31.493564Z,earthquake,2.519077336,suspected,20170511T204807/BL_BB19B_20170511T204807.mseed,"['E', 'N', 'Z']",[]
20170511T204807,FRTB,76,usp2017jfco,[],P,BL,,HHZ,-23.3439,-49.564,257.74290761867826,-21.26412582,-50.68718719,0.0,2017-05-11T20:48:46.475174Z,2017-05-11T20:48:07.286636Z,2017-05-11T20:48:35.475174Z,2017-05-11T20:49:35.475174Z,earthquake,2.519077336,suspected,20170511T204807/BL_FRTB_20170511T204807.mseed,"['E', 'N', 'Z']",[]
20170511T204807,PCMB,77,usp2017jfco,[],P,BL,,HHZ,-21.6074,-51.2619,70.66924986590409,-21.26412582,-50.68718719,0.0,2017-05-11T20:48:19.575073Z,2017-05-11T20:48:07.286636Z,2017-05-11T20:48:08.575073Z,2017-05-11T20:49:08.575073Z,earthquake,2.519077336,suspected,20170511T204807/BL_PCMB_20170511T204807.mseed,"['E', 'N', 'Z']",[]
20170511T204807,TQJ5A,74,usp2017jfco,[],P,BX,,HHZ,-21.3614,-48.5929,217.5521776927909,-21.26412582,-50.68718719,0.0,2017-05-11T20:48:41.443557Z,2017-05-11T20:48:07.286636Z,2017-05-11T20:48:30.443557Z,2017-05-11T20:49:30.443557Z,earthquake,2.519077336,suspected,20170511T204807/BX_TQJ5A_20170511T204807.mseed,"['E', 'N', 'Z']",[' Sampling rate is 200.0']
20170701T165646,CZSB,56,usp2017mtzp,[],P,BR,,HHZ,-7.7299,-72.7049,390.8002316390166,-10.7844944,-74.49279022,50000.0,2017-07-01T16:57:38.711635Z,2017-07-01T16:56:46.201983Z,2017-07-01T16:57:27.711635Z,2017-07-01T16:58:27.711635Z,earthquake,4.693413138,known,20170701T165646/BR_CZSB_20170701T165646.mseed,"['E', 'N', 'Z']",[]
20170727T140210,CZSB,50,usp2017opgx,[],P,BR,,HHZ,-7.7299,-72.7049,342.3278592925772,-10.4123745,-74.25847626,129000.0,2017-07-27T14:02:58.200862Z,2017-07-27T14:02:10.101286Z,2017-07-27T14:02:47.200862Z,2017-07-27T14:03:47.200862Z,earthquake,4.095793594,known,20170727T140210/BR_CZSB_20170727T140210.mseed,"['E', 'N', 'Z']",[]
20180123T022350,LDASE,21,usp2018bojv,[],P,BX,,HHZ,-23.3932,-51.1177,8.80516012808984,-23.35,-51.19,0.0,2018-01-23T02:23:51.869610Z,2018-01-23T02:23:50.000000Z,2018-01-23T02:23:40.869610Z,2018-01-23T02:24:40.869610Z,earthquake,0.7047947441,known,20180123T022350/BX_LDASE_20180123T022350.mseed,"['E', 'Z', 'N']",[' Sampling rate is 200.0']
20181218T161918,ANA01,38,usp2018ysnw,[],P,ON,,HHZ,-14.531001,-40.74522,92.32660789303134,-13.70076847,-40.65911102,0.0,2018-12-18T16:19:34.167526Z,2018-12-18T16:19:18.272961Z,2018-12-18T16:19:23.167526Z,2018-12-18T16:20:23.167526Z,earthquake,1.716957727,suspected,20181218T161918/ON_ANA01_20181218T161918.mseed,"['E', 'N', 'Z']",[]
20181218T161918,CMC01,36,usp2018ysnw,[],P,ON,,HHZ,-15.360055,-39.519089,220.91190671087185,-13.70076847,-40.65911102,0.0,2018-12-18T16:19:53.134294Z,2018-12-18T16:19:18.272961Z,2018-12-18T16:19:42.134294Z,2018-12-18T16:20:42.134294Z,earthquake,1.716957727,suspected,20181218T161918/ON_CMC01_20181218T161918.mseed,"['Z', '1', '2']",[]
20181218T161918,GDU01,37,usp2018ysnw,[],P,ON,,HHZ,-13.72,-39.575278,117.25516442759964,-13.70076847,-40.65911102,0.0,2018-12-18T16:19:38.355751Z,2018-12-18T16:19:18.272961Z,2018-12-18T16:19:27.355751Z,2018-12-18T16:20:27.355751Z,earthquake,1.716957727,suspected,20181218T161918/ON_GDU01_20181218T161918.mseed,"['Z', '1', '2']",[]
20190515T073908,CZSB,86,usp2019jlko,[],P,BR,,HHZ,-7.7299,-72.7049,244.51358272209663,-8.658065796,-74.71891022,136642.7612,2019-05-15T07:39:45.593938Z,2019-05-15T07:39:08.692904Z,2019-05-15T07:39:34.593938Z,2019-05-15T07:40:34.593938Z,earthquake,4.175993609,known,20190515T073908/BR_CZSB_20190515T073908.mseed,"['E', 'N', 'Z']",[]
20190519T042432,ARAG,121,usp2019jsmd,[],P,BR,,HHZ,-15.706,-51.812,325.3072966619782,-14.04140377,-49.32014465,0.0,2019-05-19T04:25:19.758788Z,2019-05-19T04:24:32.171829Z,2019-05-19T04:25:08.758788Z,2019-05-19T04:26:08.758788Z,earthquake,2.092001477,known,20190519T042432/BR_ARAG_20190519T042432.mseed,"['E', 'N', 'Z']",[]
20190519T042432,SNDB,120,usp2019jsmd,[],P,BR,,HHZ,-11.9742,-51.2943,313.30503773406133,-14.04140377,-49.32014465,0.0,2019-05-19T04:25:18.827743Z,2019-05-19T04:24:32.171829Z,2019-05-19T04:25:07.827743Z,2019-05-19T04:26:07.827743Z,earthquake,2.092001477,known,20190519T042432/BR_SNDB_20190519T042432.mseed,"['E', 'N', 'Z']",[]
20190526T100440,CZSB,201,usp2019kfrx,[],P,BR,,HHZ,-7.7299,-72.7049,337.7504989978853,-5.69916153,-74.98674774,165011.673,2019-05-26T10:05:28.553464Z,2019-05-26T10:04:40.478383Z,2019-05-26T10:05:17.553464Z,2019-05-26T10:06:17.553464Z,earthquake,4.525439542,known,20190526T100440/BR_CZSB_20190526T100440.mseed,"['E', 'N', 'Z']",[]
20190907T190252,CZSB,188,usp2019rojz,[],P,BR,,HHZ,-7.7299,-72.7049,364.5783945185197,-6.360663414,-75.70670319,41000.0,2019-09-07T19:03:42.027011Z,2019-09-07T19:02:52.611577Z,2019-09-07T19:03:31.027011Z,2019-09-07T19:04:31.027011Z,earthquake,4.400764437,known,20190907T190252/BR_CZSB_20190907T190252.mseed,"['E', 'N', 'Z']",[]
20190927T234649,NBAN,100,usp2019szhk,[],P,NB,,HHZ,-9.668656,-36.274726,40.52165870961959,-9.9439,-36.5185,0.0,2019-09-27T23:46:55.471141Z,2019-09-27T23:46:49.000000Z,2019-09-27T23:46:44.471141Z,2019-09-27T23:47:44.471141Z,earthquake,2.304013624,suspected,20190927T234649/NB_NBAN_20190927T234649.mseed,"['E', 'N', 'Z']",[]
20191205T234836,BSCB,172,usp2019xvje,[],P,BL,,HHZ,-20.9984,-44.7635,221.9239970855074,-18.994,-44.72966667,0.0,2019-12-05T23:49:11.618586Z,2019-12-05T23:48:36.679999Z,2019-12-05T23:49:00.618586Z,2019-12-05T23:50:00.618586Z,earthquake,2.702045276,suspected,20191205T234836/BL_BSCB_20191205T234836.mseed,"['Z', 'N', 'E']",[]
20191205T234836,CANS,171,usp2019xvje,[],P,BL,,HHZ,-20.2896,-46.3921,225.7633770012012,-18.994,-44.72966667,0.0,2019-12-05T23:49:11.466798Z,2019-12-05T23:48:36.679999Z,2019-12-05T23:49:00.466798Z,2019-12-05T23:50:00.466798Z,earthquake,2.702045276,suspected,20191205T234836/BL_CANS_20191205T234836.mseed,"['E', 'N', 'Z']",[]
20191205T234836,CHCR,175,usp2019xvje,[],P,VL,,HHZ,-19.6133,-43.2403,170.88402310005176,-18.994,-44.72966667,0.0,2019-12-05T23:49:05.074296Z,2019-12-05T23:48:36.679999Z,2019-12-05T23:48:54.074296Z,2019-12-05T23:49:54.074296Z,earthquake,2.702045276,suspected,20191205T234836/VL_CHCR_20191205T234836.mseed,"['Z', '1', '2']",[]
20191205T234836,DIAM,178,usp2019xvje,[],P,BL,,HHZ,-18.2952,-43.6648,136.4069511914008,-18.994,-44.72966667,0.0,2019-12-05T23:48:59.347147Z,2019-12-05T23:48:36.679999Z,2019-12-05T23:48:48.347147Z,2019-12-05T23:49:48.347147Z,earthquake,2.702045276,suspected,20191205T234836/BL_DIAM_20191205T234836.mseed,"['E', 'N', 'Z']",[]
20191205T234836,FABR,174,usp2019xvje,[],P,VL,,HHZ,-20.4192,-43.9133,179.48890188599776,-18.994,-44.72966667,0.0,2019-12-05T23:49:05.897157Z,2019-12-05T23:48:36.679999Z,2019-12-05T23:48:54.897157Z,2019-12-05T23:49:54.897157Z,earthquake,2.702045276,suspected,20191205T234836/VL_FABR_20191205T234836.mseed,"['1', '2', 'Z']",[]
20191205T234836,FJAO,177,usp2019xvje,[],P,VL,,HHZ,-20.1001,-44.1283,137.75016327987845,-18.994,-44.72966667,0.0,2019-12-05T23:48:59.545729Z,2019-12-05T23:48:36.679999Z,2019-12-05T23:48:48.545729Z,2019-12-05T23:49:48.545729Z,earthquake,2.702045276,suspected,20191205T234836/VL_FJAO_20191205T234836.mseed,"['Z', '1', '2']",[]
20191205T234836,GNG6,176,usp2019xvje,[],P,VL,,HHZ,-19.9698,-43.5929,160.96738082696328,-18.994,-44.72966667,0.0,2019-12-05T23:49:02.515728Z,2019-12-05T23:48:36.679999Z,2019-12-05T23:48:51.515728Z,2019-12-05T23:49:51.515728Z,earthquake,2.702045276,suspected,20191205T234836/VL_GNG6_20191205T234836.mseed,"['1', '2', 'Z']",[]
20191205T234836,IPMB,168,usp2019xvje,[],P,BR,,HHZ,-17.982956,-48.211734,384.3787994573235,-18.994,-44.72966667,0.0,2019-12-05T23:49:30.898561Z,2019-12-05T23:48:36.679999Z,2019-12-05T23:49:19.898561Z,2019-12-05T23:50:19.898561Z,earthquake,2.702045276,suspected,20191205T234836/BR_IPMB_20191205T234836.mseed,"['E', 'N', 'Z']",[]
20191205T234836,PMNB,173,usp2019xvje,[],P,BL,,HHZ,-18.54,-46.44,187.20333249209588,-18.994,-44.72966667,0.0,2019-12-05T23:49:06.611421Z,2019-12-05T23:48:36.679999Z,2019-12-05T23:48:55.611421Z,2019-12-05T23:49:55.611421Z,earthquake,2.702045276,suspected,20191205T234836/BL_PMNB_20191205T234836.mseed,"['E', 'N', 'Z']",[]
20191205T234836,SJMB,170,usp2019xvje,[],P,BL,,HHZ,-18.702916,-41.184694,374.97397195710647,-18.994,-44.72966667,0.0,2019-12-05T23:49:30.405376Z,2019-12-05T23:48:36.679999Z,2019-12-05T23:49:19.405376Z,2019-12-05T23:50:19.405376Z,earthquake,2.702045276,suspected,20191205T234836/BL_SJMB_20191205T234836.mseed,"['E', 'N', 'Z']",[]
20191205T234836,VAS01,167,usp2019xvje,[],P,ON,,HHZ,-22.280081,-43.442624,387.7411561058621,-18.994,-44.72966667,0.0,2019-12-05T23:49:31.228216Z,2019-12-05T23:48:36.679999Z,2019-12-05T23:49:20.228216Z,2019-12-05T23:50:20.228216Z,earthquake,2.702045276,suspected,20191205T234836/ON_VAS01_20191205T234836.mseed,"['E', 'N', 'Z']",[]
20200114T231900,BSCB,43,usp2020aznr,[],P,BL,,HHZ,-20.9984,-44.7635,395.1138258839687,-24.489,-43.96683333,0.0,2020-01-14T23:19:56.466878Z,2020-01-14T23:19:00.500000Z,2020-01-14T23:19:45.466878Z,2020-01-14T23:20:45.466878Z,earthquake,2.65089906,suspected,20200114T231900/BL_BSCB_20200114T231900.mseed,"['Z', 'N', 'E']",[]
20200114T231900,CAM01,44,usp2020aznr,[],P,ON,,HHZ,-21.825656,-41.657401,378.0360944423371,-24.489,-43.96683333,0.0,2020-01-14T23:19:54.651813Z,2020-01-14T23:19:00.500000Z,2020-01-14T23:19:43.651813Z,2020-01-14T23:20:43.651813Z,earthquake,2.65089906,suspected,20200114T231900/ON_CAM01_20200114T231900.mseed,"['Z', '1', '2']",[]
20200114T231900,DUB01,47,usp2020aznr,[],P,ON,,HHZ,-22.080966,-42.374182,312.5114900953259,-24.489,-43.96683333,0.0,2020-01-14T23:19:46.478675Z,2020-01-14T23:19:00.500000Z,2020-01-14T23:19:35.478675Z,2020-01-14T23:20:35.478675Z,earthquake,2.65089906,suspected,20200114T231900/ON_DUB01_20200114T231900.mseed,"['E', 'N', 'Z']",[]
20200114T231900,PARB,48,usp2020aznr,[],P,BL,,HHZ,-23.3421,-45.6246,211.24475245126308,-24.489,-43.96683333,0.0,2020-01-14T23:19:33.959327Z,2020-01-14T23:19:00.500000Z,2020-01-14T23:19:22.959327Z,2020-01-14T23:20:22.959327Z,earthquake,2.65089906,suspected,20200114T231900/BL_PARB_20200114T231900.mseed,"['E', 'N', 'Z']",[]
20200114T231900,PET01,46,usp2020aznr,[],P,ON,,HHZ,-24.290108,-47.275344,336.3397375950416,-24.489,-43.96683333,0.0,2020-01-14T23:19:48.975661Z,2020-01-14T23:19:00.500000Z,2020-01-14T23:19:37.975661Z,2020-01-14T23:20:37.975661Z,earthquake,2.65089906,suspected,20200114T231900/ON_PET01_20200114T231900.mseed,"['E', 'N', 'Z']",[]
20200114T231900,VABB,45,usp2020aznr,[],P,BL,,HHZ,-23.0021,-46.9657,347.2509037256403,-24.489,-43.96683333,0.0,2020-01-14T23:19:50.683385Z,2020-01-14T23:19:00.500000Z,2020-01-14T23:19:39.683385Z,2020-01-14T23:20:39.683385Z,earthquake,2.65089906,suspected,20200114T231900/BL_VABB_20200114T231900.mseed,"['E', 'N', 'Z']",[]
20200315T183339,SGC2,155,usp2020fgpz,[],P,BR,,HHZ,-0.1514,-66.9776,230.2000727704023,0.5467396379,-68.92580414,14924.77894,2020-03-15T18:34:13.653991Z,2020-03-15T18:33:39.430591Z,2020-03-15T18:34:02.653991Z,2020-03-15T18:35:02.653991Z,earthquake,4.551711338,suspected,20200315T183339/BR_SGC2_20200315T183339.mseed,"['E', 'N', 'Z']",[]
20200416T165951,FRTB,83,usp2020hmyz,[],P,BL,,HHZ,-23.3439,-49.564,214.45951780751065,-24.72204971,-48.08306503,0.0,2020-04-16T17:00:25.847464Z,2020-04-16T16:59:51.887412Z,2020-04-16T17:00:14.847464Z,2020-04-16T17:01:14.847464Z,earthquake,2.127491606,known,20200416T165951/BL_FRTB_20200416T165951.mseed,"['E', 'N', 'Z']",[]
20200416T165951,PARB,80,usp2020hmyz,[],P,BL,,HHZ,-23.3421,-45.6246,293.086470521313,-24.72204971,-48.08306503,0.0,2020-04-16T17:00:35.493076Z,2020-04-16T16:59:51.887412Z,2020-04-16T17:00:24.493076Z,2020-04-16T17:01:24.493076Z,earthquake,2.127491606,known,20200416T165951/BL_PARB_20200416T165951.mseed,"['E', 'N', 'Z']",[' Sampling rate is 200.0']
20200416T165951,PET01,85,usp2020hmyz,[],P,ON,,HHZ,-24.290108,-47.275344,94.81806622115342,-24.72204971,-48.08306503,0.0,2020-04-16T17:00:08.339393Z,2020-04-16T16:59:51.887412Z,2020-04-16T16:59:57.339393Z,2020-04-16T17:00:57.339393Z,earthquake,2.127491606,known,20200416T165951/ON_PET01_20200416T165951.mseed,"['E', 'N', 'Z']",[]
20200416T165951,RCLB,81,usp2020hmyz,[],P,BL,,HHZ,-22.4191,-47.531,261.20776588197754,-24.72204971,-48.08306503,0.0,2020-04-16T17:00:31.612660Z,2020-04-16T16:59:51.887412Z,2020-04-16T17:00:20.612660Z,2020-04-16T17:01:20.612660Z,earthquake,2.127491606,known,20200416T165951/BL_RCLB_20200416T165951.mseed,"['E', 'N', 'Z']",[]
20200416T165951,TIJ01,84,usp2020hmyz,[],P,ON,,HHZ,-25.908848,-49.024241,162.0645082520007,-24.72204971,-48.08306503,0.0,2020-04-16T17:00:18.491398Z,2020-04-16T16:59:51.887412Z,2020-04-16T17:00:07.491398Z,2020-04-16T17:01:07.491398Z,earthquake,2.127491606,known,20200416T165951/ON_TIJ01_20200416T165951.mseed,"['E', 'N', 'Z']",[]
20200416T165951,VABB,82,usp2020hmyz,[],P,BL,,HHZ,-23.0021,-46.9657,221.90227628958348,-24.72204971,-48.08306503,0.0,2020-04-16T17:00:26.706702Z,2020-04-16T16:59:51.887412Z,2020-04-16T17:00:15.706702Z,2020-04-16T17:01:15.706702Z,earthquake,2.127491606,known,20200416T165951/BL_VABB_20200416T165951.mseed,"['E', 'N', 'Z']",[]
20200418T015540,FRTB,104,usp2020hpmd,[],P,BL,,HHZ,-23.3439,-49.564,251.63874142304223,-23.59355545,-47.11582184,0.0,2020-04-18T01:56:19.067004Z,2020-04-18T01:55:40.830508Z,2020-04-18T01:56:08.067004Z,2020-04-18T01:57:08.067004Z,earthquake,2.004648357,known,20200418T015540/BL_FRTB_20200418T015540.mseed,"['E', 'N', 'Z']",[]
20200418T015540,PARB,105,usp2020hpmd,[],P,BL,,HHZ,-23.3421,-45.6246,154.87540929473545,-23.59355545,-47.11582184,0.0,2020-04-18T01:56:06.487130Z,2020-04-18T01:55:40.830508Z,2020-04-18T01:55:55.487130Z,2020-04-18T01:56:55.487130Z,earthquake,2.004648357,known,20200418T015540/BL_PARB_20200418T015540.mseed,"['E', 'N', 'Z']",[' Sampling rate is 200.0']
20200418T015540,PET01,107,usp2020hpmd,[],P,ON,,HHZ,-24.290108,-47.275344,78.83885440226254,-23.59355545,-47.11582184,0.0,2020-04-18T01:55:54.766750Z,2020-04-18T01:55:40.830508Z,2020-04-18T01:55:43.766750Z,2020-04-18T01:56:43.766750Z,earthquake,2.004648357,known,20200418T015540/ON_PET01_20200418T015540.mseed,"['E', 'N', 'Z']",[]
20200418T015540,RCLB,106,usp2020hpmd,[],P,BL,,HHZ,-22.4191,-47.531,136.85092716487654,-23.59355545,-47.11582184,0.0,2020-04-18T01:56:04.622242Z,2020-04-18T01:55:40.830508Z,2020-04-18T01:55:53.622242Z,2020-04-18T01:56:53.622242Z,earthquake,2.004648357,known,20200418T015540/BL_RCLB_20200418T015540.mseed,"['E', 'N', 'Z']",[]
20200418T015540,VABB,108,usp2020hpmd,[],P,BL,,HHZ,-23.0021,-46.9657,67.27871177750055,-23.59355545,-47.11582184,0.0,2020-04-18T01:55:53.210418Z,2020-04-18T01:55:40.830508Z,2020-04-18T01:55:42.210418Z,2020-04-18T01:56:42.210418Z,earthquake,2.004648357,known,20200418T015540/BL_VABB_20200418T015540.mseed,"['E', 'N', 'Z']",[]
20200607T231013,BB19B,92,usp2020leli,[],P,BL,,HHZ,-21.0662,-48.5279,42.009994034953614,-21.06053352,-48.93208313,0.0,2020-06-07T23:10:21.002681Z,2020-06-07T23:10:13.433092Z,2020-06-07T23:10:10.002681Z,2020-06-07T23:11:10.002681Z,earthquake,2.134238253,suspected,20200607T231013/BL_BB19B_20200607T231013.mseed,"['E', 'N', 'Z']",[]
20200607T231013,CANS,89,usp2020leli,[],P,BL,,HHZ,-20.2896,-46.3921,278.0681357521583,-21.06053352,-48.93208313,0.0,2020-06-07T23:10:55.258720Z,2020-06-07T23:10:13.433092Z,2020-06-07T23:10:44.258720Z,2020-06-07T23:11:44.258720Z,earthquake,2.134238253,suspected,20200607T231013/BL_CANS_20200607T231013.mseed,"['E', 'N', 'Z']",[]
20200607T231013,IPMB,87,usp2020leli,[],P,BR,,HHZ,-17.982956,-48.211734,348.96967178696843,-21.06053352,-48.93208313,0.0,2020-06-07T23:11:04.134109Z,2020-06-07T23:10:13.433092Z,2020-06-07T23:10:53.134109Z,2020-06-07T23:11:53.134109Z,earthquake,2.134238253,suspected,20200607T231013/BR_IPMB_20200607T231013.mseed,"['E', 'N', 'Z']",[]
20200607T231013,RCLB,90,usp2020leli,[],P,BL,,HHZ,-22.4191,-47.531,208.8910907517933,-21.06053352,-48.93208313,0.0,2020-06-07T23:10:46.636741Z,2020-06-07T23:10:13.433092Z,2020-06-07T23:10:35.636741Z,2020-06-07T23:11:35.636741Z,earthquake,2.134238253,suspected,20200607T231013/BL_RCLB_20200607T231013.mseed,"['E', 'N', 'Z']",[]
20200607T231013,TQJ3B,91,usp2020leli,[],P,BX,,HHZ,-21.37382,-48.5607,51.86333274739552,-21.06053352,-48.93208313,0.0,2020-06-07T23:10:22.397993Z,2020-06-07T23:10:13.433092Z,2020-06-07T23:10:11.397993Z,2020-06-07T23:11:11.397993Z,earthquake,2.134238253,suspected,20200607T231013/BX_TQJ3B_20200607T231013.mseed,"['Z', 'N', 'E']",[' Sampling rate is 200.0']
20200607T231013,VABB,88,usp2020leli,[],P,BL,,HHZ,-23.0021,-46.9657,295.68081237857854,-21.06053352,-48.93208313,0.0,2020-06-07T23:10:57.256950Z,2020-06-07T23:10:13.433092Z,2020-06-07T23:10:46.256950Z,2020-06-07T23:11:46.256950Z,earthquake,2.134238253,suspected,20200607T231013/BL_VABB_20200607T231013.mseed,"['E', 'N', 'Z']",[]
20200830T104430,CMC01,130,usp2020raza,[],P,ON,,HHZ,-15.360055,-39.519089,255.4581933541654,-13.05133333,-39.49083333,1000.0,2020-08-30T10:45:09.450244Z,2020-08-30T10:44:30.149999Z,2020-08-30T10:44:58.450244Z,2020-08-30T10:45:58.450244Z,earthquake,4.157870951,known,20200830T104430/ON_CMC01_20200830T104430.mseed,"['Z', '1', '2']",[]
20200830T104430,GUA01,129,usp2020raza,[],P,ON,,HHZ,-16.58349,-39.805342,392.286356705912,-13.05133333,-39.49083333,1000.0,2020-08-30T10:45:27.869889Z,2020-08-30T10:44:30.149999Z,2020-08-30T10:45:16.869889Z,2020-08-30T10:46:16.869889Z,earthquake,4.157870951,known,20200830T104430/ON_GUA01_20200830T104430.mseed,"['E', 'N', 'Z']",[]
20200830T104430,NBIT,132,usp2020raza,[],P,NB,,HHZ,-14.930689,-39.434579,208.019385066406,-13.05133333,-39.49083333,1000.0,2020-08-30T10:45:03.436183Z,2020-08-30T10:44:30.149999Z,2020-08-30T10:44:52.436183Z,2020-08-30T10:45:52.436183Z,earthquake,4.157870951,known,20200830T104430/NB_NBIT_20200830T104430.mseed,"['E', 'N', 'Z']",[]
20200830T104430,NBPN,131,usp2020raza,[],P,NB,,HHZ,-10.847009,-40.198957,255.75303676545613,-13.05133333,-39.49083333,1000.0,2020-08-30T10:45:09.973521Z,2020-08-30T10:44:30.149999Z,2020-08-30T10:44:58.973521Z,2020-08-30T10:45:58.973521Z,earthquake,4.157870951,known,20200830T104430/NB_NBPN_20200830T104430.mseed,"['E', 'N', 'Z']",[]
20200830T111807,CMC01,8,usp2020rbac,[],P,ON,,HHZ,-15.360055,-39.519089,260.9408197403863,-13.00246429,-39.58411407,0.0,2020-08-30T11:18:47.594948Z,2020-08-30T11:18:07.108883Z,2020-08-30T11:18:36.594948Z,2020-08-30T11:19:36.594948Z,earthquake,3.686849636,known,20200830T111807/ON_CMC01_20200830T111807.mseed,"['Z', '1', '2']",[]
20200830T111807,GUA01,7,usp2020rbac,[],P,ON,,HHZ,-16.58349,-39.805342,396.9446264075344,-13.00246429,-39.58411407,0.0,2020-08-30T11:19:03.906642Z,2020-08-30T11:18:07.108883Z,2020-08-30T11:18:52.906642Z,2020-08-30T11:19:52.906642Z,earthquake,3.686849636,known,20200830T111807/ON_GUA01_20200830T111807.mseed,"['E', 'N', 'Z']",[]
20200830T111807,NBIT,10,usp2020rbac,[],P,NB,,HHZ,-14.930689,-39.434579,213.94790350307656,-13.00246429,-39.58411407,0.0,2020-08-30T11:18:40.792286Z,2020-08-30T11:18:07.108883Z,2020-08-30T11:18:29.792286Z,2020-08-30T11:19:29.792286Z,earthquake,3.686849636,known,20200830T111807/NB_NBIT_20200830T111807.mseed,"['E', 'N', 'Z']",[]
20200830T111807,NBPN,9,usp2020rbac,[],P,NB,,HHZ,-10.847009,-40.198957,247.66726672308667,-13.00246429,-39.58411407,0.0,2020-08-30T11:18:45.085697Z,2020-08-30T11:18:07.108883Z,2020-08-30T11:18:34.085697Z,2020-08-30T11:19:34.085697Z,earthquake,3.686849636,known,20200830T111807/NB_NBPN_20200830T111807.mseed,"['E', 'N', 'Z']",[]
20200925T194337,ARAG,33,usp2020sxdw,[],P,BR,,HHZ,-15.706,-51.812,213.2938389452325,-16.96948624,-53.31947327,0.0,2020-09-25T19:44:11.503890Z,2020-09-25T19:43:37.660984Z,2020-09-25T19:44:00.503890Z,2020-09-25T19:45:00.503890Z,earthquake,2.380403737,suspected,20200925T194337/BR_ARAG_20200925T194337.mseed,"['E', 'N', 'Z']",[]
20200925T194337,C2SB,34,usp2020sxdw,[],P,BL,,HHZ,-18.7688,-52.8377,205.5870137928381,-16.96948624,-53.31947327,0.0,2020-09-25T19:44:10.271143Z,2020-09-25T19:43:37.660984Z,2020-09-25T19:43:59.271143Z,2020-09-25T19:44:59.271143Z,earthquake,2.380403737,suspected,20200925T194337/BL_C2SB_20200925T194337.mseed,"['E', 'N', 'Z']",[]
20200925T194337,PP1B,35,usp2020sxdw,[],P,BL,,HHZ,-17.6003,-54.8796,179.9696202743478,-16.96948624,-53.31947327,0.0,2020-09-25T19:44:06.799635Z,2020-09-25T19:43:37.660984Z,2020-09-25T19:43:55.799635Z,2020-09-25T19:44:55.799635Z,earthquake,2.380403737,suspected,20200925T194337/BL_PP1B_20200925T194337.mseed,"['Z', 'N', 'E']",[]
20200925T194337,SALV,32,usp2020sxdw,[],P,BR,,HHZ,-15.90118,-55.69356,279.7530040183828,-16.96948624,-53.31947327,0.0,2020-09-25T19:44:19.515538Z,2020-09-25T19:43:37.660984Z,2020-09-25T19:44:08.515538Z,2020-09-25T19:45:08.515538Z,earthquake,2.380403737,suspected,20200925T194337/BR_SALV_20200925T194337.mseed,"['E', 'N', 'Z']",[]
20200929T202053,SDBA,186,usp2020tenc,[],P,BR,,HHZ,-12.4085,-44.903,262.2199533581383,-10.74054146,-46.6113472,0.0,2020-09-29T20:21:33.296405Z,2020-09-29T20:20:53.263431Z,2020-09-29T20:21:22.296405Z,2020-09-29T20:22:22.296405Z,earthquake,2.9799819,suspected,20200929T202053/BR_SDBA_20200929T202053.mseed,"['E', 'N', 'Z']",[]
20200929T202053,SMTB,187,usp2020tenc,[],P,BR,,HHZ,-8.8617,-47.5886,233.8348485251562,-10.74054146,-46.6113472,0.0,2020-09-29T20:21:29.636272Z,2020-09-29T20:20:53.263431Z,2020-09-29T20:21:18.636272Z,2020-09-29T20:22:18.636272Z,earthquake,2.9799819,suspected,20200929T202053/BR_SMTB_20200929T202053.mseed,"['E', 'N', 'Z']",[]
20201015T145615,NBMO,206,usp2020uhil,[],P,NB,,HHZ,-3.310348,-40.042927,78.86922327114942,-3.545318365,-40.71306229,0.0,2020-10-15T14:56:28.825759Z,2020-10-15T14:56:15.270920Z,2020-10-15T14:56:17.825759Z,2020-10-15T14:57:17.825759Z,earthquake,2.060342019,known,20201015T145615/NB_NBMO_20201015T145615.mseed,"['E', 'N', 'Z']",[]
20201015T145615,NBPS,205,usp2020uhil,[],P,NB,,HHZ,-4.393969,-41.445618,124.19680805831756,-3.545318365,-40.71306229,0.0,2020-10-15T14:56:36.462897Z,2020-10-15T14:56:15.270920Z,2020-10-15T14:56:25.462897Z,2020-10-15T14:57:25.462897Z,earthquake,2.060342019,known,20201015T145615/NB_NBPS_20201015T145615.mseed,"['E', 'N', 'Z']",[]
20210207T154000,NBMA,64,usp2021cquq,[],P,NB,,HHZ,-7.365352,-38.764058,361.9377381488838,-4.134428024,-38.24222565,0.0,2021-02-07T15:40:53.056790Z,2021-02-07T15:40:00.862947Z,2021-02-07T15:40:42.056790Z,2021-02-07T15:41:42.056790Z,earthquake,1.848470441,known,20210207T154000/NB_NBMA_20210207T154000.mseed,"['E', 'N', 'Z']",[]
20210207T154000,NBMO,63,usp2021cquq,[],P,NB,,HHZ,-3.310348,-40.042927,219.81006062934904,-4.134428024,-38.24222565,0.0,2021-02-07T15:40:35.459336Z,2021-02-07T15:40:00.862947Z,2021-02-07T15:40:24.459336Z,2021-02-07T15:41:24.459336Z,earthquake,1.848470441,known,20210207T154000/NB_NBMO_20210207T154000.mseed,"['E', 'N', 'Z']",[]
20210207T154000,NBPA,62,usp2021cquq,[],P,NB,,HHZ,-5.75028,-37.112047,218.263564436758,-4.134428024,-38.24222565,0.0,2021-02-07T15:40:35.253622Z,2021-02-07T15:40:00.862947Z,2021-02-07T15:40:24.253622Z,2021-02-07T15:41:24.253622Z,earthquake,1.848470441,known,20210207T154000/NB_NBPA_20210207T154000.mseed,"['E', 'N', 'Z']",[]
20210317T013835,BB19B,199,usp2021fhdz,[],P,BL,,HHZ,-21.0662,-48.5279,164.32973108063385,-21.92516667,-49.82116667,0.0,2021-03-17T01:39:01.645551Z,2021-03-17T01:38:35.020000Z,2021-03-17T01:38:50.645551Z,2021-03-17T01:39:50.645551Z,earthquake,3.005249203,known,20210317T013835/BL_BB19B_20210317T013835.mseed,"['E', 'N', 'Z']",[]
20210317T013835,CANS,195,usp2021fhdz,[],P,BL,,HHZ,-20.2896,-46.3921,399.6256253905872,-21.92516667,-49.82116667,0.0,2021-03-17T01:39:30.547605Z,2021-03-17T01:38:35.020000Z,2021-03-17T01:39:19.547605Z,2021-03-17T01:40:19.547605Z,earthquake,3.005249203,known,20210317T013835/BL_CANS_20210317T013835.mseed,"['E', 'N', 'Z']",[]
20210317T013835,PCMB,200,usp2021fhdz,[],P,BL,,HHZ,-21.6074,-51.2619,153.11258753407546,-21.92516667,-49.82116667,0.0,2021-03-17T01:38:59.990305Z,2021-03-17T01:38:35.020000Z,2021-03-17T01:38:48.990305Z,2021-03-17T01:39:48.990305Z,earthquake,3.005249203,known,20210317T013835/BL_PCMB_20210317T013835.mseed,"['E', 'N', 'Z']",[]
20210317T013835,PET01,197,usp2021fhdz,[],P,ON,,HHZ,-24.290108,-47.275344,369.5856614011034,-21.92516667,-49.82116667,0.0,2021-03-17T01:39:27.443684Z,2021-03-17T01:38:35.020000Z,2021-03-17T01:39:16.443684Z,2021-03-17T01:40:16.443684Z,earthquake,3.005249203,known,20210317T013835/ON_PET01_20210317T013835.mseed,"['E', 'N', 'Z']",[]
20210317T013835,PTGB,196,usp2021fhdz,[],P,BL,,HHZ,-24.72095,-52.01182,382.1698292187232,-21.92516667,-49.82116667,0.0,2021-03-17T01:39:28.483792Z,2021-03-17T01:38:35.020000Z,2021-03-17T01:39:17.483792Z,2021-03-17T01:40:17.483792Z,earthquake,3.005249203,known,20210317T013835/BL_PTGB_20210317T013835.mseed,"['E', 'N', 'Z']",[]
20210317T013835,VABB,198,usp2021fhdz,[],P,BL,,HHZ,-23.0021,-46.9657,317.15761334256734,-21.92516667,-49.82116667,0.0,2021-03-17T01:39:21.039882Z,2021-03-17T01:38:35.020000Z,2021-03-17T01:39:10.039882Z,2021-03-17T01:40:10.039882Z,earthquake,3.005249203,known,20210317T013835/BL_VABB_20210317T013835.mseed,"['E', 'N', 'Z']",[]
20210327T213536,NBMO,67,usp2021gayn,[],P,NB,,HHZ,-3.310348,-40.042927,398.1086061641122,-5.870241642,-37.52006912,0.0,2021-03-27T21:36:32.728568Z,2021-03-27T21:35:36.414292Z,2021-03-27T21:36:21.728568Z,2021-03-27T21:37:21.728568Z,earthquake,2.490423531,known,20210327T213536/NB_NBMO_20210327T213536.mseed,"['E', 'N', 'Z']",[]
20210327T213536,NBPA,69,usp2021gayn,[],P,NB,,HHZ,-5.75028,-37.112047,47.09601238240781,-5.870241642,-37.52006912,0.0,2021-03-27T21:35:44.870679Z,2021-03-27T21:35:36.414292Z,2021-03-27T21:35:33.870679Z,2021-03-27T21:36:33.870679Z,earthquake,2.490423531,known,20210327T213536/NB_NBPA_20210327T213536.mseed,"['E', 'N', 'Z']",[]
20210403T144101,BOAV,51,usp2021gnfj,[],P,BR,,HHZ,2.3953,-60.5225,116.17002632578183,2.700666667,-59.523,0.0,2021-04-03T14:41:19.786527Z,2021-04-03T14:41:01.080000Z,2021-04-03T14:41:08.786527Z,2021-04-03T14:42:08.786527Z,earthquake,4.151803025,suspected,20210403T144101/BR_BOAV_20210403T144101.mseed,"['1', '2', 'Z']",[]
20210403T144101,GUY1,54,usp2021gnfj,[],P,XV,,HHZ,2.79532,-59.54006,10.636977119065747,2.700666667,-59.523,0.0,2021-04-03T14:41:02.835628Z,2021-04-03T14:41:01.080000Z,2021-04-03T14:40:51.835628Z,2021-04-03T14:41:51.835628Z,earthquake,4.151803025,suspected,20210403T144101/XV_GUY1_20210403T144101.mseed,"['1', '2', 'Z']",[]
20210403T144101,GUY2,53,usp2021gnfj,[],P,XV,,HHZ,2.6527,-59.62017,12.036799398427174,2.700666667,-59.523,0.0,2021-04-03T14:41:03.051196Z,2021-04-03T14:41:01.080000Z,2021-04-03T14:40:52.051196Z,2021-04-03T14:41:52.051196Z,earthquake,4.151803025,suspected,20210403T144101/XV_GUY2_20210403T144101.mseed,"['1', '2', 'Z']",[]
20210403T144101,GUY3,52,usp2021gnfj,[],P,XV,,HHZ,2.638405,-59.432881,12.15825308989874,2.700666667,-59.523,0.0,2021-04-03T14:41:03.060521Z,2021-04-03T14:41:01.080000Z,2021-04-03T14:40:52.060521Z,2021-04-03T14:41:52.060521Z,earthquake,4.151803025,suspected,20210403T144101/XV_GUY3_20210403T144101.mseed,"['Z', '1', '2']",[' Sampling rate is 200.0']
20210403T144101,GUY4,55,usp2021gnfj,[],P,XV,,HHZ,2.701044,-59.498237,2.7538790026007662,2.700666667,-59.523,0.0,2021-04-03T14:41:01.484265Z,2021-04-03T14:41:01.080000Z,2021-04-03T14:40:50.484265Z,2021-04-03T14:41:50.484265Z,earthquake,4.151803025,suspected,20210403T144101/XV_GUY4_20210403T144101.mseed,"['1', '2', 'Z']",[' Sampling rate is 200.0']
20210509T002222,DIAM,211,usp2021izxd,[],P,BL,,HHZ,-18.2952,-43.6648,258.41485343076374,-15.99998188,-43.21845627,0.0,2021-05-09T00:23:02.085752Z,2021-05-09T00:22:22.732477Z,2021-05-09T00:22:51.085752Z,2021-05-09T00:23:51.085752Z,earthquake,2.848890706,known,20210509T002222/BL_DIAM_20210509T002222.mseed,"['E', 'N', 'Z']",[]
20210509T002222,SJMB,210,usp2021izxd,[],P,BL,,HHZ,-18.702916,-41.184694,369.052109794533,-15.99998188,-43.21845627,0.0,2021-05-09T00:23:15.879191Z,2021-05-09T00:22:22.732477Z,2021-05-09T00:23:04.879191Z,2021-05-09T00:24:04.879191Z,earthquake,2.848890706,known,20210509T002222/BL_SJMB_20210509T002222.mseed,"['E', 'N', 'Z']",[]
20210610T014044,NBPN,111,usp2021lglv,[],P,NB,,HHZ,-10.847009,-40.198957,51.33347595387962,-11.1907,-40.5146,0.0,2021-06-10T01:40:52.241794Z,2021-06-10T01:40:44.000000Z,2021-06-10T01:40:41.241794Z,2021-06-10T01:41:41.241794Z,earthquake,1.255653144,known,20210610T014044/NB_NBPN_20210610T014044.mseed,"['E', 'N', 'Z']",[]
20210918T143309,NBMA,109,usp2021sidp,[],P,NB,,HHZ,-7.365352,-38.764058,392.18527944339553,-6.800964355,-35.25930786,0.0,2021-09-18T14:34:05.842852Z,2021-09-18T14:33:09.910487Z,2021-09-18T14:33:54.842852Z,2021-09-18T14:34:54.842852Z,earthquake,2.032556603,known,20210918T143309/NB_NBMA_20210918T143309.mseed,"['E', 'N', 'Z']",[]
20210918T143309,NBPA,110,usp2021sidp,[],P,NB,,HHZ,-5.75028,-37.112047,235.65219783747244,-6.800964355,-35.25930786,0.0,2021-09-18T14:33:46.479998Z,2021-09-18T14:33:09.910487Z,2021-09-18T14:33:35.479998Z,2021-09-18T14:34:35.479998Z,earthquake,2.032556603,known,20210918T143309/NB_NBPA_20210918T143309.mseed,"['E', 'N', 'Z']",[]
20220115T063206,CANS,29,usp2022babz,[],P,BL,,HHZ,-20.2896,-46.3921,253.90061517215705,-21.08945084,-48.67615891,0.0,2022-01-15T06:32:45.659896Z,2022-01-15T06:32:06.921709Z,2022-01-15T06:32:34.659896Z,2022-01-15T06:33:34.659896Z,earthquake,2.033963173,suspected,20220115T063206/BL_CANS_20220115T063206.mseed,"['E', 'N', 'Z']",[]
20220115T063206,FRTB,30,usp2022babz,[],P,BL,,HHZ,-23.3439,-49.564,265.8936810905831,-21.08945084,-48.67615891,0.0,2022-01-15T06:32:47.490127Z,2022-01-15T06:32:06.921709Z,2022-01-15T06:32:36.490127Z,2022-01-15T06:33:36.490127Z,earthquake,2.033963173,suspected,20220115T063206/BL_FRTB_20220115T063206.mseed,"['E', 'N', 'Z']",[]
20220115T063206,ITRB,28,usp2022babz,[],P,BL,,HHZ,-19.7042,-50.359,233.18020346756128,-21.08945084,-48.67615891,0.0,2022-01-15T06:32:43.244048Z,2022-01-15T06:32:06.921709Z,2022-01-15T06:32:32.244048Z,2022-01-15T06:33:32.244048Z,earthquake,2.033963173,suspected,20220115T063206/BL_ITRB_20220115T063206.mseed,"['E', 'N', 'Z']",[]
20220115T063206,VABB,31,usp2022babz,[],P,BL,,HHZ,-23.0021,-46.9657,275.7294591452129,-21.08945084,-48.67615891,0.0,2022-01-15T06:32:48.382482Z,2022-01-15T06:32:06.921709Z,2022-01-15T06:32:37.382482Z,2022-01-15T06:33:37.382482Z,earthquake,2.033963173,suspected,20220115T063206/BL_VABB_20220115T063206.mseed,"['E', 'N', 'Z']",[]
20220131T044408,CMC01,154,usp2022cdem,[],P,ON,,HHZ,-15.360055,-39.519089,249.97652049821605,-13.10505772,-39.37559128,0.0,2022-01-31T04:44:46.944252Z,2022-01-31T04:44:08.589355Z,2022-01-31T04:44:35.944252Z,2022-01-31T04:45:35.944252Z,earthquake,1.634436664,known,20220131T044408/ON_CMC01_20220131T044408.mseed,"['Z', '1', '2']",[]
20220131T044408,NBPN,153,usp2022cdem,[],P,NB,,HHZ,-10.847009,-40.198957,265.39705371002776,-13.10505772,-39.37559128,0.0,2022-01-31T04:44:48.825792Z,2022-01-31T04:44:08.589355Z,2022-01-31T04:44:37.825792Z,2022-01-31T04:45:37.825792Z,earthquake,1.634436664,known,20220131T044408/NB_NBPN_20220131T044408.mseed,"['E', 'N', 'Z']",[]
20220413T074411,FRTB,141,usp2022heyq,[],P,BL,,HHZ,-23.3439,-49.564,206.6803085160853,-25.19570732,-49.3135643,0.0,2022-04-13T07:44:44.412640Z,2022-04-13T07:44:11.707909Z,2022-04-13T07:44:33.412640Z,2022-04-13T07:45:33.412640Z,earthquake,2.464091004,known,20220413T074411/BL_FRTB_20220413T074411.mseed,"['E', 'N', 'Z']",[]
20220413T074411,ITAB,137,usp2022heyq,[],P,BL,,HHZ,-27.2349,-52.1313,360.9943275249411,-25.19570732,-49.3135643,0.0,2022-04-13T07:45:04.046990Z,2022-04-13T07:44:11.707909Z,2022-04-13T07:44:53.046990Z,2022-04-13T07:45:53.046990Z,earthquake,2.464091004,known,20220413T074411/BL_ITAB_20220413T074411.mseed,"['E', 'N', 'Z']",[]
20220413T074411,LDASE,139,usp2022heyq,[],P,BX,,HHZ,-23.3932,-51.1177,270.9255950707992,-25.19570732,-49.3135643,0.0,2022-04-13T07:44:52.761068Z,2022-04-13T07:44:11.707909Z,2022-04-13T07:44:41.761068Z,2022-04-13T07:45:41.761068Z,earthquake,2.464091004,known,20220413T074411/BX_LDASE_20220413T074411.mseed,"['E', 'Z', 'N']",[' Sampling rate is 200.0']
20220413T074411,PET01,140,usp2022heyq,[],P,ON,,HHZ,-24.290108,-47.275344,229.28680647667792,-25.19570732,-49.3135643,0.0,2022-04-13T07:44:47.627545Z,2022-04-13T07:44:11.707909Z,2022-04-13T07:44:36.627545Z,2022-04-13T07:45:36.627545Z,earthquake,2.464091004,known,20220413T074411/ON_PET01_20220413T074411.mseed,"['E', 'N', 'Z']",[]
20220413T074411,PTGB,138,usp2022heyq,[],P,BL,,HHZ,-24.72095,-52.01182,277.5039280697786,-25.19570732,-49.3135643,0.0,2022-04-13T07:44:53.597301Z,2022-04-13T07:44:11.707909Z,2022-04-13T07:44:42.597301Z,2022-04-13T07:45:42.597301Z,earthquake,2.464091004,known,20220413T074411/BL_PTGB_20220413T074411.mseed,"['E', 'N', 'Z']",[]
20220518T072049,PTLB,128,usp2022jqwm,[],P,BR,,HHZ,-15.44874,-59.13676,110.89735909722054,-16.449049,-59.19971085,0.0,2022-05-18T07:21:08.860554Z,2022-05-18T07:20:49.767573Z,2022-05-18T07:20:57.860554Z,2022-05-18T07:21:57.860554Z,earthquake,2.789807146,suspected,20220518T072049/BR_PTLB_20220518T072049.mseed,"['2', '1', 'Z']",[]
20220711T080939,BSCB,182,usp2022nlpg,[],P,BL,,HHZ,-20.9984,-44.7635,268.88959830032354,-18.65377617,-45.43397903,0.0,2022-07-11T08:10:20.101383Z,2022-07-11T08:09:39.463460Z,2022-07-11T08:10:09.101383Z,2022-07-11T08:11:09.101383Z,earthquake,1.809422908,suspected,20220711T080939/BL_BSCB_20220711T080939.mseed,"['Z', 'N', 'E']",[]
20220711T080939,CANS,183,usp2022nlpg,[],P,BL,,HHZ,-20.2896,-46.3921,207.14509832779868,-18.65377617,-45.43397903,0.0,2022-07-11T08:10:12.319073Z,2022-07-11T08:09:39.463460Z,2022-07-11T08:10:01.319073Z,2022-07-11T08:11:01.319073Z,earthquake,1.809422908,suspected,20220711T080939/BL_CANS_20220711T080939.mseed,"['E', 'N', 'Z']",[]
20220711T080939,DIAM,184,usp2022nlpg,[],P,BL,,HHZ,-18.2952,-43.6648,191.0248445338084,-18.65377617,-45.43397903,0.0,2022-07-11T08:10:10.164636Z,2022-07-11T08:09:39.463460Z,2022-07-11T08:09:59.164636Z,2022-07-11T08:10:59.164636Z,earthquake,1.809422908,suspected,20220711T080939/BL_DIAM_20220711T080939.mseed,"['E', 'N', 'Z']",[]
20220724T081708,CZSB,180,usp2022ojja,[],P,BR,,HHZ,-7.7299,-72.7049,200.49059263675392,-8.967534065,-71.37489319,613000.0,2022-07-24T08:18:23.661770Z,2022-07-24T08:17:08.163716Z,2022-07-24T08:18:12.661770Z,2022-07-24T08:19:12.661770Z,earthquake,4.420390587,known,20220724T081708/BR_CZSB_20220724T081708.mseed,"['E', 'N', 'Z']",[]
20221213T032627,NBLA,40,usp2022yikw,[],P,NB,,HHZ,-10.99255,-37.788972,264.59955364365595,-9.84998703,-39.91209793,0.0,2022-12-13T03:27:07.987175Z,2022-12-13T03:26:27.848673Z,2022-12-13T03:26:56.987175Z,2022-12-13T03:27:56.987175Z,earthquake,2.097140672,suspected,20221213T032627/NB_NBLA_20221213T032627.mseed,"['E', 'N', 'Z']",[]
20221213T032627,NBMA,39,usp2022yikw,[],P,NB,,HHZ,-7.365352,-38.764058,302.4582030883084,-9.84998703,-39.91209793,0.0,2022-12-13T03:27:12.705123Z,2022-12-13T03:26:27.848673Z,2022-12-13T03:27:01.705123Z,2022-12-13T03:28:01.705123Z,earthquake,2.097140672,suspected,20221213T032627/NB_NBMA_20221213T032627.mseed,"['E', 'N', 'Z']",[]
20221213T032627,NBPN,42,usp2022yikw,[],P,NB,,HHZ,-10.847009,-40.198957,114.6683894891254,-9.84998703,-39.91209793,0.0,2022-12-13T03:26:47.378206Z,2022-12-13T03:26:27.848673Z,2022-12-13T03:26:36.378206Z,2022-12-13T03:27:36.378206Z,earthquake,2.097140672,suspected,20221213T032627/NB_NBPN_20221213T032627.mseed,"['E', 'N', 'Z']",[]
20221213T032627,NBTA,41,usp2022yikw,[],P,NB,,HHZ,-9.121932,-38.063215,218.4060900266504,-9.84998703,-39.91209793,0.0,2022-12-13T03:27:02.294872Z,2022-12-13T03:26:27.848673Z,2022-12-13T03:26:51.294872Z,2022-12-13T03:27:51.294872Z,earthquake,2.097140672,suspected,20221213T032627/NB_NBTA_20221213T032627.mseed,"['E', 'N', 'Z']",[]
20230209T092620,NBCA,164,usp2023ctzh,[],P,NB,,HHZ,-8.225687,-36.013016,365.8128811148958,-5.037809849,-35.13003922,0.0,2023-02-09T09:27:13.064105Z,2023-02-09T09:26:20.375410Z,2023-02-09T09:27:02.064105Z,2023-02-09T09:28:02.064105Z,earthquake,2.225395244,known,20230209T092620/NB_NBCA_20230209T092620.mseed,"['E', 'N', 'Z']",[]
20230209T092620,NBCL,165,usp2023ctzh,[],P,NB,,HHZ,-4.224377,-38.291041,362.0874626298952,-5.037809849,-35.13003922,0.0,2023-02-09T09:27:12.562359Z,2023-02-09T09:26:20.375410Z,2023-02-09T09:27:01.562359Z,2023-02-09T09:28:01.562359Z,earthquake,2.225395244,known,20230209T092620/NB_NBCL_20230209T092620.mseed,"['E', 'N', 'Z']",[]
20230209T092620,NBLV,166,usp2023ctzh,[],P,NB,,HHZ,-7.357693,-36.921745,324.2416264605475,-5.037809849,-35.13003922,0.0,2023-02-09T09:27:08.179491Z,2023-02-09T09:26:20.375410Z,2023-02-09T09:26:57.179491Z,2023-02-09T09:27:57.179491Z,earthquake,2.225395244,known,20230209T092620/NB_NBLV_20230209T092620.mseed,"['E', 'N', 'Z']",[]
20230221T191629,GUA01,143,usp2023dqqu,[],P,ON,,HHZ,-16.58349,-39.805342,286.601877263974,-14.11268616,-39.0044899,0.0,2023-02-21T19:17:12.730809Z,2023-02-21T19:16:29.627007Z,2023-02-21T19:17:01.730809Z,2023-02-21T19:18:01.730809Z,earthquake,2.249090085,suspected,20230221T191629/ON_GUA01_20230221T191629.mseed,"['E', 'N', 'Z']",[]
20230221T191629,NBPN,142,usp2023dqqu,[],P,NB,,HHZ,-10.847009,-40.198957,383.88915913379446,-14.11268616,-39.0044899,0.0,2023-02-21T19:17:24.256450Z,2023-02-21T19:16:29.627007Z,2023-02-21T19:17:13.256450Z,2023-02-21T19:18:13.256450Z,earthquake,2.249090085,suspected,20230221T191629/NB_NBPN_20230221T191629.mseed,"['E', 'N', 'Z']",[]
20230227T180752,NBCL,215,usp2023ebno,[],P,NB,,HHZ,-4.224377,-38.291041,267.2780036647438,-3.807706356,-40.66188431,0.0,2023-02-27T18:08:33.468203Z,2023-02-27T18:07:52.987049Z,2023-02-27T18:08:22.468203Z,2023-02-27T18:09:22.468203Z,earthquake,1.881422465,suspected,20230227T180752/NB_NBCL_20230227T180752.mseed,"['E', 'N', 'Z']",[]
20230227T180752,NBMO,217,usp2023ebno,[],P,NB,,HHZ,-3.310348,-40.042927,88.05665004025829,-3.807706356,-40.66188431,0.0,2023-02-27T18:08:08.346153Z,2023-02-27T18:07:52.987049Z,2023-02-27T18:07:57.346153Z,2023-02-27T18:08:57.346153Z,earthquake,1.881422465,suspected,20230227T180752/NB_NBMO_20230227T180752.mseed,"['E', 'N', 'Z']",[]
20230227T180752,NBPB,216,usp2023ebno,[],P,NB,,HHZ,-5.543242,-39.583619,226.15082090266927,-3.807706356,-40.66188431,0.0,2023-02-27T18:08:28.347520Z,2023-02-27T18:07:52.987049Z,2023-02-27T18:08:17.347520Z,2023-02-27T18:09:17.347520Z,earthquake,1.881422465,suspected,20230227T180752/NB_NBPB_20230227T180752.mseed,"['E', 'N', 'Z']",[]
20230401T101337,GUA01,157,usp2023gjfn,[],P,ON,,HHZ,-16.58349,-39.805342,275.1861169900392,-14.09658527,-39.82030487,0.0,2023-04-01T10:14:19.358963Z,2023-04-01T10:13:37.835285Z,2023-04-01T10:14:08.358963Z,2023-04-01T10:15:08.358963Z,earthquake,2.094206188,known,20230401T101337/ON_GUA01_20230401T101337.mseed,"['E', 'N', 'Z']",[]
20230401T101337,NBPN,156,usp2023gjfn,[],P,NB,,HHZ,-10.847009,-40.198957,361.837056579092,-14.09658527,-39.82030487,0.0,2023-04-01T10:14:30.076908Z,2023-04-01T10:13:37.835285Z,2023-04-01T10:14:19.076908Z,2023-04-01T10:15:19.076908Z,earthquake,2.094206188,known,20230401T101337/NB_NBPN_20230401T101337.mseed,"['E', 'N', 'Z']",[]
20230405T182754,BB19B,112,usp2023grdv,[],P,BL,,HHZ,-21.0662,-48.5279,20.304438117075915,-21.24925423,-48.51612854,0.0,2023-04-05T18:27:58.086033Z,2023-04-05T18:27:54.784704Z,2023-04-05T18:27:47.086033Z,2023-04-05T18:28:47.086033Z,earthquake,2.265795573,known,20230405T182754/BL_BB19B_20230405T182754.mseed,"['E', 'N', 'Z']",[]
20230405T182754,CANS,113,usp2023grdv,[],P,BL,,HHZ,-20.2896,-46.3921,245.36469865705848,-21.24925423,-48.51612854,0.0,2023-04-05T18:28:32.860659Z,2023-04-05T18:27:54.784704Z,2023-04-05T18:28:21.860659Z,2023-04-05T18:29:21.860659Z,earthquake,2.265795573,known,20230405T182754/BL_CANS_20230405T182754.mseed,"['E', 'N', 'Z']",[]
20230424T084101,NBMO,209,usp2023hzda,[],P,NB,,HHZ,-3.310348,-40.042927,144.52902946930132,-4.135433197,-39.0338707,0.0,2023-04-24T08:41:25.615299Z,2023-04-24T08:41:01.628383Z,2023-04-24T08:41:14.615299Z,2023-04-24T08:42:14.615299Z,earthquake,1.831382826,suspected,20230424T084101/NB_NBMO_20230424T084101.mseed,"['E', 'N', 'Z']",[]
20230424T084101,NBPB,208,usp2023hzda,[],P,NB,,HHZ,-5.543242,-39.583619,167.19548773153582,-4.135433197,-39.0338707,0.0,2023-04-24T08:41:29.307634Z,2023-04-24T08:41:01.628383Z,2023-04-24T08:41:18.307634Z,2023-04-24T08:42:18.307634Z,earthquake,1.831382826,suspected,20230424T084101/NB_NBPB_20230424T084101.mseed,"['E', 'N', 'Z']",[]
20230424T084101,NBPS,207,usp2023hzda,[],P,NB,,HHZ,-4.393969,-41.445618,269.25777907684807,-4.135433197,-39.0338707,0.0,2023-04-24T08:41:42.461423Z,2023-04-24T08:41:01.628383Z,2023-04-24T08:41:31.461423Z,2023-04-24T08:42:31.461423Z,earthquake,1.831382826,suspected,20230424T084101/NB_NBPS_20230424T084101.mseed,"['E', 'N', 'Z']",[]
20230424T230338,BB19B,185,usp2023iafm,[],P,BL,,HHZ,-21.0662,-48.5279,23.106418856416852,-21.27,-48.48,0.0,2023-04-24T23:03:41.996941Z,2023-04-24T23:03:38.000000Z,2023-04-24T23:03:30.996941Z,2023-04-24T23:04:30.996941Z,earthquake,1.003968515,known,20230424T230338/BL_BB19B_20230424T230338.mseed,"['E', 'N', 'Z']",[]
20230525T074348,NBPB,212,usp2023kdrt,[],P,NB,,HHZ,-5.543242,-39.583619,316.71069440073546,-2.974648952,-40.84575653,0.0,2023-05-25T07:44:35.574111Z,2023-05-25T07:43:48.994366Z,2023-05-25T07:44:24.574111Z,2023-05-25T07:45:24.574111Z,earthquake,1.933751592,known,20230525T074348/NB_NBPB_20230525T074348.mseed,"['E', 'N', 'Z']",[]
20230525T074348,NBPS,214,usp2023kdrt,[],P,NB,,HHZ,-4.393969,-41.445618,170.5076937146206,-2.974648952,-40.84575653,0.0,2023-05-25T07:44:16.782051Z,2023-05-25T07:43:48.994366Z,2023-05-25T07:44:05.782051Z,2023-05-25T07:45:05.782051Z,earthquake,1.933751592,known,20230525T074348/NB_NBPS_20230525T074348.mseed,"['E', 'N', 'Z']",[]
20240503T163044,DIAM,191,usp2024irzo,[],P,BL,,HHZ,-18.2952,-43.6648,150.10569405021153,-19.5905,-44.08666667,0.0,2024-05-03T16:31:09.504721Z,2024-05-03T16:30:44.170000Z,2024-05-03T16:30:58.504721Z,2024-05-03T16:31:58.504721Z,earthquake,2.54839941,suspected,20240503T163044/BL_DIAM_20240503T163044.mseed,"['E', 'N', 'Z']",[]
20240503T163044,FJAO,193,usp2024irzo,[],P,VL,,HHZ,-20.1001,-44.1283,56.58223887720579,-19.5905,-44.08666667,0.0,2024-05-03T16:30:53.817256Z,2024-05-03T16:30:44.170000Z,2024-05-03T16:30:42.817256Z,2024-05-03T16:31:42.817256Z,earthquake,2.54839941,suspected,20240503T163044/VL_FJAO_20240503T163044.mseed,"['Z', '1', '2']",[]
20240503T163044,GNG4,192,usp2024irzo,[],P,VL,,HHZ,-19.9724,-43.6034,65.96911336677059,-19.5905,-44.08666667,0.0,2024-05-03T16:30:55.391376Z,2024-05-03T16:30:44.170000Z,2024-05-03T16:30:44.391376Z,2024-05-03T16:31:44.391376Z,earthquake,2.54839941,suspected,20240503T163044/VL_GNG4_20240503T163044.mseed,"['2', '1', 'Z']",[]
20240503T163044,PRMB,194,usp2024irzo,[],P,BL,,HHZ,-19.4566,-44.1487,16.189470798491485,-19.5905,-44.08666667,0.0,2024-05-03T16:30:47.313819Z,2024-05-03T16:30:44.170000Z,2024-05-03T16:30:36.313819Z,2024-05-03T16:31:36.313819Z,earthquake,2.54839941,suspected,20240503T163044/BL_PRMB_20240503T163044.mseed,"['E', 'N', 'Z']",[]
20240620T203807,BB19B,163,usp2024mbzw,[],P,BL,,HHZ,-21.0662,-48.5279,118.45049974736472,-20.02398682,-48.78466034,0.0,2024-06-20T20:38:28.231993Z,2024-06-20T20:38:07.939310Z,2024-06-20T20:38:17.231993Z,2024-06-20T20:39:17.231993Z,earthquake,2.039853121,known,20240620T203807/BL_BB19B_20240620T203807.mseed,"['E', 'N', 'Z']",[]
20240620T203807,CANS,161,usp2024mbzw,[],P,BL,,HHZ,-20.2896,-46.3921,251.84568813011532,-20.02398682,-48.78466034,0.0,2024-06-20T20:38:46.493135Z,2024-06-20T20:38:07.939310Z,2024-06-20T20:38:35.493135Z,2024-06-20T20:39:35.493135Z,earthquake,2.039853121,known,20240620T203807/BL_CANS_20240620T203807.mseed,"['E', 'N', 'Z']",[]
20240620T203807,IPMB,162,usp2024mbzw,[],P,BR,,HHZ,-17.982956,-48.211734,233.8397471275545,-20.02398682,-48.78466034,0.0,2024-06-20T20:38:44.293307Z,2024-06-20T20:38:07.939310Z,2024-06-20T20:38:33.293307Z,2024-06-20T20:39:33.293307Z,earthquake,2.039853121,known,20240620T203807/BR_IPMB_20240620T203807.mseed,"['E', 'N', 'Z']",[]
20240625T162156,SALTA,20,usp2024mkuy,[],P,GE,,HHZ,-24.2241,-66.34,278.98511678463296,-22.72389984,-68.53385925,105000.0,2024-06-25T16:22:36.940552Z,2024-06-25T16:21:56.769715Z,2024-06-25T16:22:25.940552Z,2024-06-25T16:23:25.940552Z,earthquake,4.397704054,known,20240625T162156/GE_SALTA_20240625T162156.mseed,"['Z', 'E', 'N']",[]
