Event,Station,index,EventID,Error,Pick,Network,Location,Channel,Latitude,Longitude,Distance,Origem Latitude,Origem Longitude,Depth/km,Pick Time,Origin Time,Start Time,End Time,Cat,MLv,Certainty,Path,Compo,Warning,Pick Pred,Pick Prob_Nat,Pick Prob_Ant,Pick Pred_final,Event Pred,Event Prob_Nat,Event Prob_Ant,Event Pred_final
20120423T092847,DUB01,320,usp2012hzep,[],P,ON,,HHZ,-22.080966,-42.374182,287.6767069999659,-23.41172028,-44.7796669,0.0,2012-04-23T09:29:30.370849Z,2012-04-23T09:28:47.105631Z,2012-04-23T09:29:19.370849Z,2012-04-23T09:30:19.370849Z,earthquake,2.118416116,known,20120423T092847/ON_DUB01_20120423T092847.mseed,"['E', 'N', 'Z']",[],0.0,0.996,0.004,Natural,0.0,0.97,0.03,Natural
20120423T092847,ESAR,323,usp2012hzep,[],P,BL,,HHZ,-23.0207,-44.4403,55.51507722542875,-23.41172028,-44.7796669,0.0,2012-04-23T09:28:56.762451Z,2012-04-23T09:28:47.105631Z,2012-04-23T09:28:45.762451Z,2012-04-23T09:29:45.762451Z,earthquake,2.118416116,known,20120423T092847/BL_ESAR_20120423T092847.mseed,"['E', 'N', 'Z']",[],0.0,0.957,0.043,Natural,0.0,0.97,0.03,Natural
20120423T092847,PET01,325,usp2012hzep,[],P,ON,,HHZ,-24.290108,-47.275344,272.2031891273038,-23.41172028,-44.7796669,0.0,2012-04-23T09:29:27.727233Z,2012-04-23T09:28:47.105631Z,2012-04-23T09:29:16.727233Z,2012-04-23T09:30:16.727233Z,earthquake,2.118416116,known,20120423T092847/ON_PET01_20120423T092847.mseed,"['E', 'N', 'Z']",[],0.0,0.967,0.033,Natural,0.0,0.97,0.03,Natural
20120423T092847,SLP01,324,usp2012hzep,[],P,ON,,HHZ,-23.3243,-45.1559,39.66668038934037,-23.41172028,-44.7796669,0.0,2012-04-23T09:28:54.024658Z,2012-04-23T09:28:47.105631Z,2012-04-23T09:28:43.024658Z,2012-04-23T09:29:43.024658Z,earthquake,2.118416116,known,20120423T092847/ON_SLP01_20120423T092847.mseed,"['E', 'N', 'Z']",[],0.0,0.935,0.065,Natural,0.0,0.97,0.03,Natural
20120423T092847,VAS01,321,usp2012hzep,[],P,ON,,HHZ,-22.280081,-43.442624,185.8404257845764,-23.41172028,-44.7796669,0.0,2012-04-23T09:29:17.311401Z,2012-04-23T09:28:47.105631Z,2012-04-23T09:29:06.311401Z,2012-04-23T09:30:06.311401Z,earthquake,2.118416116,known,20120423T092847/ON_VAS01_20120423T092847.mseed,"['E', 'N', 'Z']",[],0.0,0.994,0.006,Natural,0.0,0.97,0.03,Natural
20120520T193210,JAN7,125,usp2012jxhc,[],P,BR,,HHZ,-15.058097,-44.311197,175.9031558868767,-16.61113548,-43.9609108,0.0,2012-05-20T19:32:39.093200Z,2012-05-20T19:32:10.423255Z,2012-05-20T19:32:28.093200Z,2012-05-20T19:33:28.093200Z,earthquake,2.602437608,known,20120520T193210/BR_JAN7_20120520T193210.mseed,"['E', 'N', 'Z']",[],0.0,0.987,0.013,Natural,0.0,0.985,0.015,Natural
20120520T193210,PMNB,124,usp2012jxhc,[],P,BL,,HHZ,-18.54,-46.44,338.8530466738104,-16.61113548,-43.9609108,0.0,2012-05-20T19:33:00.128051Z,2012-05-20T19:32:10.423255Z,2012-05-20T19:32:49.128051Z,2012-05-20T19:33:49.128051Z,earthquake,2.602437608,known,20120520T193210/BL_PMNB_20120520T193210.mseed,"['E', 'N', 'Z']",[],0.0,0.983,0.017,Natural,0.0,0.985,0.015,Natural
20120520T193210,SJMB,123,usp2012jxhc,[],P,BL,,HHZ,-18.702916,-41.184694,374.64613570592337,-16.61113548,-43.9609108,0.0,2012-05-20T19:33:04.034835Z,2012-05-20T19:32:10.423255Z,2012-05-20T19:32:53.034835Z,2012-05-20T19:33:53.034835Z,earthquake,2.602437608,known,20120520T193210/BL_SJMB_20120520T193210.mseed,"['E', 'N', 'Z']",[],0.0,0.985,0.015,Natural,0.0,0.985,0.015,Natural
20121003T045247,NBLI,78,usp2012tkqn,[],P,NB,,HHZ,-7.364556,-36.949743,125.71970872595578,-8.223321915,-36.20291901,0.0,2012-10-03T04:53:08.230648Z,2012-10-03T04:52:47.696524Z,2012-10-03T04:52:57.230648Z,2012-10-03T04:53:57.230648Z,earthquake,1.786019986,known,20121003T045247/NB_NBLI_20121003T045247.mseed,"['E', 'N', 'Z']",[],0.0,0.997,0.003,Natural,0.0,0.997,0.003,Natural
20130304T122916,BSCB,58,usp2013ekfx,[],P,BL,,HHZ,-20.9984,-44.7635,283.40109081514606,-18.53904152,-45.51453018,0.0,2013-03-04T12:29:58.732604Z,2013-03-04T12:29:16.156417Z,2013-03-04T12:29:47.732604Z,2013-03-04T12:30:47.732604Z,earthquake,2.989014876,known,20130304T122916/BL_BSCB_20130304T122916.mseed,"['Z', 'N', 'E']",[],0.0,0.98,0.02,Natural,0.0,0.775,0.225,Natural
20130304T122916,IPMB,57,usp2013ekfx,[],P,BR,,HHZ,-17.982956,-48.211734,291.7855844429491,-18.53904152,-45.51453018,0.0,2013-03-04T12:30:00.059783Z,2013-03-04T12:29:16.156417Z,2013-03-04T12:29:49.059783Z,2013-03-04T12:30:49.059783Z,earthquake,2.989014876,known,20130304T122916/BR_IPMB_20130304T122916.mseed,"['E', 'N', 'Z']",[],0.0,0.955,0.045,Natural,0.0,0.775,0.225,Natural
20130304T122916,MCI6,61,usp2013ekfx,[],P,BL,,HHZ,-16.80705,-43.8933,257.54580563836595,-18.53904152,-45.51453018,0.0,2013-03-04T12:29:55.791290Z,2013-03-04T12:29:16.156417Z,2013-03-04T12:29:44.791290Z,2013-03-04T12:30:44.791290Z,earthquake,2.989014876,known,20130304T122916/BL_MCI6_20130304T122916.mseed,"['N', 'Z', 'E']",[' Sampling rate is 200.0'],1.0,0.016,0.984,Anthropogenic,0.0,0.775,0.225,Natural
20130304T122916,MCI8,59,usp2013ekfx,[],P,BL,,HHZ,-16.65967,-43.92041,268.1239655529116,-18.53904152,-45.51453018,0.0,2013-03-04T12:29:56.652160Z,2013-03-04T12:29:16.156417Z,2013-03-04T12:29:45.652160Z,2013-03-04T12:30:45.652160Z,earthquake,2.989014876,known,20130304T122916/BL_MCI8_20130304T122916.mseed,"['N', 'Z', 'E']",[' Sampling rate is 200.0'],0.0,0.965,0.035,Natural,0.0,0.775,0.225,Natural
20130304T122916,MCI9,60,usp2013ekfx,[],P,BL,,HHZ,-16.69806,-43.89328,266.6789523004077,-18.53904152,-45.51453018,0.0,2013-03-04T12:29:56.580413Z,2013-03-04T12:29:16.156417Z,2013-03-04T12:29:45.580413Z,2013-03-04T12:30:45.580413Z,earthquake,2.989014876,known,20130304T122916/BL_MCI9_20130304T122916.mseed,"['N', 'Z', 'E']",[' Sampling rate is 200.0'],0.0,0.958,0.042,Natural,0.0,0.775,0.225,Natural
20131101T010514,NBPA,243,usp2013vjnc,[],P,NB,,HHZ,-5.75028,-37.112047,114.8853305672145,-5.440600872,-36.12224579,2000.0,2013-11-01T01:05:34.753326Z,2013-11-01T01:05:14.259611Z,2013-11-01T01:05:23.753326Z,2013-11-01T01:06:23.753326Z,earthquake,1.978852545,known,20131101T010514/NB_NBPA_20131101T010514.mseed,"['E', 'N', 'Z']",[],0.0,0.959,0.041,Natural,0.0,0.959,0.041,Natural
20140429T163032,BOAV,161,usp2014iiwa,[],P,BR,,HHZ,2.3953,-60.5225,27.979321948405698,2.6342,-60.6054,0.0,2014-04-29T16:30:34.324743Z,2014-04-29T16:30:32.000000Z,2014-04-29T16:30:23.324743Z,2014-04-29T16:31:23.324743Z,earthquake,1.391774031,suspected,20140429T163032/BR_BOAV_20140429T163032.mseed,"['1', '2', 'Z']",[],1.0,0.047,0.953,Anthropogenic,1.0,0.047,0.953,Anthropogenic
20140521T195850,JANB,102,usp2014jxhz,[],P,BR,,HHZ,-15.058097,-44.311197,195.17361957184727,-16.77572632,-43.89704895,2000.0,2014-05-21T19:59:21.363964Z,2014-05-21T19:58:50.361814Z,2014-05-21T19:59:10.363964Z,2014-05-21T20:00:10.363964Z,earthquake,1.665542941,suspected,20140521T195850/BR_JANB_20140521T195850.mseed,"['E', 'N', 'Z']",[],1.0,0.393,0.607,Anthropogenic,1.0,0.322,0.678,Anthropogenic
20140521T195850,MC01,103,usp2014jxhz,[],P,BR,,HHZ,-16.70744,-43.94167,8.930097802328334,-16.77572632,-43.89704895,2000.0,2014-05-21T19:58:52.361547Z,2014-05-21T19:58:50.361814Z,2014-05-21T19:58:41.361547Z,2014-05-21T19:59:41.361547Z,earthquake,1.665542941,suspected,20140521T195850/BR_MC01_20140521T195850.mseed,"['E', 'N', 'Z']",[],1.0,0.044,0.956,Anthropogenic,1.0,0.322,0.678,Anthropogenic
20140521T195850,SJMB,101,usp2014jxhz,[],P,BL,,HHZ,-18.702916,-41.184694,358.1039481054652,-16.77572632,-43.89704895,2000.0,2014-05-21T19:59:25.582145Z,2014-05-21T19:58:50.361814Z,2014-05-21T19:59:14.582145Z,2014-05-21T20:00:14.582145Z,earthquake,1.665542941,suspected,20140521T195850/BL_SJMB_20140521T195850.mseed,"['E', 'N', 'Z']",[],0.0,0.53,0.47,Natural,1.0,0.322,0.678,Anthropogenic
20140603T192800,PTLB,332,usp2014kvam,[],P,BR,,HHZ,-15.44874,-59.13676,80.83176278096403,-14.71889496,-59.10443115,0.0,2014-06-03T19:28:14.759750Z,2014-06-03T19:28:00.887646Z,2014-06-03T19:28:03.759750Z,2014-06-03T19:29:03.759750Z,earthquake,2.838132818,suspected,20140603T192800/BR_PTLB_20140603T192800.mseed,"['1', '2', 'Z']",[],1.0,0.028,0.972,Anthropogenic,1.0,0.07,0.93,Anthropogenic
20140603T192800,SALV,330,usp2014kvam,[],P,BR,,HHZ,-15.90118,-55.69356,388.95576411082,-14.71889496,-59.10443115,0.0,2014-06-03T19:28:55.895721Z,2014-06-03T19:28:00.887646Z,2014-06-03T19:28:44.895721Z,2014-06-03T19:29:44.895721Z,earthquake,2.838132818,suspected,20140603T192800/BR_SALV_20140603T192800.mseed,"['E', 'N', 'Z']",[],1.0,0.079,0.921,Anthropogenic,1.0,0.07,0.93,Anthropogenic
20140603T192800,VILB,331,usp2014kvam,[],P,BR,,HHZ,-12.9528,-60.2002,228.5001904157153,-14.71889496,-59.10443115,0.0,2014-06-03T19:28:36.408691Z,2014-06-03T19:28:00.887646Z,2014-06-03T19:28:25.408691Z,2014-06-03T19:29:25.408691Z,earthquake,2.838132818,suspected,20140603T192800/BR_VILB_20140603T192800.mseed,"['1', '2', 'Z']",[],1.0,0.104,0.896,Anthropogenic,1.0,0.07,0.93,Anthropogenic
20140804T024634,CNLB,356,usp2014pdaq,[],P,BL,,HHZ,-29.3148,-50.8533,16.55588177955947,-29.464,-50.8613,0.0,2014-08-04T02:46:34.886948Z,2014-08-04T02:46:34.000000Z,2014-08-04T02:46:23.886948Z,2014-08-04T02:47:23.886948Z,earthquake,1.567319067,known,20140804T024634/BL_CNLB_20140804T024634.mseed,"['2', '1', 'Z']",[],1.0,0.213,0.787,Anthropogenic,1.0,0.213,0.787,Anthropogenic
20140828T103505,PTLB,230,usp2014qvme,[],P,BR,,HHZ,-15.44874,-59.13676,195.7320581106974,-16.18466667,-60.79816667,0.0,2014-08-28T10:35:36.184444Z,2014-08-28T10:35:05.570000Z,2014-08-28T10:35:25.184444Z,2014-08-28T10:36:25.184444Z,earthquake,3.229207732,known,20140828T103505/BR_PTLB_20140828T103505.mseed,"['1', '2', 'Z']",[],0.0,1.0,0.0,Natural,0.0,0.895,0.105,Natural
20140828T103505,VILB,229,usp2014qvme,[],P,BR,,HHZ,-12.9528,-60.2002,363.3471456118917,-16.18466667,-60.79816667,0.0,2014-08-28T10:35:58.738144Z,2014-08-28T10:35:05.570000Z,2014-08-28T10:35:47.738144Z,2014-08-28T10:36:47.738144Z,earthquake,3.229207732,known,20140828T103505/BR_VILB_20140828T103505.mseed,"['1', '2', 'Z']",[],0.0,0.791,0.209,Natural,0.0,0.895,0.105,Natural
20140911T031718,CLDB,244,usp2014rumu,[],P,BL,,HHZ,-10.8732,-55.7965,124.85927038404306,-11.62365532,-56.65063858,0.0,2014-09-11T03:17:40.017410Z,2014-09-11T03:17:18.374747Z,2014-09-11T03:17:29.017410Z,2014-09-11T03:18:29.017410Z,earthquake,3.901265045,known,20140911T031718/BL_CLDB_20140911T031718.mseed,"['E', 'N', 'Z']",[],0.0,0.958,0.042,Natural,0.0,0.958,0.042,Natural
20141020T113018,CZSB,79,usp2014uojr,[],P,BR,,HHZ,-7.7299,-72.7049,360.1212023630309,-9.98493576,-75.06663513,10000.0,2014-10-20T11:31:08.934265Z,2014-10-20T11:30:18.188049Z,2014-10-20T11:30:57.934265Z,2014-10-20T11:31:57.934265Z,earthquake,3.970977507,known,20141020T113018/BR_CZSB_20141020T113018.mseed,"['E', 'N', 'Z']",[],0.0,0.892,0.108,Natural,0.0,0.892,0.108,Natural
20141101T062236,CLDB,159,usp2014vjxo,[],P,BL,,HHZ,-10.8732,-55.7965,370.0039207370007,-8.667116165,-53.26119614,0.0,2014-11-01T06:23:29.634796Z,2014-11-01T06:22:36.194511Z,2014-11-01T06:23:18.634796Z,2014-11-01T06:24:18.634796Z,earthquake,2.91464146,suspected,20141101T062236/BL_CLDB_20141101T062236.mseed,"['E', 'N', 'Z']",[],0.0,0.98,0.02,Natural,0.0,0.989,0.011,Natural
20141101T062236,NPGB,160,usp2014vjxo,[],P,BR,,HHZ,-7.0454,-55.3579,292.6264170682435,-8.667116165,-53.26119614,0.0,2014-11-01T06:23:19.323898Z,2014-11-01T06:22:36.194511Z,2014-11-01T06:23:08.323898Z,2014-11-01T06:24:08.323898Z,earthquake,2.91464146,suspected,20141101T062236/BR_NPGB_20141101T062236.mseed,"['N', 'E', 'Z']",[],0.0,0.997,0.003,Natural,0.0,0.989,0.011,Natural
20141113T091427,CZSB,287,usp2014wgbg,[],P,BR,,HHZ,-7.7299,-72.7049,172.15867341844395,-8.138439178,-74.21154785,155677.1545,2014-11-13T09:14:59.403183Z,2014-11-13T09:14:27.493516Z,2014-11-13T09:14:48.403183Z,2014-11-13T09:15:48.403183Z,earthquake,4.539817651,known,20141113T091427/BR_CZSB_20141113T091427.mseed,"['E', 'N', 'Z']",[],1.0,0.012,0.988,Anthropogenic,1.0,0.012,0.988,Anthropogenic
20141123T004607,ARAG,191,usp2014wxrn,[],P,BR,,HHZ,-15.706,-51.812,90.19108937890272,-15.32147884,-51.07078934,0.0,2014-11-23T00:46:22.164733Z,2014-11-23T00:46:07.955333Z,2014-11-23T00:46:11.164733Z,2014-11-23T00:47:11.164733Z,earthquake,3.307072926,suspected,20141123T004607/BR_ARAG_20141123T004607.mseed,"['E', 'N', 'Z']",[],0.0,0.891,0.109,Natural,0.0,0.932,0.068,Natural
20141123T004607,SNDB,190,usp2014wxrn,[],P,BR,,HHZ,-11.9742,-51.2943,371.1193807148127,-15.32147884,-51.07078934,0.0,2014-11-23T00:47:01.451870Z,2014-11-23T00:46:07.955333Z,2014-11-23T00:46:50.451870Z,2014-11-23T00:47:50.451870Z,earthquake,3.307072926,suspected,20141123T004607/BR_SNDB_20141123T004607.mseed,"['E', 'N', 'Z']",[],0.0,0.974,0.026,Natural,0.0,0.932,0.068,Natural
20150105T154445,FRTB,280,usp2015aine,[],P,BL,,HHZ,-23.3439,-49.564,191.000851281225,-25.01585388,-49.10372162,0.0,2015-01-05T15:45:16.839484Z,2015-01-05T15:44:45.592308Z,2015-01-05T15:45:05.839484Z,2015-01-05T15:46:05.839484Z,earthquake,3.133329073,suspected,20150105T154445/BL_FRTB_20150105T154445.mseed,"['E', 'N', 'Z']",[],0.0,1.0,0.0,Natural,0.0,0.991,0.009,Natural
20150105T154445,ITAB,277,usp2015aine,[],P,BL,,HHZ,-27.2349,-52.1313,390.000374630896,-25.01585388,-49.10372162,0.0,2015-01-05T15:45:41.149158Z,2015-01-05T15:44:45.592308Z,2015-01-05T15:45:30.149158Z,2015-01-05T15:46:30.149158Z,earthquake,3.133329073,suspected,20150105T154445/BL_ITAB_20150105T154445.mseed,"['E', 'N', 'Z']",[],0.0,0.966,0.034,Natural,0.0,0.991,0.009,Natural
20150105T154445,PET01,279,usp2015aine,[],P,ON,,HHZ,-24.290108,-47.275344,201.79062485961165,-25.01585388,-49.10372162,0.0,2015-01-05T15:45:17.510902Z,2015-01-05T15:44:45.592308Z,2015-01-05T15:45:06.510902Z,2015-01-05T15:46:06.510902Z,earthquake,3.133329073,suspected,20150105T154445/ON_PET01_20150105T154445.mseed,"['E', 'N', 'Z']",[],0.0,1.0,0.0,Natural,0.0,0.991,0.009,Natural
20150105T154445,PTGB,278,usp2015aine,[],P,BL,,HHZ,-24.72095,-52.01182,295.6886035794041,-25.01585388,-49.10372162,0.0,2015-01-05T15:45:30.315562Z,2015-01-05T15:44:45.592308Z,2015-01-05T15:45:19.315562Z,2015-01-05T15:46:19.315562Z,earthquake,3.133329073,suspected,20150105T154445/BL_PTGB_20150105T154445.mseed,"['E', 'N', 'Z']",[],0.0,0.997,0.003,Natural,0.0,0.991,0.009,Natural
20150106T163952,ARAG,0,usp2015akkm,[],P,BR,,HHZ,-15.706,-51.812,272.10662116650826,-17.00253868,-53.97602844,0.0,2015-01-06T16:40:33.623061Z,2015-01-06T16:39:52.513537Z,2015-01-06T16:40:22.623061Z,2015-01-06T16:41:22.623061Z,earthquake,2.543128837,known,20150106T163952/BR_ARAG_20150106T163952.mseed,"['E', 'N', 'Z']",[],0.0,1.0,0.0,Natural,0.0,0.941,0.059,Natural
20150106T163952,C2SB,1,usp2015akkm,[],P,BL,,HHZ,-18.7688,-52.8377,229.7090208386392,-17.00253868,-53.97602844,0.0,2015-01-06T16:40:28.368561Z,2015-01-06T16:39:52.513537Z,2015-01-06T16:40:17.368561Z,2015-01-06T16:41:17.368561Z,earthquake,2.543128837,known,20150106T163952/BL_C2SB_20150106T163952.mseed,"['E', 'N', 'Z']",[],0.0,0.955,0.045,Natural,0.0,0.941,0.059,Natural
20150106T163952,PP1B,2,usp2015akkm,[],P,BL,,HHZ,-17.6003,-54.8796,116.63813280346686,-17.00253868,-53.97602844,0.0,2015-01-06T16:40:12.126082Z,2015-01-06T16:39:52.513537Z,2015-01-06T16:40:01.126082Z,2015-01-06T16:41:01.126082Z,earthquake,2.543128837,known,20150106T163952/BL_PP1B_20150106T163952.mseed,"['Z', 'N', 'E']",[],0.0,0.868,0.132,Natural,0.0,0.941,0.059,Natural
20150110T065510,PDRB,11,usp2015aqzf,[],P,BR,,HHZ,-11.612297,-56.729597,22.449255331835285,-11.41101742,-56.75588989,0.0,2015-01-10T06:55:14.256011Z,2015-01-10T06:55:10.210676Z,2015-01-10T06:55:03.256011Z,2015-01-10T06:56:03.256011Z,earthquake,3.246361719,known,20150110T065510/BR_PDRB_20150110T065510.mseed,"['E', 'N', 'Z']",[],0.0,0.927,0.073,Natural,0.0,0.927,0.073,Natural
20150122T122005,ALF01,248,usp2015bnhz,[],P,ON,,HHZ,-20.616865,-40.725213,208.27356588506703,-22.48295784,-40.47247696,0.0,2015-01-22T12:20:39.017578Z,2015-01-22T12:20:05.259160Z,2015-01-22T12:20:28.017578Z,2015-01-22T12:21:28.017578Z,earthquake,2.970946843,known,20150122T122005/ON_ALF01_20150122T122005.mseed,"['E', 'N', 'Z']",[],0.0,0.997,0.003,Natural,0.0,0.977,0.023,Natural
20150122T122005,DUB01,249,usp2015bnhz,[],P,ON,,HHZ,-22.080966,-42.374182,200.9734703218388,-22.48295784,-40.47247696,0.0,2015-01-22T12:20:35.769592Z,2015-01-22T12:20:05.259160Z,2015-01-22T12:20:24.769592Z,2015-01-22T12:21:24.769592Z,earthquake,2.970946843,known,20150122T122005/ON_DUB01_20150122T122005.mseed,"['E', 'N', 'Z']",[],0.0,0.996,0.004,Natural,0.0,0.977,0.023,Natural
20150122T122005,RIB01,251,usp2015bnhz,[],P,ON,,HHZ,-19.314216,-40.394365,350.9242623536516,-22.48295784,-40.47247696,0.0,2015-01-22T12:20:56.078186Z,2015-01-22T12:20:05.259160Z,2015-01-22T12:20:45.078186Z,2015-01-22T12:21:45.078186Z,earthquake,2.970946843,known,20150122T122005/ON_RIB01_20150122T122005.mseed,"['E', 'N', 'Z']",[],0.0,0.96,0.04,Natural,0.0,0.977,0.023,Natural
20150122T122005,VAS01,250,usp2015bnhz,[],P,ON,,HHZ,-22.280081,-43.442624,306.69532854435795,-22.48295784,-40.47247696,0.0,2015-01-22T12:20:50.365173Z,2015-01-22T12:20:05.259160Z,2015-01-22T12:20:39.365173Z,2015-01-22T12:21:39.365173Z,earthquake,2.970946843,known,20150122T122005/ON_VAS01_20150122T122005.mseed,"['E', 'N', 'Z']",[],0.0,0.957,0.043,Natural,0.0,0.977,0.023,Natural
20150212T130734,SNDB,180,usp2015cztc,[],P,BR,,HHZ,-11.9742,-51.2943,168.94188959143085,-10.51813412,-51.76122284,0.0,2015-02-12T13:08:02.910919Z,2015-02-12T13:07:34.304073Z,2015-02-12T13:07:51.910919Z,2015-02-12T13:08:51.910919Z,earthquake,3.104425459,suspected,20150212T130734/BR_SNDB_20150212T130734.mseed,"['E', 'N', 'Z']",[],0.0,0.998,0.002,Natural,0.0,0.998,0.002,Natural
20150316T200239,NBLI,65,usp2015fgsx,[],P,NB,,HHZ,-7.364556,-36.949743,239.30407496357213,-8.20911026,-34.95222855,0.0,2015-03-16T20:03:16.773910Z,2015-03-16T20:02:39.460731Z,2015-03-16T20:03:05.773910Z,2015-03-16T20:04:05.773910Z,earthquake,1.257805545,suspected,20150316T200239/NB_NBLI_20150316T200239.mseed,"['E', 'N', 'Z']",[],0.0,0.963,0.037,Natural,0.0,0.6,0.4,Natural
20150316T200239,NBRF,66,usp2015fgsx,[],P,NB,,HHZ,-8.679466,-35.127172,55.47312180187522,-8.20911026,-34.95222855,0.0,2015-03-16T20:02:48.678268Z,2015-03-16T20:02:39.460731Z,2015-03-16T20:02:37.678268Z,2015-03-16T20:03:37.678268Z,earthquake,1.257805545,suspected,20150316T200239/NB_NBRF_20150316T200239.mseed,"['E', 'N', 'Z']",[],1.0,0.236,0.764,Anthropogenic,0.0,0.6,0.4,Natural
20150407T115017,CLDB,134,usp2015guhs,[],P,BL,,HHZ,-10.8732,-55.7965,394.9792958541258,-9.015133858,-52.72040939,0.0,2015-04-07T11:51:13.457580Z,2015-04-07T11:50:17.315692Z,2015-04-07T11:51:02.457580Z,2015-04-07T11:52:02.457580Z,earthquake,3.135158039,known,20150407T115017/BL_CLDB_20150407T115017.mseed,"['E', 'N', 'Z']",[],0.0,0.596,0.404,Natural,0.0,0.779,0.221,Natural
20150407T115017,NPGB,135,usp2015guhs,[],P,BR,,HHZ,-7.0454,-55.3579,363.2897546613274,-9.015133858,-52.72040939,0.0,2015-04-07T11:51:09.838043Z,2015-04-07T11:50:17.315692Z,2015-04-07T11:50:58.838043Z,2015-04-07T11:51:58.838043Z,earthquake,3.135158039,known,20150407T115017/BR_NPGB_20150407T115017.mseed,"['N', 'E', 'Z']",[],0.0,0.802,0.198,Natural,0.0,0.779,0.221,Natural
20150407T115017,SNDB,136,usp2015guhs,[],P,BR,,HHZ,-11.9742,-51.2943,362.62304326656255,-9.015133858,-52.72040939,0.0,2015-04-07T11:51:09.436950Z,2015-04-07T11:50:17.315692Z,2015-04-07T11:50:58.436950Z,2015-04-07T11:51:58.436950Z,earthquake,3.135158039,known,20150407T115017/BR_SNDB_20150407T115017.mseed,"['E', 'N', 'Z']",[],0.0,0.94,0.06,Natural,0.0,0.779,0.221,Natural
20150414T145908,BSCB,120,usp2015hhim,[],P,BL,,HHZ,-20.9984,-44.7635,111.02181621755015,-20.10749054,-45.25223541,0.0,2015-04-14T14:59:26.904403Z,2015-04-14T14:59:08.021184Z,2015-04-14T14:59:15.904403Z,2015-04-14T15:00:15.904403Z,earthquake,2.254227869,suspected,20150414T145908/BL_BSCB_20150414T145908.mseed,"['Z', 'N', 'E']",[],0.0,0.962,0.038,Natural,0.0,0.904,0.096,Natural
20150414T145908,DUB01,116,usp2015hhim,[],P,ON,,HHZ,-22.080966,-42.374182,370.3436634790887,-20.10749054,-45.25223541,0.0,2015-04-14T15:00:01.104400Z,2015-04-14T14:59:08.021184Z,2015-04-14T14:59:50.104400Z,2015-04-14T15:00:50.104400Z,earthquake,2.254227869,suspected,20150414T145908/ON_DUB01_20150414T145908.mseed,"['E', 'N', 'Z']",[],0.0,0.897,0.103,Natural,0.0,0.904,0.096,Natural
20150414T145908,ESAR,117,usp2015hhim,[],P,BL,,HHZ,-23.0207,-44.4403,333.3427941629899,-20.10749054,-45.25223541,0.0,2015-04-14T14:59:56.956573Z,2015-04-14T14:59:08.021184Z,2015-04-14T14:59:45.956573Z,2015-04-14T15:00:45.956573Z,earthquake,2.254227869,suspected,20150414T145908/BL_ESAR_20150414T145908.mseed,"['E', 'N', 'Z']",[],0.0,0.971,0.029,Natural,0.0,0.904,0.096,Natural
20150414T145908,IPMB,115,usp2015hhim,[],P,BR,,HHZ,-17.982956,-48.211734,390.3037919417351,-20.10749054,-45.25223541,0.0,2015-04-14T15:00:00.713134Z,2015-04-14T14:59:08.021184Z,2015-04-14T14:59:49.713134Z,2015-04-14T15:00:49.713134Z,earthquake,2.254227869,suspected,20150414T145908/BR_IPMB_20150414T145908.mseed,"['E', 'N', 'Z']",[],0.0,0.71,0.29,Natural,0.0,0.904,0.096,Natural
20150414T145908,VAS01,118,usp2015hhim,[],P,ON,,HHZ,-22.280081,-43.442624,305.2282042380239,-20.10749054,-45.25223541,0.0,2015-04-14T14:59:53.043548Z,2015-04-14T14:59:08.021184Z,2015-04-14T14:59:42.043548Z,2015-04-14T15:00:42.043548Z,earthquake,2.254227869,suspected,20150414T145908/ON_VAS01_20150414T145908.mseed,"['E', 'N', 'Z']",[],0.0,0.98,0.02,Natural,0.0,0.904,0.096,Natural
20150622T223108,DIAM,147,usp2015mdzc,[],P,BL,,HHZ,-18.2952,-43.6648,172.0136509502423,-16.75398445,-43.87394333,2000.0,2015-06-22T22:31:36.608871Z,2015-06-22T22:31:08.560591Z,2015-06-22T22:31:25.608871Z,2015-06-22T22:32:25.608871Z,earthquake,1.62317473,suspected,20150622T223108/BL_DIAM_20150622T223108.mseed,"['E', 'N', 'Z']",[],1.0,0.241,0.759,Anthropogenic,0.0,0.685,0.315,Natural
20150622T223108,JANB,148,usp2015mdzc,[],P,BR,,HHZ,-15.058097,-44.311197,193.41575997055827,-16.75398445,-43.87394333,2000.0,2015-06-22T22:31:39.700149Z,2015-06-22T22:31:08.560591Z,2015-06-22T22:31:28.700149Z,2015-06-22T22:32:28.700149Z,earthquake,1.62317473,suspected,20150622T223108/BR_JANB_20150622T223108.mseed,"['E', 'N', 'Z']",[],0.0,0.862,0.138,Natural,0.0,0.685,0.315,Natural
20150622T223108,MC01,150,usp2015mdzc,[],P,BR,,HHZ,-16.70744,-43.94167,8.870810430615538,-16.75398445,-43.87394333,2000.0,2015-06-22T22:31:10.332687Z,2015-06-22T22:31:08.560591Z,2015-06-22T22:30:59.332687Z,2015-06-22T22:31:59.332687Z,earthquake,1.62317473,suspected,20150622T223108/BR_MC01_20150622T223108.mseed,"['E', 'N', 'Z']",[],0.0,0.716,0.284,Natural,0.0,0.685,0.315,Natural
20150622T223108,SJMB,149,usp2015mdzc,[],P,BL,,HHZ,-18.702916,-41.184694,357.59831157231406,-16.75398445,-43.87394333,2000.0,2015-06-22T22:31:59.539260Z,2015-06-22T22:31:08.560591Z,2015-06-22T22:31:48.539260Z,2015-06-22T22:32:48.539260Z,earthquake,1.62317473,suspected,20150622T223108/BL_SJMB_20150622T223108.mseed,"['E', 'N', 'Z']",[],0.0,0.919,0.081,Natural,0.0,0.685,0.315,Natural
20150829T065314,CZSB,350,usp2015qxaj,[],P,BR,,HHZ,-7.7299,-72.7049,396.25100240893767,-10.44686317,-75.05469513,51000.0,2015-08-29T06:54:08.455523Z,2015-08-29T06:53:14.934973Z,2015-08-29T06:53:57.455523Z,2015-08-29T06:54:57.455523Z,earthquake,4.322699276,known,20150829T065314/BR_CZSB_20150829T065314.mseed,"['E', 'N', 'Z']",[],0.0,0.995,0.005,Natural,0.0,0.995,0.005,Natural
20150910T232853,NBCL,6,usp2015rufg,[],P,NB,,HHZ,-4.224377,-38.291041,184.83312196229184,-3.817320824,-39.90538788,0.0,2015-09-10T23:29:23.781799Z,2015-09-10T23:28:53.080856Z,2015-09-10T23:29:12.781799Z,2015-09-10T23:30:12.781799Z,earthquake,2.269619269,known,20150910T232853/NB_NBCL_20150910T232853.mseed,"['E', 'N', 'Z']",[],0.0,1.0,0.0,Natural,0.0,0.999,0.001,Natural
20150910T232853,NBMO,3,usp2015rufg,[],P,NB,,HHZ,-3.310348,-40.042927,58.1057625388312,-3.817320824,-39.90538788,0.0,2015-09-10T23:29:02.289398Z,2015-09-10T23:28:53.080856Z,2015-09-10T23:28:51.289398Z,2015-09-10T23:29:51.289398Z,earthquake,2.269619269,known,20150910T232853/NB_NBMO_20150910T232853.mseed,"['E', 'N', 'Z']",[],0.0,0.995,0.005,Natural,0.0,0.999,0.001,Natural
20150910T232853,NBPB,5,usp2015rufg,[],P,NB,,HHZ,-5.543242,-39.583619,194.16541145630043,-3.817320824,-39.90538788,0.0,2015-09-10T23:29:23.057861Z,2015-09-10T23:28:53.080856Z,2015-09-10T23:29:12.057861Z,2015-09-10T23:30:12.057861Z,earthquake,2.269619269,known,20150910T232853/NB_NBPB_20150910T232853.mseed,"['E', 'N', 'Z']",[],0.0,1.0,0.0,Natural,0.0,0.999,0.001,Natural
20150910T232853,NBPS,4,usp2015rufg,[],P,NB,,HHZ,-4.393969,-41.445618,182.520804408637,-3.817320824,-39.90538788,0.0,2015-09-10T23:29:22.676696Z,2015-09-10T23:28:53.080856Z,2015-09-10T23:29:11.676696Z,2015-09-10T23:30:11.676696Z,earthquake,2.269619269,known,20150910T232853/NB_NBPS_20150910T232853.mseed,"['E', 'N', 'Z']",[],0.0,0.999,0.001,Natural,0.0,0.999,0.001,Natural
20151030T044549,CZSB,137,usp2015vgdj,[],P,BR,,HHZ,-7.7299,-72.7049,289.65863590195505,-9.920454979,-74.14811707,10000.0,2015-10-30T04:46:32.433743Z,2015-10-30T04:45:49.545124Z,2015-10-30T04:46:21.433743Z,2015-10-30T04:47:21.433743Z,earthquake,4.160530297,known,20151030T044549/BR_CZSB_20151030T044549.mseed,"['E', 'N', 'Z']",[],0.0,0.885,0.115,Natural,0.0,0.885,0.115,Natural
20160122T191159,CZSB,182,usp2016bnvo,[],P,BR,,HHZ,-7.7299,-72.7049,206.4769222105748,-8.733635902,-74.28502655,139254.837,2016-01-22T19:12:33.974096Z,2016-01-22T19:11:59.482118Z,2016-01-22T19:12:22.974096Z,2016-01-22T19:13:22.974096Z,earthquake,4.198250182,known,20160122T191159/BR_CZSB_20160122T191159.mseed,"['E', 'N', 'Z']",[],0.0,0.93,0.07,Natural,0.0,0.93,0.07,Natural
20160218T115201,ITAB,71,usp2016dkpq,[],P,BL,,HHZ,-27.2349,-52.1313,61.745909299490485,-27.18205452,-51.51086044,0.0,2016-02-18T11:52:11.790581Z,2016-02-18T11:52:01.033857Z,2016-02-18T11:52:00.790581Z,2016-02-18T11:53:00.790581Z,earthquake,2.257516451,suspected,20160218T115201/BL_ITAB_20160218T115201.mseed,"['E', 'N', 'Z']",[],1.0,0.003,0.997,Anthropogenic,1.0,0.321,0.679,Anthropogenic
20160218T115201,PTGB,73,usp2016dkpq,[],P,BL,,HHZ,-24.72095,-52.01182,277.23634438196547,-27.18205452,-51.51086044,0.0,2016-02-18T11:52:42.651447Z,2016-02-18T11:52:01.033857Z,2016-02-18T11:52:31.651447Z,2016-02-18T11:53:31.651447Z,earthquake,2.257516451,suspected,20160218T115201/BL_PTGB_20160218T115201.mseed,"['E', 'N', 'Z']",[],1.0,0.004,0.996,Anthropogenic,1.0,0.321,0.679,Anthropogenic
20160218T115201,TIJ01,72,usp2016dkpq,[],P,ON,,HHZ,-25.908848,-49.024241,285.12316416426336,-27.18205452,-51.51086044,0.0,2016-02-18T11:52:48.207973Z,2016-02-18T11:52:01.033857Z,2016-02-18T11:52:37.207973Z,2016-02-18T11:53:37.207973Z,earthquake,2.257516451,suspected,20160218T115201/ON_TIJ01_20160218T115201.mseed,"['E', 'N', 'Z']",[],0.0,0.955,0.045,Natural,1.0,0.321,0.679,Anthropogenic
20160223T184434,NBAN,314,usp2016dugu,[],P,NB,,HHZ,-9.668656,-36.274726,150.09032464221596,-8.318138123,-36.14108658,0.0,2016-02-23T18:44:59.583787Z,2016-02-23T18:44:34.376219Z,2016-02-23T18:44:48.583787Z,2016-02-23T18:45:48.583787Z,earthquake,2.038104948,suspected,20160223T184434/NB_NBAN_20160223T184434.mseed,"['E', 'N', 'Z']",[],0.0,0.997,0.003,Natural,0.0,0.741,0.259,Natural
20160223T184434,NBLV,315,usp2016dugu,[],P,NB,,HHZ,-7.357693,-36.921745,136.7300486766507,-8.318138123,-36.14108658,0.0,2016-02-23T18:44:57.669433Z,2016-02-23T18:44:34.376219Z,2016-02-23T18:44:46.669433Z,2016-02-23T18:45:46.669433Z,earthquake,2.038104948,suspected,20160223T184434/NB_NBLV_20160223T184434.mseed,"['E', 'N', 'Z']",[],0.0,0.997,0.003,Natural,0.0,0.741,0.259,Natural
20160223T184434,NBMA,312,usp2016dugu,[],P,NB,,HHZ,-7.365352,-38.764058,307.8660474993801,-8.318138123,-36.14108658,0.0,2016-02-23T18:45:19.344665Z,2016-02-23T18:44:34.376219Z,2016-02-23T18:45:08.344665Z,2016-02-23T18:46:08.344665Z,earthquake,2.038104948,suspected,20160223T184434/NB_NBMA_20160223T184434.mseed,"['E', 'N', 'Z']",[],1.0,0.012,0.988,Anthropogenic,0.0,0.741,0.259,Natural
20160223T184434,NBPV,313,usp2016dugu,[],P,NB,,HHZ,-6.417527,-35.290516,230.21577068458805,-8.318138123,-36.14108658,0.0,2016-02-23T18:45:10.149005Z,2016-02-23T18:44:34.376219Z,2016-02-23T18:44:59.149005Z,2016-02-23T18:45:59.149005Z,earthquake,2.038104948,suspected,20160223T184434/NB_NBPV_20160223T184434.mseed,"['E', 'N', 'Z']",[],0.0,0.987,0.013,Natural,0.0,0.741,0.259,Natural
20160223T184434,NBRF,316,usp2016dugu,[],P,NB,,HHZ,-8.679466,-35.127172,118.57403707298133,-8.318138123,-36.14108658,0.0,2016-02-23T18:44:54.069274Z,2016-02-23T18:44:34.376219Z,2016-02-23T18:44:43.069274Z,2016-02-23T18:45:43.069274Z,earthquake,2.038104948,suspected,20160223T184434/NB_NBRF_20160223T184434.mseed,"['E', 'N', 'Z']",[],0.0,0.712,0.288,Natural,0.0,0.741,0.259,Natural
20160225T165133,NBAN,26,usp2016dxua,[],P,NB,,HHZ,-9.668656,-36.274726,154.0305013898977,-8.285860062,-36.10827255,0.0,2016-02-25T16:51:58.721313Z,2016-02-25T16:51:33.183460Z,2016-02-25T16:51:47.721313Z,2016-02-25T16:52:47.721313Z,earthquake,2.267070145,suspected,20160225T165133/NB_NBAN_20160225T165133.mseed,"['E', 'N', 'Z']",[],0.0,0.999,0.001,Natural,0.0,0.957,0.043,Natural
20160225T165133,NBLA,24,usp2016dxua,[],P,NB,,HHZ,-10.99255,-37.788972,351.6360158233867,-8.285860062,-36.10827255,0.0,2016-02-25T16:52:24.111158Z,2016-02-25T16:51:33.183460Z,2016-02-25T16:52:13.111158Z,2016-02-25T16:53:13.111158Z,earthquake,2.267070145,suspected,20160225T165133/NB_NBLA_20160225T165133.mseed,"['E', 'N', 'Z']",[],0.0,0.998,0.002,Natural,0.0,0.957,0.043,Natural
20160225T165133,NBLV,27,usp2016dxua,[],P,NB,,HHZ,-7.357693,-36.921745,136.33169140437096,-8.285860062,-36.10827255,0.0,2016-02-25T16:51:56.177856Z,2016-02-25T16:51:33.183460Z,2016-02-25T16:51:45.177856Z,2016-02-25T16:52:45.177856Z,earthquake,2.267070145,suspected,20160225T165133/NB_NBLV_20160225T165133.mseed,"['E', 'N', 'Z']",[],0.0,0.984,0.016,Natural,0.0,0.957,0.043,Natural
20160225T165133,NBMA,25,usp2016dxua,[],P,NB,,HHZ,-7.365352,-38.764058,310.0893545967207,-8.285860062,-36.10827255,0.0,2016-02-25T16:52:19.102461Z,2016-02-25T16:51:33.183460Z,2016-02-25T16:52:08.102461Z,2016-02-25T16:53:08.102461Z,earthquake,2.267070145,suspected,20160225T165133/NB_NBMA_20160225T165133.mseed,"['E', 'N', 'Z']",[],0.0,0.798,0.202,Natural,0.0,0.957,0.043,Natural
20160225T165133,NBPV,22,usp2016dxua,[],P,NB,,HHZ,-6.417527,-35.290516,225.48765846436905,-8.285860062,-36.10827255,0.0,2016-02-25T16:52:08.375112Z,2016-02-25T16:51:33.183460Z,2016-02-25T16:51:57.375112Z,2016-02-25T16:52:57.375112Z,earthquake,2.267070145,suspected,20160225T165133/NB_NBPV_20160225T165133.mseed,"['E', 'N', 'Z']",[],0.0,1.0,0.0,Natural,0.0,0.957,0.043,Natural
20160225T165133,NBRF,23,usp2016dxua,[],P,NB,,HHZ,-8.679466,-35.127172,116.46975064297553,-8.285860062,-36.10827255,0.0,2016-02-25T16:51:53.058632Z,2016-02-25T16:51:33.183460Z,2016-02-25T16:51:42.058632Z,2016-02-25T16:52:42.058632Z,earthquake,2.267070145,suspected,20160225T165133/NB_NBRF_20160225T165133.mseed,"['E', 'N', 'Z']",[],0.0,0.962,0.038,Natural,0.0,0.957,0.043,Natural
20160312T073113,BB19B,203,usp2016fahp,[],P,BL,,HHZ,-21.0662,-48.5279,34.15670825295021,-21.3719,-48.5721,0.0,2016-03-12T07:31:18.895733Z,2016-03-12T07:31:13.000000Z,2016-03-12T07:31:07.895733Z,2016-03-12T07:32:07.895733Z,earthquake,1.651960237,suspected,20160312T073113/BL_BB19B_20160312T073113.mseed,"['E', 'N', 'Z']",[],0.0,0.516,0.484,Natural,0.0,0.516,0.484,Natural
20160320T025046,NBIT,126,usp2016fooj,[],P,NB,,HHZ,-14.930689,-39.434579,235.3538995735069,-12.82451534,-39.12890625,0.0,2016-03-20T02:51:23.285533Z,2016-03-20T02:50:46.697961Z,2016-03-20T02:51:12.285533Z,2016-03-20T02:52:12.285533Z,earthquake,1.284617825,known,20160320T025046/NB_NBIT_20160320T025046.mseed,"['E', 'N', 'Z']",[],0.0,0.996,0.004,Natural,0.0,0.997,0.003,Natural
20160320T025046,NBLA,127,usp2016fooj,[],P,NB,,HHZ,-10.99255,-37.788972,249.74913193976644,-12.82451534,-39.12890625,0.0,2016-03-20T02:51:25.600646Z,2016-03-20T02:50:46.697961Z,2016-03-20T02:51:14.600646Z,2016-03-20T02:52:14.600646Z,earthquake,1.284617825,known,20160320T025046/NB_NBLA_20160320T025046.mseed,"['E', 'N', 'Z']",[],0.0,0.999,0.001,Natural,0.0,0.997,0.003,Natural
20160321T191400,BB19B,49,usp2016frpw,[],P,BL,,HHZ,-21.0662,-48.5279,34.35020916503184,-21.3736,-48.5726,0.0,2016-03-21T19:14:07.262939Z,2016-03-21T19:14:00.000000Z,2016-03-21T19:13:56.262939Z,2016-03-21T19:14:56.262939Z,earthquake,1.336833567,known,20160321T191400/BL_BB19B_20160321T191400.mseed,"['E', 'N', 'Z']",[],1.0,0.061,0.939,Anthropogenic,1.0,0.061,0.939,Anthropogenic
20160329T191619,CLDB,152,usp2016gggk,[],P,BL,,HHZ,-10.8732,-55.7965,134.23158527033132,-11.5597229,-56.81003952,0.0,2016-03-29T19:16:42.000028Z,2016-03-29T19:16:19.425338Z,2016-03-29T19:16:31.000028Z,2016-03-29T19:17:31.000028Z,earthquake,2.708852754,known,20160329T191619/BL_CLDB_20160329T191619.mseed,"['E', 'N', 'Z']",[],0.0,0.967,0.033,Natural,0.0,0.611,0.389,Natural
20160329T191619,NBRS,151,usp2016gggk,[],P,XC,,HHZ,-14.32244,-55.77729,325.53225475839025,-11.5597229,-56.81003952,0.0,2016-03-29T19:17:07.096125Z,2016-03-29T19:16:19.425338Z,2016-03-29T19:16:56.096125Z,2016-03-29T19:17:56.096125Z,earthquake,2.708852754,known,20160329T191619/XC_NBRS_20160329T191619.mseed,"['E', 'N', 'Z']",[],0.0,0.802,0.198,Natural,0.0,0.611,0.389,Natural
20160329T191619,PDRB,153,usp2016gggk,[],P,BR,,HHZ,-11.612297,-56.729597,10.526035513289902,-11.5597229,-56.81003952,0.0,2016-03-29T19:16:21.465518Z,2016-03-29T19:16:19.425338Z,2016-03-29T19:16:10.465518Z,2016-03-29T19:17:10.465518Z,earthquake,2.708852754,known,20160329T191619/BR_PDRB_20160329T191619.mseed,"['E', 'N', 'Z']",[],1.0,0.063,0.937,Anthropogenic,0.0,0.611,0.389,Natural
20160411T115522,ALF01,14,usp2016hdlg,[],P,ON,,HHZ,-20.616865,-40.725213,380.2150302791897,-19.44933333,-44.143,0.0,2016-04-11T11:56:16.043921Z,2016-04-11T11:55:22.449999Z,2016-04-11T11:56:05.043921Z,2016-04-11T11:57:05.043921Z,earthquake,3.281836033,known,20160411T115522/ON_ALF01_20160411T115522.mseed,"['E', 'N', 'Z']",[],0.0,0.958,0.042,Natural,0.0,0.985,0.015,Natural
20160411T115522,DIAM,19,usp2016hdlg,[],P,BL,,HHZ,-18.2952,-43.6648,137.32960539063723,-19.44933333,-44.143,0.0,2016-04-11T11:55:45.688486Z,2016-04-11T11:55:22.449999Z,2016-04-11T11:55:34.688486Z,2016-04-11T11:56:34.688486Z,earthquake,3.281836033,known,20160411T115522/BL_DIAM_20160411T115522.mseed,"['E', 'N', 'Z']",[],0.0,0.999,0.001,Natural,0.0,0.985,0.015,Natural
20160411T115522,DUB01,16,usp2016hdlg,[],P,ON,,HHZ,-22.080966,-42.374182,344.6845561216187,-19.44933333,-44.143,0.0,2016-04-11T11:56:12.186737Z,2016-04-11T11:55:22.449999Z,2016-04-11T11:56:01.186737Z,2016-04-11T11:57:01.186737Z,earthquake,3.281836033,known,20160411T115522/ON_DUB01_20160411T115522.mseed,"['E', 'N', 'Z']",[],0.0,0.976,0.024,Natural,0.0,0.985,0.015,Natural
20160411T115522,RIB01,12,usp2016hdlg,[],P,ON,,HHZ,-19.314216,-40.394365,394.068525452159,-19.44933333,-44.143,0.0,2016-04-11T11:56:17.431997Z,2016-04-11T11:55:22.449999Z,2016-04-11T11:56:06.431997Z,2016-04-11T11:57:06.431997Z,earthquake,3.281836033,known,20160411T115522/ON_RIB01_20160411T115522.mseed,"['E', 'N', 'Z']",[],0.0,0.989,0.011,Natural,0.0,0.985,0.015,Natural
20160411T115522,SJMB,18,usp2016hdlg,[],P,BL,,HHZ,-18.702916,-41.184694,322.1141950225438,-19.44933333,-44.143,0.0,2016-04-11T11:56:09.084020Z,2016-04-11T11:55:22.449999Z,2016-04-11T11:55:58.084020Z,2016-04-11T11:56:58.084020Z,earthquake,3.281836033,known,20160411T115522/BL_SJMB_20160411T115522.mseed,"['E', 'N', 'Z']",[],0.0,0.993,0.007,Natural,0.0,0.985,0.015,Natural
20160411T115522,VAS01,17,usp2016hdlg,[],P,ON,,HHZ,-22.280081,-43.442624,321.76814876053953,-19.44933333,-44.143,0.0,2016-04-11T11:56:09.015445Z,2016-04-11T11:55:22.449999Z,2016-04-11T11:55:58.015445Z,2016-04-11T11:56:58.015445Z,earthquake,3.281836033,known,20160411T115522/ON_VAS01_20160411T115522.mseed,"['E', 'N', 'Z']",[],0.0,0.994,0.006,Natural,0.0,0.985,0.015,Natural
20160705T215735,BOAV,341,usp2016ndna,[],P,BR,,HHZ,2.3953,-60.5225,342.6409493967401,-0.7025011778,-60.44729614,0.0,2016-07-05T21:58:25.500050Z,2016-07-05T21:57:35.617951Z,2016-07-05T21:58:14.500050Z,2016-07-05T21:59:14.500050Z,earthquake,3.677931924,suspected,20160705T215735/BR_BOAV_20160705T215735.mseed,"['1', '2', 'Z']",[],0.0,0.997,0.003,Natural,0.0,0.961,0.039,Natural
20160705T215735,MACA,340,usp2016ndna,[],P,BR,,HHZ,-3.1615,-60.6838,273.17552673850594,-0.7025011778,-60.44729614,0.0,2016-07-05T21:58:17.381505Z,2016-07-05T21:57:35.617951Z,2016-07-05T21:58:06.381505Z,2016-07-05T21:59:06.381505Z,earthquake,3.677931924,suspected,20160705T215735/BR_MACA_20160705T215735.mseed,"['E', 'N', 'Z']",[],0.0,0.924,0.076,Natural,0.0,0.961,0.039,Natural
20160712T020115,DIAM,336,usp2016nouc,[],P,BL,,HHZ,-18.2952,-43.6648,203.64130804733065,-16.51558304,-44.1518364,0.0,2016-07-12T02:01:47.771305Z,2016-07-12T02:01:15.320781Z,2016-07-12T02:01:36.771305Z,2016-07-12T02:02:36.771305Z,earthquake,2.237462379,suspected,20160712T020115/BL_DIAM_20160712T020115.mseed,"['E', 'N', 'Z']",[],0.0,1.0,0.0,Natural,0.0,0.904,0.096,Natural
20160712T020115,JANB,335,usp2016nouc,[],P,BR,,HHZ,-15.058097,-44.311197,162.1816956171045,-16.51558304,-44.1518364,0.0,2016-07-12T02:01:42.480606Z,2016-07-12T02:01:15.320781Z,2016-07-12T02:01:31.480606Z,2016-07-12T02:02:31.480606Z,earthquake,2.237462379,suspected,20160712T020115/BR_JANB_20160712T020115.mseed,"['E', 'N', 'Z']",[],0.0,0.992,0.008,Natural,0.0,0.904,0.096,Natural
20160712T020115,PMNB,334,usp2016nouc,[],P,BL,,HHZ,-18.54,-46.44,330.4887036458492,-16.51558304,-44.1518364,0.0,2016-07-12T02:02:03.488357Z,2016-07-12T02:01:15.320781Z,2016-07-12T02:01:52.488357Z,2016-07-12T02:02:52.488357Z,earthquake,2.237462379,suspected,20160712T020115/BL_PMNB_20160712T020115.mseed,"['E', 'N', 'Z']",[],0.0,0.833,0.167,Natural,0.0,0.904,0.096,Natural
20160712T020115,SJMB,333,usp2016nouc,[],P,BL,,HHZ,-18.702916,-41.184694,397.1930173429734,-16.51558304,-44.1518364,0.0,2016-07-12T02:02:11.395332Z,2016-07-12T02:01:15.320781Z,2016-07-12T02:02:00.395332Z,2016-07-12T02:03:00.395332Z,earthquake,2.237462379,suspected,20160712T020115/BL_SJMB_20160712T020115.mseed,"['E', 'N', 'Z']",[],0.0,0.789,0.211,Natural,0.0,0.904,0.096,Natural
20160731T125447,CLDB,345,usp2016oyif,[],P,BL,,HHZ,-10.8732,-55.7965,131.7850613690102,-11.55990219,-56.78262329,0.0,2016-07-31T12:55:10.338180Z,2016-07-31T12:54:47.456988Z,2016-07-31T12:54:59.338180Z,2016-07-31T12:55:59.338180Z,earthquake,2.94508704,known,20160731T125447/BL_CLDB_20160731T125447.mseed,"['E', 'N', 'Z']",[],0.0,0.978,0.022,Natural,0.0,0.605,0.395,Natural
20160731T125447,PDRB,344,usp2016oyif,[],P,BR,,HHZ,-11.612297,-56.729597,8.187756274249553,-11.55990219,-56.78262329,0.0,2016-07-31T12:54:49.701082Z,2016-07-31T12:54:47.456988Z,2016-07-31T12:54:38.701082Z,2016-07-31T12:55:38.701082Z,earthquake,2.94508704,known,20160731T125447/BR_PDRB_20160731T125447.mseed,"['E', 'N', 'Z']",[],1.0,0.231,0.769,Anthropogenic,0.0,0.605,0.395,Natural
20160812T131123,NBAN,370,usp2016pugu,[],P,NB,,HHZ,-9.668656,-36.274726,77.63769891207671,-9.661324501,-36.98209381,0.0,2016-08-12T13:11:38.073661Z,2016-08-12T13:11:23.812993Z,2016-08-12T13:11:27.073661Z,2016-08-12T13:12:27.073661Z,earthquake,2.442423844,known,20160812T131123/NB_NBAN_20160812T131123.mseed,"['E', 'N', 'Z']",[],0.0,0.988,0.012,Natural,0.0,0.992,0.008,Natural
20160812T131123,NBLA,369,usp2016pugu,[],P,NB,,HHZ,-10.99255,-37.788972,171.73096867464625,-9.661324501,-36.98209381,0.0,2016-08-12T13:11:52.298469Z,2016-08-12T13:11:23.812993Z,2016-08-12T13:11:41.298469Z,2016-08-12T13:12:41.298469Z,earthquake,2.442423844,known,20160812T131123/NB_NBLA_20160812T131123.mseed,"['E', 'N', 'Z']",[],0.0,1.0,0.0,Natural,0.0,0.992,0.008,Natural
20160812T131123,NBRF,368,usp2016pugu,[],P,NB,,HHZ,-8.679466,-35.127172,230.9842078588144,-9.661324501,-36.98209381,0.0,2016-08-12T13:12:00.166687Z,2016-08-12T13:11:23.812993Z,2016-08-12T13:11:49.166687Z,2016-08-12T13:12:49.166687Z,earthquake,2.442423844,known,20160812T131123/NB_NBRF_20160812T131123.mseed,"['E', 'N', 'Z']",[],0.0,0.989,0.011,Natural,0.0,0.992,0.008,Natural
20160813T022641,AQDB,290,usp2016pvha,[],P,BL,,HHZ,-20.47579,-55.69971,219.328506368216,-18.63724709,-56.47877502,0.0,2016-08-13T02:27:15.813964Z,2016-08-13T02:26:41.746039Z,2016-08-13T02:27:04.813964Z,2016-08-13T02:28:04.813964Z,earthquake,3.117498643,known,20160813T022641/BL_AQDB_20160813T022641.mseed,"['E', 'N', 'Z']",[],0.0,1.0,0.0,Natural,0.0,0.872,0.128,Natural
20160813T022641,C2SB,288,usp2016pvha,[],P,BL,,HHZ,-18.7688,-52.8377,384.3202887660456,-18.63724709,-56.47877502,0.0,2016-08-13T02:27:36.782626Z,2016-08-13T02:26:41.746039Z,2016-08-13T02:27:25.782626Z,2016-08-13T02:28:25.782626Z,earthquake,3.117498643,known,20160813T022641/BL_C2SB_20160813T022641.mseed,"['E', 'N', 'Z']",[],1.0,0.494,0.506,Anthropogenic,0.0,0.872,0.128,Natural
20160813T022641,PP1B,291,usp2016pvha,[],P,BL,,HHZ,-17.6003,-54.8796,204.4888853504144,-18.63724709,-56.47877502,0.0,2016-08-13T02:27:15.048461Z,2016-08-13T02:26:41.746039Z,2016-08-13T02:27:04.048461Z,2016-08-13T02:28:04.048461Z,earthquake,3.117498643,known,20160813T022641/BL_PP1B_20160813T022641.mseed,"['Z', 'N', 'E']",[],0.0,1.0,0.0,Natural,0.0,0.872,0.128,Natural
20160813T022641,SALV,289,usp2016pvha,[],P,BR,,HHZ,-15.90118,-55.69356,314.1044955039791,-18.63724709,-56.47877502,0.0,2016-08-13T02:27:29.186080Z,2016-08-13T02:26:41.746039Z,2016-08-13T02:27:18.186080Z,2016-08-13T02:28:18.186080Z,earthquake,3.117498643,known,20160813T022641/BR_SALV_20160813T022641.mseed,"['E', 'N', 'Z']",[],0.0,0.993,0.007,Natural,0.0,0.872,0.128,Natural
20160920T201657,NBAN,204,usp2016sobl,[],P,NB,,HHZ,-9.668656,-36.274726,152.03654414387947,-8.669340134,-35.32483292,0.0,2016-09-20T20:17:22.523356Z,2016-09-20T20:16:57.441520Z,2016-09-20T20:17:11.523356Z,2016-09-20T20:18:11.523356Z,earthquake,1.248428194,suspected,20160920T201657/NB_NBAN_20160920T201657.mseed,"['E', 'N', 'Z']",[],1.0,0.026,0.974,Anthropogenic,1.0,0.244,0.756,Anthropogenic
20160920T201657,NBRF,205,usp2016sobl,[],P,NB,,HHZ,-8.679466,-35.127172,21.78228758501417,-8.669340134,-35.32483292,0.0,2016-09-20T20:17:01.293327Z,2016-09-20T20:16:57.441520Z,2016-09-20T20:16:50.293327Z,2016-09-20T20:17:50.293327Z,earthquake,1.248428194,suspected,20160920T201657/NB_NBRF_20160920T201657.mseed,"['E', 'N', 'Z']",[],1.0,0.462,0.538,Anthropogenic,1.0,0.244,0.756,Anthropogenic
20161128T063553,CZSB,295,usp2016xjca,[],P,BR,,HHZ,-7.7299,-72.7049,176.86228622675966,-8.73856926,-73.95054626,158221.3898,2016-11-28T06:36:25.063160Z,2016-11-28T06:35:53.443870Z,2016-11-28T06:36:14.063160Z,2016-11-28T06:37:14.063160Z,earthquake,4.140862941,known,20161128T063553/BR_CZSB_20161128T063553.mseed,"['E', 'N', 'Z']",[],0.0,0.982,0.018,Natural,0.0,0.982,0.018,Natural
20170103T131512,ROSB,357,usp2017aerg,[],P,BR,,HHZ,-2.8967,-44.1246,53.5794719634227,-3.34,-43.93,0.0,2017-01-03T13:15:22.130750Z,2017-01-03T13:15:12.000000Z,2017-01-03T13:15:11.130750Z,2017-01-03T13:16:11.130750Z,earthquake,2.394110762,known,20170103T131512/BR_ROSB_20170103T131512.mseed,"['E', 'N', 'Z']",[],0.0,0.962,0.038,Natural,0.0,0.962,0.038,Natural
20170203T043541,DIAM,327,usp2017ciqs,[],P,BL,,HHZ,-18.2952,-43.6648,323.9445953117739,-20.62157631,-45.53662491,0.0,2017-02-03T04:36:28.791282Z,2017-02-03T04:35:41.430716Z,2017-02-03T04:36:17.791282Z,2017-02-03T04:37:17.791282Z,earthquake,2.547640697,suspected,20170203T043541/BL_DIAM_20170203T043541.mseed,"['E', 'N', 'Z']",[],0.0,0.937,0.063,Natural,0.0,0.767,0.233,Natural
20170203T043541,DUB01,326,usp2017ciqs,[],P,ON,,HHZ,-22.080966,-42.374182,365.647891354363,-20.62157631,-45.53662491,0.0,2017-02-03T04:36:33.634670Z,2017-02-03T04:35:41.430716Z,2017-02-03T04:36:22.634670Z,2017-02-03T04:37:22.634670Z,earthquake,2.547640697,suspected,20170203T043541/ON_DUB01_20170203T043541.mseed,"['E', 'N', 'Z']",[],0.0,0.598,0.402,Natural,0.0,0.767,0.233,Natural
20170227T070540,AZCA,93,usp2017ears,[],P,XC,,HHZ,-28.0799,-55.9832,153.44856370833207,-26.95033333,-56.88166667,15000.0,2017-02-27T07:06:06.539026Z,2017-02-27T07:05:40.689999Z,2017-02-27T07:05:55.539026Z,2017-02-27T07:06:55.539026Z,earthquake,3.365370339,known,20170227T070540/XC_AZCA_20170227T070540.mseed,"['E', 'N', 'Z']",[],0.0,0.963,0.037,Natural,0.0,0.989,0.011,Natural
20170227T070540,CRSM,94,usp2017ears,[],P,XC,,HHZ,-27.49373,-54.0433,287.53361812795646,-26.95033333,-56.88166667,15000.0,2017-02-27T07:06:22.658967Z,2017-02-27T07:05:40.689999Z,2017-02-27T07:06:11.658967Z,2017-02-27T07:07:11.658967Z,earthquake,3.365370339,known,20170227T070540/XC_CRSM_20170227T070540.mseed,"['E', 'N', 'Z']",[],0.0,0.999,0.001,Natural,0.0,0.989,0.011,Natural
20170227T070540,ESFA,99,usp2017ears,[],P,XC,,HHZ,-24.9575,-58.4883,273.19047766263594,-26.95033333,-56.88166667,15000.0,2017-02-27T07:06:20.311460Z,2017-02-27T07:05:40.689999Z,2017-02-27T07:06:09.311460Z,2017-02-27T07:07:09.311460Z,earthquake,3.365370339,known,20170227T070540/XC_ESFA_20170227T070540.mseed,"['E', 'N', 'Z']",[],0.0,0.983,0.017,Natural,0.0,0.989,0.011,Natural
20170227T070540,FRBT,96,usp2017ears,[],P,XC,,HHZ,-25.975008,-53.06258,395.8607109669784,-26.95033333,-56.88166667,15000.0,2017-02-27T07:06:36.108629Z,2017-02-27T07:05:40.689999Z,2017-02-27T07:06:25.108629Z,2017-02-27T07:07:25.108629Z,earthquake,3.365370339,known,20170227T070540/XC_FRBT_20170227T070540.mseed,"['E', 'N', 'Z']",[],0.0,0.994,0.006,Natural,0.0,0.989,0.011,Natural
20170227T070540,ITQB,97,usp2017ears,[],P,BL,,HHZ,-29.6638,-56.6275,301.74984525056027,-26.95033333,-56.88166667,15000.0,2017-02-27T07:06:24.325021Z,2017-02-27T07:05:40.689999Z,2017-02-27T07:06:13.325021Z,2017-02-27T07:07:13.325021Z,earthquake,3.365370339,known,20170227T070540/BL_ITQB_20170227T070540.mseed,"['2', '1', 'Z']",[],0.0,0.997,0.003,Natural,0.0,0.989,0.011,Natural
20170227T070540,MCR1,95,usp2017ears,[],P,XC,,HHZ,-24.4591,-54.0367,397.0860930248116,-26.95033333,-56.88166667,15000.0,2017-02-27T07:06:34.839460Z,2017-02-27T07:05:40.689999Z,2017-02-27T07:06:23.839460Z,2017-02-27T07:07:23.839460Z,earthquake,3.365370339,known,20170227T070540/XC_MCR1_20170227T070540.mseed,"['E', 'N', 'Z']",[],0.0,0.991,0.009,Natural,0.0,0.989,0.011,Natural
20170227T070540,MECA,98,usp2017ears,[],P,XC,,HHZ,-29.29687,-58.17347,289.3586232506383,-26.95033333,-56.88166667,15000.0,2017-02-27T07:06:22.282430Z,2017-02-27T07:05:40.689999Z,2017-02-27T07:06:11.282430Z,2017-02-27T07:07:11.282430Z,earthquake,3.365370339,known,20170227T070540/XC_MECA_20170227T070540.mseed,"['E', 'N', 'Z']",[],0.0,0.996,0.004,Natural,0.0,0.989,0.011,Natural
20170511T204807,BB19B,75,usp2017jfco,[],P,BL,,HHZ,-21.0662,-48.5279,225.3203605507753,-21.26412582,-50.68718719,0.0,2017-05-11T20:48:42.493564Z,2017-05-11T20:48:07.286636Z,2017-05-11T20:48:31.493564Z,2017-05-11T20:49:31.493564Z,earthquake,2.519077336,suspected,20170511T204807/BL_BB19B_20170511T204807.mseed,"['E', 'N', 'Z']",[],1.0,0.05,0.95,Anthropogenic,1.0,0.276,0.724,Anthropogenic
20170511T204807,FRTB,76,usp2017jfco,[],P,BL,,HHZ,-23.3439,-49.564,257.74290761867826,-21.26412582,-50.68718719,0.0,2017-05-11T20:48:46.475174Z,2017-05-11T20:48:07.286636Z,2017-05-11T20:48:35.475174Z,2017-05-11T20:49:35.475174Z,earthquake,2.519077336,suspected,20170511T204807/BL_FRTB_20170511T204807.mseed,"['E', 'N', 'Z']",[],1.0,0.112,0.888,Anthropogenic,1.0,0.276,0.724,Anthropogenic
20170511T204807,PCMB,77,usp2017jfco,[],P,BL,,HHZ,-21.6074,-51.2619,70.66924986590409,-21.26412582,-50.68718719,0.0,2017-05-11T20:48:19.575073Z,2017-05-11T20:48:07.286636Z,2017-05-11T20:48:08.575073Z,2017-05-11T20:49:08.575073Z,earthquake,2.519077336,suspected,20170511T204807/BL_PCMB_20170511T204807.mseed,"['E', 'N', 'Z']",[],1.0,0.004,0.996,Anthropogenic,1.0,0.276,0.724,Anthropogenic
20170511T204807,TQJ5A,74,usp2017jfco,[],P,BX,,HHZ,-21.3614,-48.5929,217.5521776927909,-21.26412582,-50.68718719,0.0,2017-05-11T20:48:41.443557Z,2017-05-11T20:48:07.286636Z,2017-05-11T20:48:30.443557Z,2017-05-11T20:49:30.443557Z,earthquake,2.519077336,suspected,20170511T204807/BX_TQJ5A_20170511T204807.mseed,"['E', 'N', 'Z']",[' Sampling rate is 200.0'],0.0,0.939,0.061,Natural,1.0,0.276,0.724,Anthropogenic
20170701T165646,CZSB,56,usp2017mtzp,[],P,BR,,HHZ,-7.7299,-72.7049,390.8002316390166,-10.7844944,-74.49279022,50000.0,2017-07-01T16:57:38.711635Z,2017-07-01T16:56:46.201983Z,2017-07-01T16:57:27.711635Z,2017-07-01T16:58:27.711635Z,earthquake,4.693413138,known,20170701T165646/BR_CZSB_20170701T165646.mseed,"['E', 'N', 'Z']",[],0.0,0.991,0.009,Natural,0.0,0.991,0.009,Natural
20170705T155800,CLDB,286,usp2017nbfr,[],P,BL,,HHZ,-10.8732,-55.7965,327.35708349011514,-9.217503548,-58.27177429,0.0,2017-07-05T15:58:47.211776Z,2017-07-05T15:58:00.405143Z,2017-07-05T15:58:36.211776Z,2017-07-05T15:59:36.211776Z,earthquake,2.968121842,suspected,20170705T155800/BL_CLDB_20170705T155800.mseed,"['E', 'N', 'Z']",[],0.0,0.968,0.032,Natural,0.0,0.813,0.187,Natural
20170705T155800,PDRB,285,usp2017nbfr,[],P,BR,,HHZ,-11.612297,-56.729597,314.1293027454911,-9.217503548,-58.27177429,0.0,2017-07-05T15:58:47.010742Z,2017-07-05T15:58:00.405143Z,2017-07-05T15:58:36.010742Z,2017-07-05T15:59:36.010742Z,earthquake,2.968121842,suspected,20170705T155800/BR_PDRB_20170705T155800.mseed,"['E', 'N', 'Z']",[],0.0,0.657,0.343,Natural,0.0,0.813,0.187,Natural
20170727T140210,CZSB,50,usp2017opgx,[],P,BR,,HHZ,-7.7299,-72.7049,342.3278592925772,-10.4123745,-74.25847626,129000.0,2017-07-27T14:02:58.200862Z,2017-07-27T14:02:10.101286Z,2017-07-27T14:02:47.200862Z,2017-07-27T14:03:47.200862Z,earthquake,4.095793594,known,20170727T140210/BR_CZSB_20170727T140210.mseed,"['E', 'N', 'Z']",[],0.0,0.957,0.043,Natural,0.0,0.957,0.043,Natural
20171227T153534,FDPY,269,usp2017zixz,[],P,XC,,HHZ,-22.27697,-59.94391,342.36328761235245,-23.10429382,-63.15435028,131811.7371,2017-12-27T15:36:22.437706Z,2017-12-27T15:35:34.884277Z,2017-12-27T15:36:11.437706Z,2017-12-27T15:37:11.437706Z,earthquake,4.226802806,known,20171227T153534/XC_FDPY_20171227T153534.mseed,"['E', 'Z', 'N']",[],0.0,0.982,0.018,Natural,0.0,0.982,0.018,Natural
20180123T022350,LDASE,21,usp2018bojv,[],P,BX,,HHZ,-23.3932,-51.1177,8.80516012808984,-23.35,-51.19,0.0,2018-01-23T02:23:51.869610Z,2018-01-23T02:23:50.000000Z,2018-01-23T02:23:40.869610Z,2018-01-23T02:24:40.869610Z,earthquake,0.7047947441,known,20180123T022350/BX_LDASE_20180123T022350.mseed,"['E', 'Z', 'N']",[' Sampling rate is 200.0'],0.0,0.743,0.257,Natural,0.0,0.743,0.257,Natural
20180331T193811,ARAG,299,usp2018gicq,[],P,BR,,HHZ,-15.706,-51.812,255.0120015327426,-16.31487656,-49.51399612,0.0,2018-03-31T19:38:50.613590Z,2018-03-31T19:38:11.632764Z,2018-03-31T19:38:39.613590Z,2018-03-31T19:39:39.613590Z,earthquake,1.718031383,suspected,20180331T193811/BR_ARAG_20180331T193811.mseed,"['E', 'N', 'Z']",[],1.0,0.007,0.993,Anthropogenic,1.0,0.147,0.853,Anthropogenic
20180331T193811,BDFB,301,usp2018gicq,[],P,GT,,HHZ,-15.6418,-48.0148,176.9230532551765,-16.31487656,-49.51399612,0.0,2018-03-31T19:38:40.405162Z,2018-03-31T19:38:11.632764Z,2018-03-31T19:38:29.405162Z,2018-03-31T19:39:29.405162Z,earthquake,1.718031383,suspected,20180331T193811/GT_BDFB_20180331T193811.mseed,"['1', '2', 'Z']",[],1.0,0.007,0.993,Anthropogenic,1.0,0.147,0.853,Anthropogenic
20180331T193811,IPMB,300,usp2018gicq,[],P,BR,,HHZ,-17.982956,-48.211734,230.8199260265833,-16.31487656,-49.51399612,0.0,2018-03-31T19:38:47.547166Z,2018-03-31T19:38:11.632764Z,2018-03-31T19:38:36.547166Z,2018-03-31T19:39:36.547166Z,earthquake,1.718031383,suspected,20180331T193811/BR_IPMB_20180331T193811.mseed,"['E', 'N', 'Z']",[],1.0,0.427,0.573,Anthropogenic,1.0,0.147,0.853,Anthropogenic
20180711T111250,CLDB,235,usp2018nlvh,[],P,BL,,HHZ,-10.8732,-55.7965,137.6938362625462,-11.70239449,-56.73712158,0.0,2018-07-11T11:13:13.495853Z,2018-07-11T11:12:50.129063Z,2018-07-11T11:13:02.495853Z,2018-07-11T11:14:02.495853Z,earthquake,1.588598936,suspected,20180711T111250/BL_CLDB_20180711T111250.mseed,"['E', 'N', 'Z']",[],1.0,0.406,0.594,Anthropogenic,1.0,0.228,0.772,Anthropogenic
20180711T111250,PDRB,236,usp2018nlvh,[],P,BR,,HHZ,-11.612297,-56.729597,10.00026470949897,-11.70239449,-56.73712158,0.0,2018-07-11T11:12:51.707870Z,2018-07-11T11:12:50.129063Z,2018-07-11T11:12:40.707870Z,2018-07-11T11:13:40.707870Z,earthquake,1.588598936,suspected,20180711T111250/BR_PDRB_20180711T111250.mseed,"['E', 'N', 'Z']",[],1.0,0.051,0.949,Anthropogenic,1.0,0.228,0.772,Anthropogenic
20181218T161918,ANA01,38,usp2018ysnw,[],P,ON,,HHZ,-14.531001,-40.74522,92.32660789303134,-13.70076847,-40.65911102,0.0,2018-12-18T16:19:34.167526Z,2018-12-18T16:19:18.272961Z,2018-12-18T16:19:23.167526Z,2018-12-18T16:20:23.167526Z,earthquake,1.716957727,suspected,20181218T161918/ON_ANA01_20181218T161918.mseed,"['E', 'N', 'Z']",[],1.0,0.014,0.986,Anthropogenic,1.0,0.029,0.971,Anthropogenic
20181218T161918,CMC01,36,usp2018ysnw,[],P,ON,,HHZ,-15.360055,-39.519089,220.91190671087185,-13.70076847,-40.65911102,0.0,2018-12-18T16:19:53.134294Z,2018-12-18T16:19:18.272961Z,2018-12-18T16:19:42.134294Z,2018-12-18T16:20:42.134294Z,earthquake,1.716957727,suspected,20181218T161918/ON_CMC01_20181218T161918.mseed,"['Z', '1', '2']",[],1.0,0.062,0.938,Anthropogenic,1.0,0.029,0.971,Anthropogenic
20181218T161918,GDU01,37,usp2018ysnw,[],P,ON,,HHZ,-13.72,-39.575278,117.25516442759964,-13.70076847,-40.65911102,0.0,2018-12-18T16:19:38.355751Z,2018-12-18T16:19:18.272961Z,2018-12-18T16:19:27.355751Z,2018-12-18T16:20:27.355751Z,earthquake,1.716957727,suspected,20181218T161918/ON_GDU01_20181218T161918.mseed,"['Z', '1', '2']",[],1.0,0.011,0.989,Anthropogenic,1.0,0.029,0.971,Anthropogenic
20190202T181321,DUB01,267,usp2019chwe,[],P,ON,,HHZ,-22.080966,-42.374182,180.35720863433232,-22.59849358,-44.0342598,0.0,2019-02-02T18:13:50.590109Z,2019-02-02T18:13:21.742203Z,2019-02-02T18:13:39.590109Z,2019-02-02T18:14:39.590109Z,earthquake,1.709978355,suspected,20190202T181321/ON_DUB01_20190202T181321.mseed,"['E', 'N', 'Z']",[],1.0,0.013,0.987,Anthropogenic,1.0,0.157,0.843,Anthropogenic
20190202T181321,MAN01,268,usp2019chwe,[],P,ON,,HHZ,-22.86516,-43.964094,30.39759814532667,-22.59849358,-44.0342598,0.0,2019-02-02T18:13:27.226733Z,2019-02-02T18:13:21.742203Z,2019-02-02T18:13:16.226733Z,2019-02-02T18:14:16.226733Z,earthquake,1.709978355,suspected,20190202T181321/ON_MAN01_20190202T181321.mseed,"['Z', '1', '2']",[],1.0,0.301,0.699,Anthropogenic,1.0,0.157,0.843,Anthropogenic
20190227T125250,PRPB,319,usp2019ebde,[],P,BR,,HHZ,-6.1724,-49.815,89.19393113665079,-5.819333333,-50.53933333,0.0,2019-02-27T12:53:05.304099Z,2019-02-27T12:52:50.780000Z,2019-02-27T12:52:54.304099Z,2019-02-27T12:53:54.304099Z,earthquake,3.546597475,suspected,20190227T125250/BR_PRPB_20190227T125250.mseed,"['E', 'N', 'Z']",[],0.0,0.978,0.022,Natural,0.0,0.978,0.022,Natural
20190515T073908,CZSB,86,usp2019jlko,[],P,BR,,HHZ,-7.7299,-72.7049,244.51358272209663,-8.658065796,-74.71891022,136642.7612,2019-05-15T07:39:45.593938Z,2019-05-15T07:39:08.692904Z,2019-05-15T07:39:34.593938Z,2019-05-15T07:40:34.593938Z,earthquake,4.175993609,known,20190515T073908/BR_CZSB_20190515T073908.mseed,"['E', 'N', 'Z']",[],0.0,0.941,0.059,Natural,0.0,0.941,0.059,Natural
20190519T042432,ARAG,122,usp2019jsmd,[],P,BR,,HHZ,-15.706,-51.812,325.3072966619782,-14.04140377,-49.32014465,0.0,2019-05-19T04:25:19.758788Z,2019-05-19T04:24:32.171829Z,2019-05-19T04:25:08.758788Z,2019-05-19T04:26:08.758788Z,earthquake,2.092001477,known,20190519T042432/BR_ARAG_20190519T042432.mseed,"['E', 'N', 'Z']",[],0.0,0.992,0.008,Natural,0.0,0.978,0.022,Natural
20190519T042432,SNDB,121,usp2019jsmd,[],P,BR,,HHZ,-11.9742,-51.2943,313.30503773406133,-14.04140377,-49.32014465,0.0,2019-05-19T04:25:18.827743Z,2019-05-19T04:24:32.171829Z,2019-05-19T04:25:07.827743Z,2019-05-19T04:26:07.827743Z,earthquake,2.092001477,known,20190519T042432/BR_SNDB_20190519T042432.mseed,"['E', 'N', 'Z']",[],0.0,0.965,0.035,Natural,0.0,0.978,0.022,Natural
20190524T153758,ARAG,239,usp2019kclw,[],P,BR,,HHZ,-15.706,-51.812,122.71445786328124,-15.08070946,-50.86790848,0.0,2019-05-24T15:38:20.898212Z,2019-05-24T15:37:58.196020Z,2019-05-24T15:38:09.898212Z,2019-05-24T15:39:09.898212Z,earthquake,3.212060264,known,20190524T153758/BR_ARAG_20190524T153758.mseed,"['E', 'N', 'Z']",[],0.0,0.999,0.001,Natural,0.0,0.971,0.029,Natural
20190524T153758,SNDB,240,usp2019kclw,[],P,BR,,HHZ,-11.9742,-51.2943,346.7743237009953,-15.08070946,-50.86790848,0.0,2019-05-24T15:38:47.650310Z,2019-05-24T15:37:58.196020Z,2019-05-24T15:38:36.650310Z,2019-05-24T15:39:36.650310Z,earthquake,3.212060264,known,20190524T153758/BR_SNDB_20190524T153758.mseed,"['E', 'N', 'Z']",[],0.0,0.943,0.057,Natural,0.0,0.971,0.029,Natural
20190526T100440,CZSB,202,usp2019kfrx,[],P,BR,,HHZ,-7.7299,-72.7049,337.7504989978853,-5.69916153,-74.98674774,165011.673,2019-05-26T10:05:28.553464Z,2019-05-26T10:04:40.478383Z,2019-05-26T10:05:17.553464Z,2019-05-26T10:06:17.553464Z,earthquake,4.525439542,known,20190526T100440/BR_CZSB_20190526T100440.mseed,"['E', 'N', 'Z']",[],0.0,0.993,0.007,Natural,0.0,0.993,0.007,Natural
20190907T190252,CZSB,189,usp2019rojz,[],P,BR,,HHZ,-7.7299,-72.7049,364.5783945185197,-6.360663414,-75.70670319,41000.0,2019-09-07T19:03:42.027011Z,2019-09-07T19:02:52.611577Z,2019-09-07T19:03:31.027011Z,2019-09-07T19:04:31.027011Z,earthquake,4.400764437,known,20190907T190252/BR_CZSB_20190907T190252.mseed,"['E', 'N', 'Z']",[],0.0,0.982,0.018,Natural,0.0,0.982,0.018,Natural
20190927T234649,NBAN,100,usp2019szhk,[],P,NB,,HHZ,-9.668656,-36.274726,40.52165870961959,-9.9439,-36.5185,0.0,2019-09-27T23:46:55.471141Z,2019-09-27T23:46:49.000000Z,2019-09-27T23:46:44.471141Z,2019-09-27T23:47:44.471141Z,earthquake,2.304013624,suspected,20190927T234649/NB_NBAN_20190927T234649.mseed,"['E', 'N', 'Z']",[],0.0,0.931,0.069,Natural,0.0,0.931,0.069,Natural
20191202T161838,SMTB,238,usp2019xphv,[],P,BR,,HHZ,-8.8617,-47.5886,210.62139947479685,-10.36308479,-48.76893234,0.0,2019-12-02T16:19:12.214276Z,2019-12-02T16:18:38.838658Z,2019-12-02T16:19:01.214276Z,2019-12-02T16:20:01.214276Z,earthquake,2.529157032,suspected,20191202T161838/BR_SMTB_20191202T161838.mseed,"['E', 'N', 'Z']",[],1.0,0.002,0.998,Anthropogenic,1.0,0.035,0.965,Anthropogenic
20191202T161838,SNDB,237,usp2019xphv,[],P,BR,,HHZ,-11.9742,-51.2943,328.38780859986184,-10.36308479,-48.76893234,0.0,2019-12-02T16:19:26.948561Z,2019-12-02T16:18:38.838658Z,2019-12-02T16:19:15.948561Z,2019-12-02T16:20:15.948561Z,earthquake,2.529157032,suspected,20191202T161838/BR_SNDB_20191202T161838.mseed,"['E', 'N', 'Z']",[],1.0,0.068,0.932,Anthropogenic,1.0,0.035,0.965,Anthropogenic
20191205T234836,BSCB,173,usp2019xvje,[],P,BL,,HHZ,-20.9984,-44.7635,221.9239970855074,-18.994,-44.72966667,0.0,2019-12-05T23:49:11.618586Z,2019-12-05T23:48:36.679999Z,2019-12-05T23:49:00.618586Z,2019-12-05T23:50:00.618586Z,earthquake,2.702045276,suspected,20191205T234836/BL_BSCB_20191205T234836.mseed,"['Z', 'N', 'E']",[],0.0,1.0,0.0,Natural,0.0,0.892,0.108,Natural
20191205T234836,CANS,172,usp2019xvje,[],P,BL,,HHZ,-20.2896,-46.3921,225.7633770012012,-18.994,-44.72966667,0.0,2019-12-05T23:49:11.466798Z,2019-12-05T23:48:36.679999Z,2019-12-05T23:49:00.466798Z,2019-12-05T23:50:00.466798Z,earthquake,2.702045276,suspected,20191205T234836/BL_CANS_20191205T234836.mseed,"['E', 'N', 'Z']",[],0.0,0.995,0.005,Natural,0.0,0.892,0.108,Natural
20191205T234836,CHCR,176,usp2019xvje,[],P,VL,,HHZ,-19.6133,-43.2403,170.88402310005176,-18.994,-44.72966667,0.0,2019-12-05T23:49:05.074296Z,2019-12-05T23:48:36.679999Z,2019-12-05T23:48:54.074296Z,2019-12-05T23:49:54.074296Z,earthquake,2.702045276,suspected,20191205T234836/VL_CHCR_20191205T234836.mseed,"['Z', '1', '2']",[],1.0,0.003,0.997,Anthropogenic,0.0,0.892,0.108,Natural
20191205T234836,DIAM,179,usp2019xvje,[],P,BL,,HHZ,-18.2952,-43.6648,136.4069511914008,-18.994,-44.72966667,0.0,2019-12-05T23:48:59.347147Z,2019-12-05T23:48:36.679999Z,2019-12-05T23:48:48.347147Z,2019-12-05T23:49:48.347147Z,earthquake,2.702045276,suspected,20191205T234836/BL_DIAM_20191205T234836.mseed,"['E', 'N', 'Z']",[],0.0,0.993,0.007,Natural,0.0,0.892,0.108,Natural
20191205T234836,FABR,175,usp2019xvje,[],P,VL,,HHZ,-20.4192,-43.9133,179.48890188599776,-18.994,-44.72966667,0.0,2019-12-05T23:49:05.897157Z,2019-12-05T23:48:36.679999Z,2019-12-05T23:48:54.897157Z,2019-12-05T23:49:54.897157Z,earthquake,2.702045276,suspected,20191205T234836/VL_FABR_20191205T234836.mseed,"['1', '2', 'Z']",[],0.0,1.0,0.0,Natural,0.0,0.892,0.108,Natural
20191205T234836,FJAO,178,usp2019xvje,[],P,VL,,HHZ,-20.1001,-44.1283,137.75016327987845,-18.994,-44.72966667,0.0,2019-12-05T23:48:59.545729Z,2019-12-05T23:48:36.679999Z,2019-12-05T23:48:48.545729Z,2019-12-05T23:49:48.545729Z,earthquake,2.702045276,suspected,20191205T234836/VL_FJAO_20191205T234836.mseed,"['Z', '1', '2']",[],0.0,0.996,0.004,Natural,0.0,0.892,0.108,Natural
20191205T234836,GNG6,177,usp2019xvje,[],P,VL,,HHZ,-19.9698,-43.5929,160.96738082696328,-18.994,-44.72966667,0.0,2019-12-05T23:49:02.515728Z,2019-12-05T23:48:36.679999Z,2019-12-05T23:48:51.515728Z,2019-12-05T23:49:51.515728Z,earthquake,2.702045276,suspected,20191205T234836/VL_GNG6_20191205T234836.mseed,"['1', '2', 'Z']",[],0.0,0.985,0.015,Natural,0.0,0.892,0.108,Natural
20191205T234836,IPMB,169,usp2019xvje,[],P,BR,,HHZ,-17.982956,-48.211734,384.3787994573235,-18.994,-44.72966667,0.0,2019-12-05T23:49:30.898561Z,2019-12-05T23:48:36.679999Z,2019-12-05T23:49:19.898561Z,2019-12-05T23:50:19.898561Z,earthquake,2.702045276,suspected,20191205T234836/BR_IPMB_20191205T234836.mseed,"['E', 'N', 'Z']",[],0.0,0.911,0.089,Natural,0.0,0.892,0.108,Natural
20191205T234836,PMNB,174,usp2019xvje,[],P,BL,,HHZ,-18.54,-46.44,187.20333249209588,-18.994,-44.72966667,0.0,2019-12-05T23:49:06.611421Z,2019-12-05T23:48:36.679999Z,2019-12-05T23:48:55.611421Z,2019-12-05T23:49:55.611421Z,earthquake,2.702045276,suspected,20191205T234836/BL_PMNB_20191205T234836.mseed,"['E', 'N', 'Z']",[],0.0,0.995,0.005,Natural,0.0,0.892,0.108,Natural
20191205T234836,SJMB,171,usp2019xvje,[],P,BL,,HHZ,-18.702916,-41.184694,374.97397195710647,-18.994,-44.72966667,0.0,2019-12-05T23:49:30.405376Z,2019-12-05T23:48:36.679999Z,2019-12-05T23:49:19.405376Z,2019-12-05T23:50:19.405376Z,earthquake,2.702045276,suspected,20191205T234836/BL_SJMB_20191205T234836.mseed,"['E', 'N', 'Z']",[],0.0,0.949,0.051,Natural,0.0,0.892,0.108,Natural
20191205T234836,VAS01,168,usp2019xvje,[],P,ON,,HHZ,-22.280081,-43.442624,387.7411561058621,-18.994,-44.72966667,0.0,2019-12-05T23:49:31.228216Z,2019-12-05T23:48:36.679999Z,2019-12-05T23:49:20.228216Z,2019-12-05T23:50:20.228216Z,earthquake,2.702045276,suspected,20191205T234836/ON_VAS01_20191205T234836.mseed,"['E', 'N', 'Z']",[],0.0,0.986,0.014,Natural,0.0,0.892,0.108,Natural
20191226T212026,NBPA,219,usp2019zhnv,[],P,NB,,HHZ,-5.75028,-37.112047,271.4902235350866,-8.028104782,-36.19591522,0.0,2019-12-26T21:21:07.060075Z,2019-12-26T21:20:26.022501Z,2019-12-26T21:20:56.060075Z,2019-12-26T21:21:56.060075Z,earthquake,1.863389852,known,20191226T212026/NB_NBPA_20191226T212026.mseed,"['E', 'N', 'Z']",[],1.0,0.067,0.933,Anthropogenic,1.0,0.253,0.747,Anthropogenic
20191226T212026,NBPV,221,usp2019zhnv,[],P,NB,,HHZ,-6.417527,-35.290516,204.2639050712889,-8.028104782,-36.19591522,0.0,2019-12-26T21:20:58.612825Z,2019-12-26T21:20:26.022501Z,2019-12-26T21:20:47.612825Z,2019-12-26T21:21:47.612825Z,earthquake,1.863389852,known,20191226T212026/NB_NBPV_20191226T212026.mseed,"['E', 'N', 'Z']",[],1.0,0.024,0.976,Anthropogenic,1.0,0.253,0.747,Anthropogenic
20191226T212026,NBTA,220,usp2019zhnv,[],P,NB,,HHZ,-9.121932,-38.063215,238.5122564880856,-8.028104782,-36.19591522,0.0,2019-12-26T21:21:02.925759Z,2019-12-26T21:20:26.022501Z,2019-12-26T21:20:51.925759Z,2019-12-26T21:21:51.925759Z,earthquake,1.863389852,known,20191226T212026/NB_NBTA_20191226T212026.mseed,"['E', 'N', 'Z']",[],0.0,0.668,0.332,Natural,1.0,0.253,0.747,Anthropogenic
20200114T231900,BSCB,43,usp2020aznr,[],P,BL,,HHZ,-20.9984,-44.7635,395.1138258839687,-24.489,-43.96683333,0.0,2020-01-14T23:19:56.466878Z,2020-01-14T23:19:00.500000Z,2020-01-14T23:19:45.466878Z,2020-01-14T23:20:45.466878Z,earthquake,2.65089906,suspected,20200114T231900/BL_BSCB_20200114T231900.mseed,"['Z', 'N', 'E']",[],1.0,0.373,0.627,Anthropogenic,0.0,0.705,0.295,Natural
20200114T231900,CAM01,44,usp2020aznr,[],P,ON,,HHZ,-21.825656,-41.657401,378.0360944423371,-24.489,-43.96683333,0.0,2020-01-14T23:19:54.651813Z,2020-01-14T23:19:00.500000Z,2020-01-14T23:19:43.651813Z,2020-01-14T23:20:43.651813Z,earthquake,2.65089906,suspected,20200114T231900/ON_CAM01_20200114T231900.mseed,"['Z', '1', '2']",[],0.0,0.912,0.088,Natural,0.0,0.705,0.295,Natural
20200114T231900,DUB01,47,usp2020aznr,[],P,ON,,HHZ,-22.080966,-42.374182,312.5114900953259,-24.489,-43.96683333,0.0,2020-01-14T23:19:46.478675Z,2020-01-14T23:19:00.500000Z,2020-01-14T23:19:35.478675Z,2020-01-14T23:20:35.478675Z,earthquake,2.65089906,suspected,20200114T231900/ON_DUB01_20200114T231900.mseed,"['E', 'N', 'Z']",[],0.0,0.902,0.098,Natural,0.0,0.705,0.295,Natural
20200114T231900,PARB,48,usp2020aznr,[],P,BL,,HHZ,-23.3421,-45.6246,211.24475245126308,-24.489,-43.96683333,0.0,2020-01-14T23:19:33.959327Z,2020-01-14T23:19:00.500000Z,2020-01-14T23:19:22.959327Z,2020-01-14T23:20:22.959327Z,earthquake,2.65089906,suspected,20200114T231900/BL_PARB_20200114T231900.mseed,"['E', 'N', 'Z']",[],0.0,0.987,0.013,Natural,0.0,0.705,0.295,Natural
20200114T231900,PET01,46,usp2020aznr,[],P,ON,,HHZ,-24.290108,-47.275344,336.3397375950416,-24.489,-43.96683333,0.0,2020-01-14T23:19:48.975661Z,2020-01-14T23:19:00.500000Z,2020-01-14T23:19:37.975661Z,2020-01-14T23:20:37.975661Z,earthquake,2.65089906,suspected,20200114T231900/ON_PET01_20200114T231900.mseed,"['E', 'N', 'Z']",[],0.0,0.976,0.024,Natural,0.0,0.705,0.295,Natural
20200114T231900,VABB,45,usp2020aznr,[],P,BL,,HHZ,-23.0021,-46.9657,347.2509037256403,-24.489,-43.96683333,0.0,2020-01-14T23:19:50.683385Z,2020-01-14T23:19:00.500000Z,2020-01-14T23:19:39.683385Z,2020-01-14T23:20:39.683385Z,earthquake,2.65089906,suspected,20200114T231900/BL_VABB_20200114T231900.mseed,"['E', 'N', 'Z']",[],1.0,0.078,0.922,Anthropogenic,0.0,0.705,0.295,Natural
20200226T025545,CLDB,317,usp2020dynz,[],P,BL,,HHZ,-10.8732,-55.7965,138.90669446087065,-11.61536884,-56.82264328,0.0,2020-02-26T02:56:08.931425Z,2020-02-26T02:55:45.611045Z,2020-02-26T02:55:57.931425Z,2020-02-26T02:56:57.931425Z,earthquake,1.969113074,known,20200226T025545/BL_CLDB_20200226T025545.mseed,"['E', 'N', 'Z']",[],0.0,0.969,0.031,Natural,0.0,0.87,0.13,Natural
20200226T025545,PDRB,318,usp2020dynz,[],P,BR,,HHZ,-11.612297,-56.729597,10.152869154012878,-11.61536884,-56.82264328,0.0,2020-02-26T02:55:47.455701Z,2020-02-26T02:55:45.611045Z,2020-02-26T02:55:36.455701Z,2020-02-26T02:56:36.455701Z,earthquake,1.969113074,known,20200226T025545/BR_PDRB_20200226T025545.mseed,"['E', 'N', 'Z']",[],0.0,0.771,0.229,Natural,0.0,0.87,0.13,Natural
20200315T183339,SGC2,156,usp2020fgpz,[],P,BR,,HHZ,-0.1514,-66.9776,230.2000727704023,0.5467396379,-68.92580414,14924.77894,2020-03-15T18:34:13.653991Z,2020-03-15T18:33:39.430591Z,2020-03-15T18:34:02.653991Z,2020-03-15T18:35:02.653991Z,earthquake,4.551711338,suspected,20200315T183339/BR_SGC2_20200315T183339.mseed,"['E', 'N', 'Z']",[],0.0,0.983,0.017,Natural,0.0,0.983,0.017,Natural
20200416T165951,FRTB,83,usp2020hmyz,[],P,BL,,HHZ,-23.3439,-49.564,214.45951780751065,-24.72204971,-48.08306503,0.0,2020-04-16T17:00:25.847464Z,2020-04-16T16:59:51.887412Z,2020-04-16T17:00:14.847464Z,2020-04-16T17:01:14.847464Z,earthquake,2.127491606,known,20200416T165951/BL_FRTB_20200416T165951.mseed,"['E', 'N', 'Z']",[],0.0,0.913,0.087,Natural,0.0,0.568,0.432,Natural
20200416T165951,PARB,80,usp2020hmyz,[],P,BL,,HHZ,-23.3421,-45.6246,293.086470521313,-24.72204971,-48.08306503,0.0,2020-04-16T17:00:35.493076Z,2020-04-16T16:59:51.887412Z,2020-04-16T17:00:24.493076Z,2020-04-16T17:01:24.493076Z,earthquake,2.127491606,known,20200416T165951/BL_PARB_20200416T165951.mseed,"['E', 'N', 'Z']",[' Sampling rate is 200.0'],0.0,0.546,0.454,Natural,0.0,0.568,0.432,Natural
20200416T165951,PET01,85,usp2020hmyz,[],P,ON,,HHZ,-24.290108,-47.275344,94.81806622115342,-24.72204971,-48.08306503,0.0,2020-04-16T17:00:08.339393Z,2020-04-16T16:59:51.887412Z,2020-04-16T16:59:57.339393Z,2020-04-16T17:00:57.339393Z,earthquake,2.127491606,known,20200416T165951/ON_PET01_20200416T165951.mseed,"['E', 'N', 'Z']",[],0.0,0.882,0.118,Natural,0.0,0.568,0.432,Natural
20200416T165951,RCLB,81,usp2020hmyz,[],P,BL,,HHZ,-22.4191,-47.531,261.20776588197754,-24.72204971,-48.08306503,0.0,2020-04-16T17:00:31.612660Z,2020-04-16T16:59:51.887412Z,2020-04-16T17:00:20.612660Z,2020-04-16T17:01:20.612660Z,earthquake,2.127491606,known,20200416T165951/BL_RCLB_20200416T165951.mseed,"['E', 'N', 'Z']",[],1.0,0.35,0.65,Anthropogenic,0.0,0.568,0.432,Natural
20200416T165951,TIJ01,84,usp2020hmyz,[],P,ON,,HHZ,-25.908848,-49.024241,162.0645082520007,-24.72204971,-48.08306503,0.0,2020-04-16T17:00:18.491398Z,2020-04-16T16:59:51.887412Z,2020-04-16T17:00:07.491398Z,2020-04-16T17:01:07.491398Z,earthquake,2.127491606,known,20200416T165951/ON_TIJ01_20200416T165951.mseed,"['E', 'N', 'Z']",[],1.0,0.293,0.707,Anthropogenic,0.0,0.568,0.432,Natural
20200416T165951,VABB,82,usp2020hmyz,[],P,BL,,HHZ,-23.0021,-46.9657,221.90227628958348,-24.72204971,-48.08306503,0.0,2020-04-16T17:00:26.706702Z,2020-04-16T16:59:51.887412Z,2020-04-16T17:00:15.706702Z,2020-04-16T17:01:15.706702Z,earthquake,2.127491606,known,20200416T165951/BL_VABB_20200416T165951.mseed,"['E', 'N', 'Z']",[],1.0,0.423,0.577,Anthropogenic,0.0,0.568,0.432,Natural
20200418T015540,FRTB,104,usp2020hpmd,[],P,BL,,HHZ,-23.3439,-49.564,251.63874142304223,-23.59355545,-47.11582184,0.0,2020-04-18T01:56:19.067004Z,2020-04-18T01:55:40.830508Z,2020-04-18T01:56:08.067004Z,2020-04-18T01:57:08.067004Z,earthquake,2.004648357,known,20200418T015540/BL_FRTB_20200418T015540.mseed,"['E', 'N', 'Z']",[],0.0,0.989,0.011,Natural,0.0,0.982,0.018,Natural
20200418T015540,PARB,105,usp2020hpmd,[],P,BL,,HHZ,-23.3421,-45.6246,154.87540929473545,-23.59355545,-47.11582184,0.0,2020-04-18T01:56:06.487130Z,2020-04-18T01:55:40.830508Z,2020-04-18T01:55:55.487130Z,2020-04-18T01:56:55.487130Z,earthquake,2.004648357,known,20200418T015540/BL_PARB_20200418T015540.mseed,"['E', 'N', 'Z']",[' Sampling rate is 200.0'],0.0,0.981,0.019,Natural,0.0,0.982,0.018,Natural
20200418T015540,PET01,107,usp2020hpmd,[],P,ON,,HHZ,-24.290108,-47.275344,78.83885440226254,-23.59355545,-47.11582184,0.0,2020-04-18T01:55:54.766750Z,2020-04-18T01:55:40.830508Z,2020-04-18T01:55:43.766750Z,2020-04-18T01:56:43.766750Z,earthquake,2.004648357,known,20200418T015540/ON_PET01_20200418T015540.mseed,"['E', 'N', 'Z']",[],0.0,0.981,0.019,Natural,0.0,0.982,0.018,Natural
20200418T015540,RCLB,106,usp2020hpmd,[],P,BL,,HHZ,-22.4191,-47.531,136.85092716487654,-23.59355545,-47.11582184,0.0,2020-04-18T01:56:04.622242Z,2020-04-18T01:55:40.830508Z,2020-04-18T01:55:53.622242Z,2020-04-18T01:56:53.622242Z,earthquake,2.004648357,known,20200418T015540/BL_RCLB_20200418T015540.mseed,"['E', 'N', 'Z']",[],0.0,0.987,0.013,Natural,0.0,0.982,0.018,Natural
20200418T015540,VABB,108,usp2020hpmd,[],P,BL,,HHZ,-23.0021,-46.9657,67.27871177750055,-23.59355545,-47.11582184,0.0,2020-04-18T01:55:53.210418Z,2020-04-18T01:55:40.830508Z,2020-04-18T01:55:42.210418Z,2020-04-18T01:56:42.210418Z,earthquake,2.004648357,known,20200418T015540/BL_VABB_20200418T015540.mseed,"['E', 'N', 'Z']",[],0.0,0.974,0.026,Natural,0.0,0.982,0.018,Natural
20200607T231013,BB19B,92,usp2020leli,[],P,BL,,HHZ,-21.0662,-48.5279,42.009994034953614,-21.06053352,-48.93208313,0.0,2020-06-07T23:10:21.002681Z,2020-06-07T23:10:13.433092Z,2020-06-07T23:10:10.002681Z,2020-06-07T23:11:10.002681Z,earthquake,2.134238253,suspected,20200607T231013/BL_BB19B_20200607T231013.mseed,"['E', 'N', 'Z']",[],0.0,0.939,0.061,Natural,0.0,0.594,0.406,Natural
20200607T231013,CANS,89,usp2020leli,[],P,BL,,HHZ,-20.2896,-46.3921,278.0681357521583,-21.06053352,-48.93208313,0.0,2020-06-07T23:10:55.258720Z,2020-06-07T23:10:13.433092Z,2020-06-07T23:10:44.258720Z,2020-06-07T23:11:44.258720Z,earthquake,2.134238253,suspected,20200607T231013/BL_CANS_20200607T231013.mseed,"['E', 'N', 'Z']",[],0.0,0.975,0.025,Natural,0.0,0.594,0.406,Natural
20200607T231013,IPMB,87,usp2020leli,[],P,BR,,HHZ,-17.982956,-48.211734,348.96967178696843,-21.06053352,-48.93208313,0.0,2020-06-07T23:11:04.134109Z,2020-06-07T23:10:13.433092Z,2020-06-07T23:10:53.134109Z,2020-06-07T23:11:53.134109Z,earthquake,2.134238253,suspected,20200607T231013/BR_IPMB_20200607T231013.mseed,"['E', 'N', 'Z']",[],0.0,0.943,0.057,Natural,0.0,0.594,0.406,Natural
20200607T231013,RCLB,90,usp2020leli,[],P,BL,,HHZ,-22.4191,-47.531,208.8910907517933,-21.06053352,-48.93208313,0.0,2020-06-07T23:10:46.636741Z,2020-06-07T23:10:13.433092Z,2020-06-07T23:10:35.636741Z,2020-06-07T23:11:35.636741Z,earthquake,2.134238253,suspected,20200607T231013/BL_RCLB_20200607T231013.mseed,"['E', 'N', 'Z']",[],0.0,0.638,0.362,Natural,0.0,0.594,0.406,Natural
20200607T231013,TQJ3B,91,usp2020leli,[],P,BX,,HHZ,-21.37382,-48.5607,51.86333274739552,-21.06053352,-48.93208313,0.0,2020-06-07T23:10:22.397993Z,2020-06-07T23:10:13.433092Z,2020-06-07T23:10:11.397993Z,2020-06-07T23:11:11.397993Z,earthquake,2.134238253,suspected,20200607T231013/BX_TQJ3B_20200607T231013.mseed,"['Z', 'N', 'E']",[' Sampling rate is 200.0'],1.0,0.018,0.982,Anthropogenic,0.0,0.594,0.406,Natural
20200607T231013,VABB,88,usp2020leli,[],P,BL,,HHZ,-23.0021,-46.9657,295.68081237857854,-21.06053352,-48.93208313,0.0,2020-06-07T23:10:57.256950Z,2020-06-07T23:10:13.433092Z,2020-06-07T23:10:46.256950Z,2020-06-07T23:11:46.256950Z,earthquake,2.134238253,suspected,20200607T231013/BL_VABB_20200607T231013.mseed,"['E', 'N', 'Z']",[],1.0,0.051,0.949,Anthropogenic,0.0,0.594,0.406,Natural
20200614T013036,CZSB,367,usp2020lpoz,[],P,BR,,HHZ,-7.7299,-72.7049,328.0939887320108,-9.082611084,-75.3563385,135262.9242,2020-06-14T01:31:21.422303Z,2020-06-14T01:30:36.016130Z,2020-06-14T01:31:10.422303Z,2020-06-14T01:32:10.422303Z,earthquake,4.292334758,known,20200614T013036/BR_CZSB_20200614T013036.mseed,"['E', 'N', 'Z']",[],0.0,0.856,0.144,Natural,0.0,0.856,0.144,Natural
20200723T142312,FRTB,233,usp2020ojvc,[],P,BL,,HHZ,-23.3439,-49.564,208.8089914816285,-24.68453598,-48.12096786,0.0,2020-07-23T14:23:45.129497Z,2020-07-23T14:23:12.016369Z,2020-07-23T14:23:34.129497Z,2020-07-23T14:24:34.129497Z,earthquake,2.003411066,known,20200723T142312/BL_FRTB_20200723T142312.mseed,"['E', 'N', 'Z']",[],1.0,0.362,0.638,Anthropogenic,0.0,0.616,0.384,Natural
20200723T142312,PET01,234,usp2020ojvc,[],P,ON,,HHZ,-24.290108,-47.275344,96.2080648642555,-24.68453598,-48.12096786,0.0,2020-07-23T14:23:28.086393Z,2020-07-23T14:23:12.016369Z,2020-07-23T14:23:17.086393Z,2020-07-23T14:24:17.086393Z,earthquake,2.003411066,known,20200723T142312/ON_PET01_20200723T142312.mseed,"['E', 'N', 'Z']",[],0.0,0.859,0.141,Natural,0.0,0.616,0.384,Natural
20200723T142312,RCLB,231,usp2020ojvc,[],P,BL,,HHZ,-22.4191,-47.531,258.02934650718504,-24.68453598,-48.12096786,0.0,2020-07-23T14:23:51.400807Z,2020-07-23T14:23:12.016369Z,2020-07-23T14:23:40.400807Z,2020-07-23T14:24:40.400807Z,earthquake,2.003411066,known,20200723T142312/BL_RCLB_20200723T142312.mseed,"['E', 'N', 'Z']",[],0.0,0.521,0.479,Natural,0.0,0.616,0.384,Natural
20200723T142312,VABB,232,usp2020ojvc,[],P,BL,,HHZ,-23.0021,-46.9657,220.39151013768108,-24.68453598,-48.12096786,0.0,2020-07-23T14:23:46.745635Z,2020-07-23T14:23:12.016369Z,2020-07-23T14:23:35.745635Z,2020-07-23T14:24:35.745635Z,earthquake,2.003411066,known,20200723T142312/BL_VABB_20200723T142312.mseed,"['E', 'N', 'Z']",[],0.0,0.723,0.277,Natural,0.0,0.616,0.384,Natural
20200728T043314,BBSD,270,usp2020osfd,[],P,XC,,HHZ,-17.18752,-60.60987,268.89695486993696,-18.02237701,-62.98910522,10000.0,2020-07-28T04:33:54.239466Z,2020-07-28T04:33:14.565802Z,2020-07-28T04:33:43.239466Z,2020-07-28T04:34:43.239466Z,earthquake,2.817506912,suspected,20200728T043314/XC_BBSD_20200728T043314.mseed,"['E', 'N', 'Z']",[],0.0,0.968,0.032,Natural,0.0,0.968,0.032,Natural
20200826T070644,NBMO,311,usp2020qtju,[],P,NB,,HHZ,-3.310348,-40.042927,60.617577837256206,-3.653279543,-40.46853638,0.0,2020-08-26T07:06:54.645667Z,2020-08-26T07:06:44.123381Z,2020-08-26T07:06:43.645667Z,2020-08-26T07:07:43.645667Z,earthquake,2.020083588,known,20200826T070644/NB_NBMO_20200826T070644.mseed,"['E', 'N', 'Z']",[],0.0,0.997,0.003,Natural,0.0,0.998,0.002,Natural
20200826T070644,NBPS,310,usp2020qtju,[],P,NB,,HHZ,-4.393969,-41.445618,135.94474164688882,-3.653279543,-40.46853638,0.0,2020-08-26T07:07:06.808522Z,2020-08-26T07:06:44.123381Z,2020-08-26T07:06:55.808522Z,2020-08-26T07:07:55.808522Z,earthquake,2.020083588,known,20200826T070644/NB_NBPS_20200826T070644.mseed,"['E', 'N', 'Z']",[],0.0,0.999,0.001,Natural,0.0,0.998,0.002,Natural
20200830T104430,CMC01,131,usp2020raza,[],P,ON,,HHZ,-15.360055,-39.519089,255.4581933541654,-13.05133333,-39.49083333,1000.0,2020-08-30T10:45:09.450244Z,2020-08-30T10:44:30.149999Z,2020-08-30T10:44:58.450244Z,2020-08-30T10:45:58.450244Z,earthquake,4.157870951,known,20200830T104430/ON_CMC01_20200830T104430.mseed,"['Z', '1', '2']",[],0.0,0.997,0.003,Natural,0.0,0.984,0.016,Natural
20200830T104430,GUA01,130,usp2020raza,[],P,ON,,HHZ,-16.58349,-39.805342,392.286356705912,-13.05133333,-39.49083333,1000.0,2020-08-30T10:45:27.869889Z,2020-08-30T10:44:30.149999Z,2020-08-30T10:45:16.869889Z,2020-08-30T10:46:16.869889Z,earthquake,4.157870951,known,20200830T104430/ON_GUA01_20200830T104430.mseed,"['E', 'N', 'Z']",[],0.0,0.963,0.037,Natural,0.0,0.984,0.016,Natural
20200830T104430,NBIT,133,usp2020raza,[],P,NB,,HHZ,-14.930689,-39.434579,208.019385066406,-13.05133333,-39.49083333,1000.0,2020-08-30T10:45:03.436183Z,2020-08-30T10:44:30.149999Z,2020-08-30T10:44:52.436183Z,2020-08-30T10:45:52.436183Z,earthquake,4.157870951,known,20200830T104430/NB_NBIT_20200830T104430.mseed,"['E', 'N', 'Z']",[],0.0,0.981,0.019,Natural,0.0,0.984,0.016,Natural
20200830T104430,NBPN,132,usp2020raza,[],P,NB,,HHZ,-10.847009,-40.198957,255.75303676545613,-13.05133333,-39.49083333,1000.0,2020-08-30T10:45:09.973521Z,2020-08-30T10:44:30.149999Z,2020-08-30T10:44:58.973521Z,2020-08-30T10:45:58.973521Z,earthquake,4.157870951,known,20200830T104430/NB_NBPN_20200830T104430.mseed,"['E', 'N', 'Z']",[],0.0,0.994,0.006,Natural,0.0,0.984,0.016,Natural
20200830T111807,CMC01,8,usp2020rbac,[],P,ON,,HHZ,-15.360055,-39.519089,260.9408197403863,-13.00246429,-39.58411407,0.0,2020-08-30T11:18:47.594948Z,2020-08-30T11:18:07.108883Z,2020-08-30T11:18:36.594948Z,2020-08-30T11:19:36.594948Z,earthquake,3.686849636,known,20200830T111807/ON_CMC01_20200830T111807.mseed,"['Z', '1', '2']",[],0.0,0.998,0.002,Natural,0.0,0.95,0.05,Natural
20200830T111807,GUA01,7,usp2020rbac,[],P,ON,,HHZ,-16.58349,-39.805342,396.9446264075344,-13.00246429,-39.58411407,0.0,2020-08-30T11:19:03.906642Z,2020-08-30T11:18:07.108883Z,2020-08-30T11:18:52.906642Z,2020-08-30T11:19:52.906642Z,earthquake,3.686849636,known,20200830T111807/ON_GUA01_20200830T111807.mseed,"['E', 'N', 'Z']",[],0.0,0.918,0.082,Natural,0.0,0.95,0.05,Natural
20200830T111807,NBIT,10,usp2020rbac,[],P,NB,,HHZ,-14.930689,-39.434579,213.94790350307656,-13.00246429,-39.58411407,0.0,2020-08-30T11:18:40.792286Z,2020-08-30T11:18:07.108883Z,2020-08-30T11:18:29.792286Z,2020-08-30T11:19:29.792286Z,earthquake,3.686849636,known,20200830T111807/NB_NBIT_20200830T111807.mseed,"['E', 'N', 'Z']",[],0.0,0.887,0.113,Natural,0.0,0.95,0.05,Natural
20200830T111807,NBPN,9,usp2020rbac,[],P,NB,,HHZ,-10.847009,-40.198957,247.66726672308667,-13.00246429,-39.58411407,0.0,2020-08-30T11:18:45.085697Z,2020-08-30T11:18:07.108883Z,2020-08-30T11:18:34.085697Z,2020-08-30T11:19:34.085697Z,earthquake,3.686849636,known,20200830T111807/NB_NBPN_20200830T111807.mseed,"['E', 'N', 'Z']",[],0.0,0.996,0.004,Natural,0.0,0.95,0.05,Natural
20200902T010119,NBMA,342,usp2020rfsg,[],P,NB,,HHZ,-7.365352,-38.764058,361.158175991381,-5.506783962,-36.07941437,0.0,2020-09-02T01:02:12.079023Z,2020-09-02T01:01:19.990795Z,2020-09-02T01:02:01.079023Z,2020-09-02T01:03:01.079023Z,earthquake,1.99646347,known,20200902T010119/NB_NBMA_20200902T010119.mseed,"['E', 'N', 'Z']",[],1.0,0.278,0.722,Anthropogenic,0.0,0.638,0.362,Natural
20200902T010119,NBPV,343,usp2020rfsg,[],P,NB,,HHZ,-6.417527,-35.290516,133.3159203291854,-5.506783962,-36.07941437,0.0,2020-09-02T01:01:42.461143Z,2020-09-02T01:01:19.990795Z,2020-09-02T01:01:31.461143Z,2020-09-02T01:02:31.461143Z,earthquake,1.99646347,known,20200902T010119/NB_NBPV_20200902T010119.mseed,"['E', 'N', 'Z']",[],0.0,0.998,0.002,Natural,0.0,0.638,0.362,Natural
20200925T194337,ARAG,33,usp2020sxdw,[],P,BR,,HHZ,-15.706,-51.812,213.2938389452325,-16.96948624,-53.31947327,0.0,2020-09-25T19:44:11.503890Z,2020-09-25T19:43:37.660984Z,2020-09-25T19:44:00.503890Z,2020-09-25T19:45:00.503890Z,earthquake,2.380403737,suspected,20200925T194337/BR_ARAG_20200925T194337.mseed,"['E', 'N', 'Z']",[],1.0,0.071,0.929,Anthropogenic,1.0,0.106,0.894,Anthropogenic
20200925T194337,C2SB,34,usp2020sxdw,[],P,BL,,HHZ,-18.7688,-52.8377,205.5870137928381,-16.96948624,-53.31947327,0.0,2020-09-25T19:44:10.271143Z,2020-09-25T19:43:37.660984Z,2020-09-25T19:43:59.271143Z,2020-09-25T19:44:59.271143Z,earthquake,2.380403737,suspected,20200925T194337/BL_C2SB_20200925T194337.mseed,"['E', 'N', 'Z']",[],1.0,0.01,0.99,Anthropogenic,1.0,0.106,0.894,Anthropogenic
20200925T194337,PP1B,35,usp2020sxdw,[],P,BL,,HHZ,-17.6003,-54.8796,179.9696202743478,-16.96948624,-53.31947327,0.0,2020-09-25T19:44:06.799635Z,2020-09-25T19:43:37.660984Z,2020-09-25T19:43:55.799635Z,2020-09-25T19:44:55.799635Z,earthquake,2.380403737,suspected,20200925T194337/BL_PP1B_20200925T194337.mseed,"['Z', 'N', 'E']",[],1.0,0.254,0.746,Anthropogenic,1.0,0.106,0.894,Anthropogenic
20200925T194337,SALV,32,usp2020sxdw,[],P,BR,,HHZ,-15.90118,-55.69356,279.7530040183828,-16.96948624,-53.31947327,0.0,2020-09-25T19:44:19.515538Z,2020-09-25T19:43:37.660984Z,2020-09-25T19:44:08.515538Z,2020-09-25T19:45:08.515538Z,earthquake,2.380403737,suspected,20200925T194337/BR_SALV_20200925T194337.mseed,"['E', 'N', 'Z']",[],1.0,0.09,0.91,Anthropogenic,1.0,0.106,0.894,Anthropogenic
20200929T023053,NBMO,352,usp2020tddv,[],P,NB,,HHZ,-3.310348,-40.042927,78.4889647058596,-2.955619097,-40.65455246,0.0,2020-09-29T02:31:07.672134Z,2020-09-29T02:30:53.983515Z,2020-09-29T02:30:56.672134Z,2020-09-29T02:31:56.672134Z,earthquake,1.762208183,suspected,20200929T023053/NB_NBMO_20200929T023053.mseed,"['E', 'N', 'Z']",[],0.0,0.976,0.024,Natural,0.0,0.948,0.052,Natural
20200929T023053,NBPS,351,usp2020tddv,[],P,NB,,HHZ,-4.393969,-41.445618,181.7139398606484,-2.955619097,-40.65455246,0.0,2020-09-29T02:31:23.339255Z,2020-09-29T02:30:53.983515Z,2020-09-29T02:31:12.339255Z,2020-09-29T02:32:12.339255Z,earthquake,1.762208183,suspected,20200929T023053/NB_NBPS_20200929T023053.mseed,"['E', 'N', 'Z']",[],0.0,0.919,0.081,Natural,0.0,0.948,0.052,Natural
20200929T202053,SDBA,187,usp2020tenc,[],P,BR,,HHZ,-12.4085,-44.903,262.2199533581383,-10.74054146,-46.6113472,0.0,2020-09-29T20:21:33.296405Z,2020-09-29T20:20:53.263431Z,2020-09-29T20:21:22.296405Z,2020-09-29T20:22:22.296405Z,earthquake,2.9799819,suspected,20200929T202053/BR_SDBA_20200929T202053.mseed,"['E', 'N', 'Z']",[],1.0,0.083,0.917,Anthropogenic,1.0,0.215,0.785,Anthropogenic
20200929T202053,SMTB,188,usp2020tenc,[],P,BR,,HHZ,-8.8617,-47.5886,233.8348485251562,-10.74054146,-46.6113472,0.0,2020-09-29T20:21:29.636272Z,2020-09-29T20:20:53.263431Z,2020-09-29T20:21:18.636272Z,2020-09-29T20:22:18.636272Z,earthquake,2.9799819,suspected,20200929T202053/BR_SMTB_20200929T202053.mseed,"['E', 'N', 'Z']",[],1.0,0.348,0.652,Anthropogenic,1.0,0.215,0.785,Anthropogenic
20201015T145615,NBMO,207,usp2020uhil,[],P,NB,,HHZ,-3.310348,-40.042927,78.86922327114942,-3.545318365,-40.71306229,0.0,2020-10-15T14:56:28.825759Z,2020-10-15T14:56:15.270920Z,2020-10-15T14:56:17.825759Z,2020-10-15T14:57:17.825759Z,earthquake,2.060342019,known,20201015T145615/NB_NBMO_20201015T145615.mseed,"['E', 'N', 'Z']",[],1.0,0.03,0.97,Anthropogenic,1.0,0.025,0.975,Anthropogenic
20201015T145615,NBPS,206,usp2020uhil,[],P,NB,,HHZ,-4.393969,-41.445618,124.19680805831756,-3.545318365,-40.71306229,0.0,2020-10-15T14:56:36.462897Z,2020-10-15T14:56:15.270920Z,2020-10-15T14:56:25.462897Z,2020-10-15T14:57:25.462897Z,earthquake,2.060342019,known,20201015T145615/NB_NBPS_20201015T145615.mseed,"['E', 'N', 'Z']",[],1.0,0.02,0.98,Anthropogenic,1.0,0.025,0.975,Anthropogenic
20201221T210842,CMC01,298,usp2020zafl,[],P,ON,,HHZ,-15.360055,-39.519089,147.6947074801805,-15.99483333,-38.30716667,0.0,2020-12-21T21:09:07.446853Z,2020-12-21T21:08:42.200000Z,2020-12-21T21:08:56.446853Z,2020-12-21T21:09:56.446853Z,earthquake,3.097039721,known,20201221T210842/ON_CMC01_20201221T210842.mseed,"['Z', '1', '2']",[],0.0,1.0,0.0,Natural,0.0,0.891,0.109,Natural
20201221T210842,GUA01,297,usp2020zafl,[],P,ON,,HHZ,-16.58349,-39.805342,172.865911548705,-15.99483333,-38.30716667,0.0,2020-12-21T21:09:11.795193Z,2020-12-21T21:08:42.200000Z,2020-12-21T21:09:00.795193Z,2020-12-21T21:10:00.795193Z,earthquake,3.097039721,known,20201221T210842/ON_GUA01_20201221T210842.mseed,"['E', 'N', 'Z']",[],0.0,0.997,0.003,Natural,0.0,0.891,0.109,Natural
20201221T210842,NBIT,296,usp2020zafl,[],P,NB,,HHZ,-14.930689,-39.434579,168.82864301265974,-15.99483333,-38.30716667,0.0,2020-12-21T21:09:09.998615Z,2020-12-21T21:08:42.200000Z,2020-12-21T21:08:58.998615Z,2020-12-21T21:09:58.998615Z,earthquake,3.097039721,known,20201221T210842/NB_NBIT_20201221T210842.mseed,"['E', 'N', 'Z']",[],0.0,0.676,0.324,Natural,0.0,0.891,0.109,Natural
20201226T044209,ITQB,328,usp2020zick,[],P,BL,,HHZ,-29.6638,-56.6275,312.355501426459,-26.84537315,-56.60614395,0.0,2020-12-26T04:42:54.409692Z,2020-12-26T04:42:09.649515Z,2020-12-26T04:42:43.409692Z,2020-12-26T04:43:43.409692Z,earthquake,3.324044128,known,20201226T044209/BL_ITQB_20201226T044209.mseed,"['2', '1', 'Z']",[],0.0,0.98,0.02,Natural,0.0,0.99,0.01,Natural
20201226T044209,SJPY,329,usp2020zick,[],P,XC,,HHZ,-24.99722,-56.10375,210.8457494106879,-26.84537315,-56.60614395,0.0,2020-12-26T04:42:43.481874Z,2020-12-26T04:42:09.649515Z,2020-12-26T04:42:32.481874Z,2020-12-26T04:43:32.481874Z,earthquake,3.324044128,known,20201226T044209/XC_SJPY_20201226T044209.mseed,"['E', 'N', 'Z']",[],0.0,0.999,0.001,Natural,0.0,0.99,0.01,Natural
20210124T042330,NBMA,353,usp2021bqjg,[],P,NB,,HHZ,-7.365352,-38.764058,363.9084406420281,-10.10620403,-36.93414688,0.0,2021-01-24T04:24:22.798613Z,2021-01-24T04:23:30.062340Z,2021-01-24T04:24:11.798613Z,2021-01-24T04:25:11.798613Z,earthquake,1.779368161,known,20210124T042330/NB_NBMA_20210124T042330.mseed,"['E', 'N', 'Z']",[],0.0,0.899,0.101,Natural,0.0,0.938,0.062,Natural
20210124T042330,NBPN,354,usp2021bqjg,[],P,NB,,HHZ,-10.847009,-40.198957,366.68615330060646,-10.10620403,-36.93414688,0.0,2021-01-24T04:24:22.590880Z,2021-01-24T04:23:30.062340Z,2021-01-24T04:24:11.590880Z,2021-01-24T04:25:11.590880Z,earthquake,1.779368161,known,20210124T042330/NB_NBPN_20210124T042330.mseed,"['E', 'N', 'Z']",[],0.0,0.915,0.085,Natural,0.0,0.938,0.062,Natural
20210124T042330,NBTA,355,usp2021bqjg,[],P,NB,,HHZ,-9.121932,-38.063215,164.95711402377427,-10.10620403,-36.93414688,0.0,2021-01-24T04:23:57.325445Z,2021-01-24T04:23:30.062340Z,2021-01-24T04:23:46.325445Z,2021-01-24T04:24:46.325445Z,earthquake,1.779368161,known,20210124T042330/NB_NBTA_20210124T042330.mseed,"['E', 'N', 'Z']",[],0.0,1.0,0.0,Natural,0.0,0.938,0.062,Natural
20210207T154000,NBMA,64,usp2021cquq,[],P,NB,,HHZ,-7.365352,-38.764058,361.9377381488838,-4.134428024,-38.24222565,0.0,2021-02-07T15:40:53.056790Z,2021-02-07T15:40:00.862947Z,2021-02-07T15:40:42.056790Z,2021-02-07T15:41:42.056790Z,earthquake,1.848470441,known,20210207T154000/NB_NBMA_20210207T154000.mseed,"['E', 'N', 'Z']",[],0.0,0.858,0.142,Natural,0.0,0.953,0.047,Natural
20210207T154000,NBMO,63,usp2021cquq,[],P,NB,,HHZ,-3.310348,-40.042927,219.81006062934904,-4.134428024,-38.24222565,0.0,2021-02-07T15:40:35.459336Z,2021-02-07T15:40:00.862947Z,2021-02-07T15:40:24.459336Z,2021-02-07T15:41:24.459336Z,earthquake,1.848470441,known,20210207T154000/NB_NBMO_20210207T154000.mseed,"['E', 'N', 'Z']",[],0.0,1.0,0.0,Natural,0.0,0.953,0.047,Natural
20210207T154000,NBPA,62,usp2021cquq,[],P,NB,,HHZ,-5.75028,-37.112047,218.263564436758,-4.134428024,-38.24222565,0.0,2021-02-07T15:40:35.253622Z,2021-02-07T15:40:00.862947Z,2021-02-07T15:40:24.253622Z,2021-02-07T15:41:24.253622Z,earthquake,1.848470441,known,20210207T154000/NB_NBPA_20210207T154000.mseed,"['E', 'N', 'Z']",[],0.0,1.0,0.0,Natural,0.0,0.953,0.047,Natural
20210317T013835,BB19B,200,usp2021fhdz,[],P,BL,,HHZ,-21.0662,-48.5279,164.32973108063385,-21.92516667,-49.82116667,0.0,2021-03-17T01:39:01.645551Z,2021-03-17T01:38:35.020000Z,2021-03-17T01:38:50.645551Z,2021-03-17T01:39:50.645551Z,earthquake,3.005249203,known,20210317T013835/BL_BB19B_20210317T013835.mseed,"['E', 'N', 'Z']",[],0.0,0.995,0.005,Natural,0.0,0.778,0.222,Natural
20210317T013835,CANS,196,usp2021fhdz,[],P,BL,,HHZ,-20.2896,-46.3921,399.6256253905872,-21.92516667,-49.82116667,0.0,2021-03-17T01:39:30.547605Z,2021-03-17T01:38:35.020000Z,2021-03-17T01:39:19.547605Z,2021-03-17T01:40:19.547605Z,earthquake,3.005249203,known,20210317T013835/BL_CANS_20210317T013835.mseed,"['E', 'N', 'Z']",[],1.0,0.261,0.739,Anthropogenic,0.0,0.778,0.222,Natural
20210317T013835,PCMB,201,usp2021fhdz,[],P,BL,,HHZ,-21.6074,-51.2619,153.11258753407546,-21.92516667,-49.82116667,0.0,2021-03-17T01:38:59.990305Z,2021-03-17T01:38:35.020000Z,2021-03-17T01:38:48.990305Z,2021-03-17T01:39:48.990305Z,earthquake,3.005249203,known,20210317T013835/BL_PCMB_20210317T013835.mseed,"['E', 'N', 'Z']",[],0.0,0.999,0.001,Natural,0.0,0.778,0.222,Natural
20210317T013835,PET01,198,usp2021fhdz,[],P,ON,,HHZ,-24.290108,-47.275344,369.5856614011034,-21.92516667,-49.82116667,0.0,2021-03-17T01:39:27.443684Z,2021-03-17T01:38:35.020000Z,2021-03-17T01:39:16.443684Z,2021-03-17T01:40:16.443684Z,earthquake,3.005249203,known,20210317T013835/ON_PET01_20210317T013835.mseed,"['E', 'N', 'Z']",[],0.0,0.763,0.237,Natural,0.0,0.778,0.222,Natural
20210317T013835,PTGB,197,usp2021fhdz,[],P,BL,,HHZ,-24.72095,-52.01182,382.1698292187232,-21.92516667,-49.82116667,0.0,2021-03-17T01:39:28.483792Z,2021-03-17T01:38:35.020000Z,2021-03-17T01:39:17.483792Z,2021-03-17T01:40:17.483792Z,earthquake,3.005249203,known,20210317T013835/BL_PTGB_20210317T013835.mseed,"['E', 'N', 'Z']",[],0.0,0.904,0.096,Natural,0.0,0.778,0.222,Natural
20210317T013835,VABB,199,usp2021fhdz,[],P,BL,,HHZ,-23.0021,-46.9657,317.15761334256734,-21.92516667,-49.82116667,0.0,2021-03-17T01:39:21.039882Z,2021-03-17T01:38:35.020000Z,2021-03-17T01:39:10.039882Z,2021-03-17T01:40:10.039882Z,earthquake,3.005249203,known,20210317T013835/BL_VABB_20210317T013835.mseed,"['E', 'N', 'Z']",[],0.0,0.746,0.254,Natural,0.0,0.778,0.222,Natural
20210327T213536,NBMO,67,usp2021gayn,[],P,NB,,HHZ,-3.310348,-40.042927,398.1086061641122,-5.870241642,-37.52006912,0.0,2021-03-27T21:36:32.728568Z,2021-03-27T21:35:36.414292Z,2021-03-27T21:36:21.728568Z,2021-03-27T21:37:21.728568Z,earthquake,2.490423531,known,20210327T213536/NB_NBMO_20210327T213536.mseed,"['E', 'N', 'Z']",[],0.0,0.993,0.007,Natural,0.0,0.935,0.065,Natural
20210327T213536,NBPA,69,usp2021gayn,[],P,NB,,HHZ,-5.75028,-37.112047,47.09601238240781,-5.870241642,-37.52006912,0.0,2021-03-27T21:35:44.870679Z,2021-03-27T21:35:36.414292Z,2021-03-27T21:35:33.870679Z,2021-03-27T21:36:33.870679Z,earthquake,2.490423531,known,20210327T213536/NB_NBPA_20210327T213536.mseed,"['E', 'N', 'Z']",[],0.0,0.877,0.123,Natural,0.0,0.935,0.065,Natural
20210403T144101,BOAV,51,usp2021gnfj,[],P,BR,,HHZ,2.3953,-60.5225,116.17002632578183,2.700666667,-59.523,0.0,2021-04-03T14:41:19.786527Z,2021-04-03T14:41:01.080000Z,2021-04-03T14:41:08.786527Z,2021-04-03T14:42:08.786527Z,earthquake,4.151803025,suspected,20210403T144101/BR_BOAV_20210403T144101.mseed,"['1', '2', 'Z']",[],0.0,0.999,0.001,Natural,0.0,0.579,0.421,Natural
20210403T144101,GUY1,54,usp2021gnfj,[],P,XV,,HHZ,2.79532,-59.54006,10.636977119065747,2.700666667,-59.523,0.0,2021-04-03T14:41:02.835628Z,2021-04-03T14:41:01.080000Z,2021-04-03T14:40:51.835628Z,2021-04-03T14:41:51.835628Z,earthquake,4.151803025,suspected,20210403T144101/XV_GUY1_20210403T144101.mseed,"['1', '2', 'Z']",[],1.0,0.246,0.754,Anthropogenic,0.0,0.579,0.421,Natural
20210403T144101,GUY2,53,usp2021gnfj,[],P,XV,,HHZ,2.6527,-59.62017,12.036799398427174,2.700666667,-59.523,0.0,2021-04-03T14:41:03.051196Z,2021-04-03T14:41:01.080000Z,2021-04-03T14:40:52.051196Z,2021-04-03T14:41:52.051196Z,earthquake,4.151803025,suspected,20210403T144101/XV_GUY2_20210403T144101.mseed,"['1', '2', 'Z']",[],1.0,0.275,0.725,Anthropogenic,0.0,0.579,0.421,Natural
20210403T144101,GUY3,52,usp2021gnfj,[],P,XV,,HHZ,2.638405,-59.432881,12.15825308989874,2.700666667,-59.523,0.0,2021-04-03T14:41:03.060521Z,2021-04-03T14:41:01.080000Z,2021-04-03T14:40:52.060521Z,2021-04-03T14:41:52.060521Z,earthquake,4.151803025,suspected,20210403T144101/XV_GUY3_20210403T144101.mseed,"['Z', '1', '2']",[' Sampling rate is 200.0'],1.0,0.402,0.598,Anthropogenic,0.0,0.579,0.421,Natural
20210403T144101,GUY4,55,usp2021gnfj,[],P,XV,,HHZ,2.701044,-59.498237,2.7538790026007662,2.700666667,-59.523,0.0,2021-04-03T14:41:01.484265Z,2021-04-03T14:41:01.080000Z,2021-04-03T14:40:50.484265Z,2021-04-03T14:41:50.484265Z,earthquake,4.151803025,suspected,20210403T144101/XV_GUY4_20210403T144101.mseed,"['1', '2', 'Z']",[' Sampling rate is 200.0'],0.0,0.972,0.028,Natural,0.0,0.579,0.421,Natural
20210411T042102,CZSB,275,usp2021hbax,[],P,BR,,HHZ,-7.7299,-72.7049,227.5827532133253,-9.243307114,-71.30442047,553078.7964,2021-04-11T04:22:12.958208Z,2021-04-11T04:21:02.674738Z,2021-04-11T04:22:01.958208Z,2021-04-11T04:23:01.958208Z,earthquake,4.264534065,known,20210411T042102/BR_CZSB_20210411T042102.mseed,"['E', 'N', 'Z']",[],1.0,0.31,0.69,Anthropogenic,1.0,0.31,0.69,Anthropogenic
20210426T050212,BB19B,305,usp2021icmv,[],P,BL,,HHZ,-21.0662,-48.5279,31.672733623985227,-21.34540939,-48.46152878,0.0,2021-04-26T05:02:17.962361Z,2021-04-26T05:02:12.409521Z,2021-04-26T05:02:06.962361Z,2021-04-26T05:03:06.962361Z,earthquake,1.884351706,suspected,20210426T050212/BL_BB19B_20210426T050212.mseed,"['E', 'N', 'Z']",[],0.0,0.946,0.054,Natural,0.0,0.876,0.124,Natural
20210426T050212,CANS,304,usp2021icmv,[],P,BL,,HHZ,-20.2896,-46.3921,245.0862762931129,-21.34540939,-48.46152878,0.0,2021-04-26T05:02:50.301922Z,2021-04-26T05:02:12.409521Z,2021-04-26T05:02:39.301922Z,2021-04-26T05:03:39.301922Z,earthquake,1.884351706,suspected,20210426T050212/BL_CANS_20210426T050212.mseed,"['E', 'N', 'Z']",[],0.0,0.986,0.014,Natural,0.0,0.876,0.124,Natural
20210426T050212,PCMB,303,usp2021icmv,[],P,BL,,HHZ,-21.6074,-51.2619,291.6637368178364,-21.34540939,-48.46152878,0.0,2021-04-26T05:02:56.612266Z,2021-04-26T05:02:12.409521Z,2021-04-26T05:02:45.612266Z,2021-04-26T05:03:45.612266Z,earthquake,1.884351706,suspected,20210426T050212/BL_PCMB_20210426T050212.mseed,"['E', 'N', 'Z']",[],0.0,0.609,0.391,Natural,0.0,0.876,0.124,Natural
20210426T050212,PMNB,302,usp2021icmv,[],P,BL,,HHZ,-18.54,-46.44,375.7989287571229,-21.34540939,-48.46152878,0.0,2021-04-26T05:03:06.465975Z,2021-04-26T05:02:12.409521Z,2021-04-26T05:02:55.465975Z,2021-04-26T05:03:55.465975Z,earthquake,1.884351706,suspected,20210426T050212/BL_PMNB_20210426T050212.mseed,"['E', 'N', 'Z']",[],0.0,0.964,0.036,Natural,0.0,0.876,0.124,Natural
20210506T232226,BOAV,245,usp2021iwed,[],P,BR,,HHZ,2.3953,-60.5225,345.99771781396146,-0.522,-61.6468,0.0,2021-05-06T23:23:15.983000Z,2021-05-06T23:22:26.000000Z,2021-05-06T23:23:04.983000Z,2021-05-06T23:24:04.983000Z,earthquake,4.024181365,suspected,20210506T232226/BR_BOAV_20210506T232226.mseed,"['1', '2', 'Z']",[],0.0,0.995,0.005,Natural,0.0,0.843,0.157,Natural
20210506T232226,MACA,246,usp2021iwed,[],P,BR,,HHZ,-3.1615,-60.6838,310.9066827378089,-0.522,-61.6468,0.0,2021-05-06T23:23:12.051993Z,2021-05-06T23:22:26.000000Z,2021-05-06T23:23:01.051993Z,2021-05-06T23:24:01.051993Z,earthquake,4.024181365,suspected,20210506T232226/BR_MACA_20210506T232226.mseed,"['E', 'N', 'Z']",[],0.0,0.692,0.308,Natural,0.0,0.843,0.157,Natural
20210509T002222,DIAM,212,usp2021izxd,[],P,BL,,HHZ,-18.2952,-43.6648,258.41485343076374,-15.99998188,-43.21845627,0.0,2021-05-09T00:23:02.085752Z,2021-05-09T00:22:22.732477Z,2021-05-09T00:22:51.085752Z,2021-05-09T00:23:51.085752Z,earthquake,2.848890706,known,20210509T002222/BL_DIAM_20210509T002222.mseed,"['E', 'N', 'Z']",[],0.0,1.0,0.0,Natural,0.0,0.992,0.008,Natural
20210509T002222,SJMB,211,usp2021izxd,[],P,BL,,HHZ,-18.702916,-41.184694,369.052109794533,-15.99998188,-43.21845627,0.0,2021-05-09T00:23:15.879191Z,2021-05-09T00:22:22.732477Z,2021-05-09T00:23:04.879191Z,2021-05-09T00:24:04.879191Z,earthquake,2.848890706,known,20210509T002222/BL_SJMB_20210509T002222.mseed,"['E', 'N', 'Z']",[],0.0,0.984,0.016,Natural,0.0,0.992,0.008,Natural
20210522T140809,SNDB,266,usp2021jyrx,[],P,BR,,HHZ,-11.9742,-51.2943,193.48374192596543,-12.04318047,-49.51895523,0.0,2021-05-22T14:08:40.409457Z,2021-05-22T14:08:09.320294Z,2021-05-22T14:08:29.409457Z,2021-05-22T14:09:29.409457Z,earthquake,2.531523398,known,20210522T140809/BR_SNDB_20210522T140809.mseed,"['E', 'N', 'Z']",[],0.0,0.996,0.004,Natural,0.0,0.996,0.004,Natural
20210610T014044,NBPN,111,usp2021lglv,[],P,NB,,HHZ,-10.847009,-40.198957,51.33347595387962,-11.1907,-40.5146,0.0,2021-06-10T01:40:52.241794Z,2021-06-10T01:40:44.000000Z,2021-06-10T01:40:41.241794Z,2021-06-10T01:41:41.241794Z,earthquake,1.255653144,known,20210610T014044/NB_NBPN_20210610T014044.mseed,"['E', 'N', 'Z']",[],1.0,0.172,0.828,Anthropogenic,1.0,0.172,0.828,Anthropogenic
20210918T143309,NBMA,109,usp2021sidp,[],P,NB,,HHZ,-7.365352,-38.764058,392.18527944339553,-6.800964355,-35.25930786,0.0,2021-09-18T14:34:05.842852Z,2021-09-18T14:33:09.910487Z,2021-09-18T14:33:54.842852Z,2021-09-18T14:34:54.842852Z,earthquake,2.032556603,known,20210918T143309/NB_NBMA_20210918T143309.mseed,"['E', 'N', 'Z']",[],1.0,0.126,0.874,Anthropogenic,1.0,0.078,0.922,Anthropogenic
20210918T143309,NBPA,110,usp2021sidp,[],P,NB,,HHZ,-5.75028,-37.112047,235.65219783747244,-6.800964355,-35.25930786,0.0,2021-09-18T14:33:46.479998Z,2021-09-18T14:33:09.910487Z,2021-09-18T14:33:35.479998Z,2021-09-18T14:34:35.479998Z,earthquake,2.032556603,known,20210918T143309/NB_NBPA_20210918T143309.mseed,"['E', 'N', 'Z']",[],1.0,0.03,0.97,Anthropogenic,1.0,0.078,0.922,Anthropogenic
20211012T173216,NBMA,260,usp2021uafp,[],P,NB,,HHZ,-7.365352,-38.764058,397.6432172406437,-5.426810265,-35.73668289,0.0,2021-10-12T17:33:13.156783Z,2021-10-12T17:32:16.490501Z,2021-10-12T17:33:02.156783Z,2021-10-12T17:34:02.156783Z,earthquake,2.36534766,known,20211012T173216/NB_NBMA_20211012T173216.mseed,"['E', 'N', 'Z']",[],0.0,0.666,0.334,Natural,0.0,0.832,0.168,Natural
20211012T173216,NBPA,261,usp2021uafp,[],P,NB,,HHZ,-5.75028,-37.112047,156.5239169488146,-5.426810265,-35.73668289,0.0,2021-10-12T17:32:42.972130Z,2021-10-12T17:32:16.490501Z,2021-10-12T17:32:31.972130Z,2021-10-12T17:33:31.972130Z,earthquake,2.36534766,known,20211012T173216/NB_NBPA_20211012T173216.mseed,"['E', 'N', 'Z']",[],0.0,0.997,0.003,Natural,0.0,0.832,0.168,Natural
20220115T063206,CANS,29,usp2022babz,[],P,BL,,HHZ,-20.2896,-46.3921,253.90061517215705,-21.08945084,-48.67615891,0.0,2022-01-15T06:32:45.659896Z,2022-01-15T06:32:06.921709Z,2022-01-15T06:32:34.659896Z,2022-01-15T06:33:34.659896Z,earthquake,2.033963173,suspected,20220115T063206/BL_CANS_20220115T063206.mseed,"['E', 'N', 'Z']",[],0.0,0.678,0.322,Natural,0.0,0.835,0.165,Natural
20220115T063206,FRTB,30,usp2022babz,[],P,BL,,HHZ,-23.3439,-49.564,265.8936810905831,-21.08945084,-48.67615891,0.0,2022-01-15T06:32:47.490127Z,2022-01-15T06:32:06.921709Z,2022-01-15T06:32:36.490127Z,2022-01-15T06:33:36.490127Z,earthquake,2.033963173,suspected,20220115T063206/BL_FRTB_20220115T063206.mseed,"['E', 'N', 'Z']",[],0.0,0.876,0.124,Natural,0.0,0.835,0.165,Natural
20220115T063206,ITRB,28,usp2022babz,[],P,BL,,HHZ,-19.7042,-50.359,233.18020346756128,-21.08945084,-48.67615891,0.0,2022-01-15T06:32:43.244048Z,2022-01-15T06:32:06.921709Z,2022-01-15T06:32:32.244048Z,2022-01-15T06:33:32.244048Z,earthquake,2.033963173,suspected,20220115T063206/BL_ITRB_20220115T063206.mseed,"['E', 'N', 'Z']",[],0.0,0.982,0.018,Natural,0.0,0.835,0.165,Natural
20220115T063206,VABB,31,usp2022babz,[],P,BL,,HHZ,-23.0021,-46.9657,275.7294591452129,-21.08945084,-48.67615891,0.0,2022-01-15T06:32:48.382482Z,2022-01-15T06:32:06.921709Z,2022-01-15T06:32:37.382482Z,2022-01-15T06:33:37.382482Z,earthquake,2.033963173,suspected,20220115T063206/BL_VABB_20220115T063206.mseed,"['E', 'N', 'Z']",[],0.0,0.805,0.195,Natural,0.0,0.835,0.165,Natural
