Event,Station,index,EventID,Error,Pick,Network,Location,Channel,Latitude,Longitude,Distance,Origem Latitude,Origem Longitude,Depth/km,Pick Time,Origin Time,Start Time,End Time,Cat,MLv,Certainty,Path,Compo,Pick Pred,Pick Prob_Nat,Pick Prob_Ant,Pick Pred_final,Event Pred,Event Prob_Nat,Event Prob_Ant,Event Pred_final
20120208T184732,ESAR,928,usp2012cswi,[],P,BL,,HHZ,-23.0207,-44.4403,240.15230585028144,-24.56134415,-46.09851074,2000.0,2012-02-08T18:48:09.886932Z,2012-02-08T18:47:32.534268Z,2012-02-08T18:47:58.886932Z,2012-02-08T18:48:58.886932Z,earthquake,2.598904622,known,20120208T184732/BL_ESAR_20120208T184732.mseed,"[['E', 'N', 'Z']]",0.0,0.9599999785423279,0.03999999910593033,Natural,0.0,0.749,0.251,Natural
20120208T184732,FRTB,931,usp2012cswi,[],P,BL,,HHZ,-23.3439,-49.564,377.6242218356404,-24.56134415,-46.09851074,2000.0,2012-02-08T18:48:26.919464Z,2012-02-08T18:47:32.534268Z,2012-02-08T18:48:15.919464Z,2012-02-08T18:49:15.919464Z,earthquake,2.598904622,known,20120208T184732/BL_FRTB_20120208T184732.mseed,"[['E', 'N', 'Z']]",1.0,0.15000000596046448,0.8500000238418579,Anthropogenic,0.0,0.749,0.251,Natural
20120208T184732,JAC01,933,usp2012cswi,[],P,ON,,HHZ,-24.81142,-48.102354,204.6796385964892,-24.56134415,-46.09851074,2000.0,2012-02-08T18:48:05.509094Z,2012-02-08T18:47:32.534268Z,2012-02-08T18:47:54.509094Z,2012-02-08T18:48:54.509094Z,earthquake,2.598904622,known,20120208T184732/ON_JAC01_20120208T184732.mseed,"[['E', 'N', 'Z']]",0.0,1.0,0.0,Natural,0.0,0.749,0.251,Natural
20120208T184732,MAN01,935,usp2012cswi,[],P,ON,,HHZ,-22.86516,-43.964094,287.5071378137774,-24.56134415,-46.09851074,2000.0,2012-02-08T18:48:16.061279Z,2012-02-08T18:47:32.534268Z,2012-02-08T18:48:05.061279Z,2012-02-08T18:49:05.061279Z,earthquake,2.598904622,known,20120208T184732/ON_MAN01_20120208T184732.mseed,"[['1', '2', 'Z']]",0.0,0.9959999918937683,0.004000000189989805,Natural,0.0,0.749,0.251,Natural
20120208T184732,PET01,934,usp2012cswi,[],P,ON,,HHZ,-24.290108,-47.275344,123.0704462191412,-24.56134415,-46.09851074,2000.0,2012-02-08T18:47:54.173156Z,2012-02-08T18:47:32.534268Z,2012-02-08T18:47:43.173156Z,2012-02-08T18:48:43.173156Z,earthquake,2.598904622,known,20120208T184732/ON_PET01_20120208T184732.mseed,"[['E', 'N', 'Z']]",0.0,0.9959999918937683,0.004000000189989805,Natural,0.0,0.749,0.251,Natural
20120208T184732,RCLB,927,usp2012cswi,[],P,BL,1.0,HHZ,-22.4191,-47.531,278.74306692709104,-24.56134415,-46.09851074,2000.0,2012-02-08T18:48:14.627777Z,2012-02-08T18:47:32.534268Z,2012-02-08T18:48:03.627777Z,2012-02-08T18:49:03.627777Z,earthquake,2.598904622,known,20120208T184732/BL_RCLB_20120208T184732.mseed,"[['E', 'N', 'Z']]",0.0,0.7760000228881836,0.2240000069141388,Natural,0.0,0.749,0.251,Natural
20120208T184732,SICB,930,usp2012cswi,[],P,BL,,HHZ,-23.62495,-49.87701,397.9269691987657,-24.56134415,-46.09851074,2000.0,2012-02-08T18:48:28.487121Z,2012-02-08T18:47:32.534268Z,2012-02-08T18:48:17.487121Z,2012-02-08T18:49:17.487121Z,earthquake,2.598904622,known,20120208T184732/BL_SICB_20120208T184732.mseed,"[['E', 'N', 'Z']]",1.0,0.03400000184774399,0.9660000205039978,Anthropogenic,0.0,0.749,0.251,Natural
20120208T184732,SLP01,929,usp2012cswi,[],P,ON,,HHZ,-23.3243,-45.1559,167.26903719007134,-24.56134415,-46.09851074,2000.0,2012-02-08T18:48:00.424285Z,2012-02-08T18:47:32.534268Z,2012-02-08T18:47:49.424285Z,2012-02-08T18:48:49.424285Z,earthquake,2.598904622,known,20120208T184732/ON_SLP01_20120208T184732.mseed,"[['E', 'N', 'Z']]",0.0,1.0,0.0,Natural,0.0,0.749,0.251,Natural
20120208T184732,TIJ01,926,usp2012cswi,[],P,ON,,HHZ,-25.908848,-49.024241,330.4119294138942,-24.56134415,-46.09851074,2000.0,2012-02-08T18:48:18.183349Z,2012-02-08T18:47:32.534268Z,2012-02-08T18:48:07.183349Z,2012-02-08T18:49:07.183349Z,earthquake,2.598904622,known,20120208T184732/ON_TIJ01_20120208T184732.mseed,"[['E', 'N', 'Z']]",0.0,0.6330000162124634,0.367000013589859,Natural,0.0,0.749,0.251,Natural
20120208T184732,VAS01,932,usp2012cswi,[],P,ON,,HHZ,-22.280081,-43.442624,370.8002342580351,-24.56134415,-46.09851074,2000.0,2012-02-08T18:48:25.084289Z,2012-02-08T18:47:32.534268Z,2012-02-08T18:48:14.084289Z,2012-02-08T18:49:14.084289Z,earthquake,2.598904622,known,20120208T184732/ON_VAS01_20120208T184732.mseed,"[['E', 'N', 'Z']]",0.0,0.9449999928474426,0.054999999701976776,Natural,0.0,0.749,0.251,Natural
20120310T182547,NBPV,187,usp2012exme,[],P,NB,,HHZ,-6.417527,-35.290516,357.90777655224304,-3.657104731,-33.60528946,0.0,2012-03-10T18:26:39.694976Z,2012-03-10T18:25:47.940539Z,2012-03-10T18:26:28.694976Z,2012-03-10T18:27:28.694976Z,earthquake,2.839463079,suspected,20120310T182547/NB_NBPV_20120310T182547.mseed,"[['E', 'N', 'Z']]",0.0,0.9990000128746033,0.0010000000474974513,Natural,0.0,0.999,0.001,Natural
20120423T092847,DUB01,1980,usp2012hzep,[],P,ON,,HHZ,-22.080966,-42.374182,287.6767069999659,-23.41172028,-44.7796669,0.0,2012-04-23T09:29:30.370849Z,2012-04-23T09:28:47.105631Z,2012-04-23T09:29:19.370849Z,2012-04-23T09:30:19.370849Z,earthquake,2.118416116,known,20120423T092847/ON_DUB01_20120423T092847.mseed,"[['E', 'N', 'Z']]",0.0,0.9959999918937683,0.004000000189989805,Natural,0.0,0.966,0.034,Natural
20120423T092847,ESAR,1983,usp2012hzep,[],P,BL,,HHZ,-23.0207,-44.4403,55.51507722542875,-23.41172028,-44.7796669,0.0,2012-04-23T09:28:56.762451Z,2012-04-23T09:28:47.105631Z,2012-04-23T09:28:45.762451Z,2012-04-23T09:29:45.762451Z,earthquake,2.118416116,known,20120423T092847/BL_ESAR_20120423T092847.mseed,"[['E', 'N', 'Z']]",0.0,0.9570000171661377,0.0430000014603138,Natural,0.0,0.966,0.034,Natural
20120423T092847,MAN01,1982,usp2012hzep,[],P,ON,,HHZ,-22.86516,-43.964094,103.15429954844728,-23.41172028,-44.7796669,0.0,2012-04-23T09:29:04.755493Z,2012-04-23T09:28:47.105631Z,2012-04-23T09:28:53.755493Z,2012-04-23T09:29:53.755493Z,earthquake,2.118416116,known,20120423T092847/ON_MAN01_20120423T092847.mseed,"[['1', '2', 'Z']]",0.0,0.9470000267028809,0.05299999937415123,Natural,0.0,0.966,0.034,Natural
20120423T092847,PET01,1985,usp2012hzep,[],P,ON,,HHZ,-24.290108,-47.275344,272.2031891273038,-23.41172028,-44.7796669,0.0,2012-04-23T09:29:27.727233Z,2012-04-23T09:28:47.105631Z,2012-04-23T09:29:16.727233Z,2012-04-23T09:30:16.727233Z,earthquake,2.118416116,known,20120423T092847/ON_PET01_20120423T092847.mseed,"[['E', 'N', 'Z']]",0.0,0.9670000076293945,0.032999999821186066,Natural,0.0,0.966,0.034,Natural
20120423T092847,SLP01,1984,usp2012hzep,[],P,ON,,HHZ,-23.3243,-45.1559,39.66668038934037,-23.41172028,-44.7796669,0.0,2012-04-23T09:28:54.024658Z,2012-04-23T09:28:47.105631Z,2012-04-23T09:28:43.024658Z,2012-04-23T09:29:43.024658Z,earthquake,2.118416116,known,20120423T092847/ON_SLP01_20120423T092847.mseed,"[['E', 'N', 'Z']]",0.0,0.9350000023841858,0.06499999761581421,Natural,0.0,0.966,0.034,Natural
20120423T092847,VAS01,1981,usp2012hzep,[],P,ON,,HHZ,-22.280081,-43.442624,185.8404257845764,-23.41172028,-44.7796669,0.0,2012-04-23T09:29:17.311401Z,2012-04-23T09:28:47.105631Z,2012-04-23T09:29:06.311401Z,2012-04-23T09:30:06.311401Z,earthquake,2.118416116,known,20120423T092847/ON_VAS01_20120423T092847.mseed,"[['E', 'N', 'Z']]",0.0,0.9940000176429749,0.006000000052154064,Natural,0.0,0.966,0.034,Natural
20120424T013412,PEXB,1388,bsb20120424013413,[],P,BL,,HHZ,-12.10584,-48.30085,203.41485681351816,-13.75092983,-49.13815308,0.0,2012-04-24T01:34:45.067420Z,2012-04-24T01:34:12.698199Z,2012-04-24T01:34:34.067420Z,2012-04-24T01:35:34.067420Z,earthquake,3.148031882,known,20120424T013412/BL_PEXB_20120424T013412.mseed,"[['E', 'N', 'Z']]",0.0,0.9990000128746033,0.0010000000474974513,Natural,0.0,0.999,0.001,Natural
20120619T143550,ALF01,1538,usp2012lzsk,[],P,ON,,HHZ,-20.616865,-40.725213,258.4226035131492,-22.18578339,-42.57048035,0.0,2012-06-19T14:36:29.767303Z,2012-06-19T14:35:50.122594Z,2012-06-19T14:36:18.767303Z,2012-06-19T14:37:18.767303Z,earthquake,2.142427942,known,20120619T143550/ON_ALF01_20120619T143550.mseed,"[['E', 'N', 'Z']]",0.0,0.8700000047683716,0.12999999523162842,Natural,0.0,0.918,0.082,Natural
20120619T143550,BSCB,1537,usp2012lzsk,[],P,BL,,HHZ,-20.9984,-44.7635,262.4022989752867,-22.18578339,-42.57048035,0.0,2012-06-19T14:36:29.971832Z,2012-06-19T14:35:50.122594Z,2012-06-19T14:36:18.971832Z,2012-06-19T14:37:18.971832Z,earthquake,2.142427942,known,20120619T143550/BL_BSCB_20120619T143550.mseed,"[['Z', 'N', 'E']]",0.0,0.9750000238418579,0.02500000037252903,Natural,0.0,0.918,0.082,Natural
20120619T143550,CAM01,1541,usp2012lzsk,[],P,ON,,HHZ,-21.825656,-41.657401,102.36867529446648,-22.18578339,-42.57048035,0.0,2012-06-19T14:36:08.069793Z,2012-06-19T14:35:50.122594Z,2012-06-19T14:35:57.069793Z,2012-06-19T14:36:57.069793Z,earthquake,2.142427942,known,20120619T143550/ON_CAM01_20120619T143550.mseed,"[['1', '2', 'Z']]",0.0,0.7250000238418579,0.2750000059604645,Natural,0.0,0.918,0.082,Natural
20120619T143550,DUB01,1543,usp2012lzsk,[],P,ON,,HHZ,-22.080966,-42.374182,23.341472606369443,-22.18578339,-42.57048035,0.0,2012-06-19T14:35:55.246490Z,2012-06-19T14:35:50.122594Z,2012-06-19T14:35:44.246490Z,2012-06-19T14:36:44.246490Z,earthquake,2.142427942,known,20120619T143550/ON_DUB01_20120619T143550.mseed,"[['E', 'N', 'Z']]",0.0,0.9120000004768372,0.08799999952316284,Natural,0.0,0.918,0.082,Natural
20120619T143550,ESAR,1539,usp2012lzsk,[],P,BL,,HHZ,-23.0207,-44.4403,213.3275168267925,-22.18578339,-42.57048035,0.0,2012-06-19T14:36:23.929870Z,2012-06-19T14:35:50.122594Z,2012-06-19T14:36:12.929870Z,2012-06-19T14:37:12.929870Z,earthquake,2.142427942,known,20120619T143550/BL_ESAR_20120619T143550.mseed,"[['E', 'N', 'Z']]",0.0,0.9120000004768372,0.08799999952316284,Natural,0.0,0.918,0.082,Natural
20120619T143550,MAN01,1540,usp2012lzsk,[],P,ON,,HHZ,-22.86516,-43.964094,161.90969258681469,-22.18578339,-42.57048035,0.0,2012-06-19T14:36:16.141418Z,2012-06-19T14:35:50.122594Z,2012-06-19T14:36:05.141418Z,2012-06-19T14:37:05.141418Z,earthquake,2.142427942,known,20120619T143550/ON_MAN01_20120619T143550.mseed,"[['1', '2', 'Z']]",0.0,0.9850000143051147,0.014999999664723873,Natural,0.0,0.918,0.082,Natural
20120619T143550,SLP01,1536,usp2012lzsk,[],P,ON,,HHZ,-23.3243,-45.1559,293.9424414168043,-22.18578339,-42.57048035,0.0,2012-06-19T14:36:33.905426Z,2012-06-19T14:35:50.122594Z,2012-06-19T14:36:22.905426Z,2012-06-19T14:37:22.905426Z,earthquake,2.142427942,known,20120619T143550/ON_SLP01_20120619T143550.mseed,"[['E', 'N', 'Z']]",0.0,0.996999979019165,0.003000000026077032,Natural,0.0,0.918,0.082,Natural
20120619T143550,VAS01,1542,usp2012lzsk,[],P,ON,,HHZ,-22.280081,-43.442624,90.51577822787404,-22.18578339,-42.57048035,0.0,2012-06-19T14:36:05.741119Z,2012-06-19T14:35:50.122594Z,2012-06-19T14:35:54.741119Z,2012-06-19T14:36:54.741119Z,earthquake,2.142427942,known,20120619T143550/ON_VAS01_20120619T143550.mseed,"[['E', 'N', 'Z']]",0.0,0.968999981880188,0.03099999949336052,Natural,0.0,0.918,0.082,Natural
20120714T064016,CNLB,1042,usp2012nsuh,[],P,BL,,HHZ,-29.3148,-50.8533,39.22964290993779,-29.36829758,-51.25260162,0.0,2012-07-14T06:40:22.859558Z,2012-07-14T06:40:16.645323Z,2012-07-14T06:40:11.859558Z,2012-07-14T06:41:11.859558Z,earthquake,2.824844757,known,20120714T064016/BL_CNLB_20120714T064016.mseed,"[['2', '1', 'Z']]",0.0,0.7170000076293945,0.28299999237060547,Natural,0.0,0.636,0.364,Natural
20120714T064016,CPSB,1040,usp2012nsuh,[],P,BL,,HHZ,-30.4123,-53.4432,241.1670938736038,-29.36829758,-51.25260162,0.0,2012-07-14T06:40:53.746002Z,2012-07-14T06:40:16.645323Z,2012-07-14T06:40:42.746002Z,2012-07-14T06:41:42.746002Z,earthquake,2.824844757,known,20120714T064016/BL_CPSB_20120714T064016.mseed,"[['E', 'N', 'Z']]",0.0,0.6510000228881836,0.3490000069141388,Natural,0.0,0.636,0.364,Natural
20120714T064016,ITAB,1041,usp2012nsuh,[],P,BL,,HHZ,-27.2349,-52.1313,251.6488962169001,-29.36829758,-51.25260162,0.0,2012-07-14T06:40:54.991607Z,2012-07-14T06:40:16.645323Z,2012-07-14T06:40:43.991607Z,2012-07-14T06:41:43.991607Z,earthquake,2.824844757,known,20120714T064016/BL_ITAB_20120714T064016.mseed,"[['E', 'N', 'Z']]",0.0,0.9649999737739563,0.03500000014901161,Natural,0.0,0.636,0.364,Natural
20120714T064016,PLTB,1039,usp2012nsuh,[],P,BL,,HHZ,-31.76367,-53.60445,348.4371524314945,-29.36829758,-51.25260162,0.0,2012-07-14T06:41:07.063568Z,2012-07-14T06:40:16.645323Z,2012-07-14T06:40:56.063568Z,2012-07-14T06:41:56.063568Z,earthquake,2.824844757,known,20120714T064016/BL_PLTB_20120714T064016.mseed,"[['E', 'N', 'Z']]",1.0,0.210999995470047,0.7889999747276306,Anthropogenic,0.0,0.636,0.364,Natural
20121105T110128,CNLB,433,usp2012vtkg,[],P,BL,,HHZ,-29.3148,-50.8533,181.9009346224648,-28.80874825,-49.0763588,0.0,2012-11-05T11:01:59.858596Z,2012-11-05T11:01:28.340560Z,2012-11-05T11:01:48.858596Z,2012-11-05T11:02:48.858596Z,earthquake,3.720452214,known,20121105T110128/BL_CNLB_20121105T110128.mseed,"[['2', '1', 'Z']]",0.0,1.0,0.0,Natural,0.0,0.969,0.031,Natural
20121105T110128,ITAB,434,usp2012vtkg,[],P,BL,,HHZ,-27.2349,-52.1313,347.36519063321487,-28.80874825,-49.0763588,0.0,2012-11-05T11:02:17.208831Z,2012-11-05T11:01:28.340560Z,2012-11-05T11:02:06.208831Z,2012-11-05T11:03:06.208831Z,earthquake,3.720452214,known,20121105T110128/BL_ITAB_20121105T110128.mseed,"[['E', 'N', 'Z']]",0.0,0.9390000104904175,0.061000000685453415,Natural,0.0,0.969,0.031,Natural
20121219T045439,BSFB,1868,usp2012yvih,[],P,BL,,HHZ,-18.83133,-40.84653,388.7963796702807,-16.88484764,-43.900383,0.0,2012-12-19T04:55:35.377685Z,2012-12-19T04:54:39.332212Z,2012-12-19T04:55:24.377685Z,2012-12-19T04:56:24.377685Z,earthquake,3.917557032,known,20121219T045439/BL_BSFB_20121219T045439.mseed,"[['N', 'Z', 'E']]",0.0,0.984000027179718,0.01600000075995922,Natural,0.0,0.977,0.023,Natural
20121219T045439,PMNB,1867,usp2012yvih,[],P,BL,,HHZ,-18.54,-46.44,325.76275714956694,-16.88484764,-43.900383,0.0,2012-12-19T04:55:27.534875Z,2012-12-19T04:54:39.332212Z,2012-12-19T04:55:16.534875Z,2012-12-19T04:56:16.534875Z,earthquake,3.917557032,known,20121219T045439/BL_PMNB_20121219T045439.mseed,"[['E', 'N', 'Z']]",0.0,0.9959999918937683,0.004000000189989805,Natural,0.0,0.977,0.023,Natural
20121219T045439,SJMB,1869,usp2012yvih,[],P,BL,,HHZ,-18.702916,-41.184694,351.2648555494921,-16.88484764,-43.900383,0.0,2012-12-19T04:55:31.139648Z,2012-12-19T04:54:39.332212Z,2012-12-19T04:55:20.139648Z,2012-12-19T04:56:20.139648Z,earthquake,3.917557032,known,20121219T045439/BL_SJMB_20121219T045439.mseed,"[['E', 'N', 'Z']]",0.0,0.9520000219345093,0.04800000041723251,Natural,0.0,0.977,0.023,Natural
20121222T085622,CNLB,522,usp2012zbcu,[],P,BL,,HHZ,-29.3148,-50.8533,33.4157399000712,-29.32301331,-51.19717407,2000.0,2012-12-22T08:56:26.444824Z,2012-12-22T08:56:22.524912Z,2012-12-22T08:56:15.444824Z,2012-12-22T08:57:15.444824Z,earthquake,3.352902875,known,20121222T085622/BL_CNLB_20121222T085622.mseed,"[['2', '1', 'Z']]",0.0,0.9779999852180481,0.02199999988079071,Natural,0.0,0.724,0.276,Natural
20121222T085622,CPSB,521,usp2012zbcu,[],P,BL,,HHZ,-30.4123,-53.4432,248.3217039270922,-29.32301331,-51.19717407,2000.0,2012-12-22T08:57:01.415832Z,2012-12-22T08:56:22.524912Z,2012-12-22T08:56:50.415832Z,2012-12-22T08:57:50.415832Z,earthquake,3.352902875,known,20121222T085622/BL_CPSB_20121222T085622.mseed,"[['E', 'N', 'Z']]",1.0,0.49399998784065247,0.5059999823570251,Anthropogenic,0.0,0.724,0.276,Natural
20121222T085622,ITAB,520,usp2012zbcu,[],P,BL,,HHZ,-27.2349,-52.1313,248.8955752330133,-29.32301331,-51.19717407,2000.0,2012-12-22T08:56:59.719650Z,2012-12-22T08:56:22.524912Z,2012-12-22T08:56:48.719650Z,2012-12-22T08:57:48.719650Z,earthquake,3.352902875,known,20121222T085622/BL_ITAB_20121222T085622.mseed,"[['E', 'N', 'Z']]",0.0,0.902999997138977,0.09700000286102295,Natural,0.0,0.724,0.276,Natural
20121222T085622,PLTB,519,usp2012zbcu,[],P,BL,,HHZ,-31.76367,-53.60445,355.7393396158506,-29.32301331,-51.19717407,2000.0,2012-12-22T08:57:11.130126Z,2012-12-22T08:56:22.524912Z,2012-12-22T08:57:00.130126Z,2012-12-22T08:58:00.130126Z,earthquake,3.352902875,known,20121222T085622/BL_PLTB_20121222T085622.mseed,"[['E', 'N', 'Z']]",0.0,0.5199999809265137,0.47999998927116394,Natural,0.0,0.724,0.276,Natural
20121223T060642,BSFB,1294,usp2012zcsr,[],P,BL,,HHZ,-18.83133,-40.84653,396.3787825167415,-16.66916084,-43.82633972,0.0,2012-12-23T06:07:39.435729Z,2012-12-23T06:06:42.663038Z,2012-12-23T06:07:28.435729Z,2012-12-23T06:08:28.435729Z,earthquake,2.939217207,known,20121223T060642/BL_BSFB_20121223T060642.mseed,"[['N', 'Z', 'E']]",1.0,0.04800000041723251,0.9520000219345093,Anthropogenic,0.0,0.712,0.288,Natural
20121223T060642,JANB,1297,usp2012zcsr,[],P,BR,,HHZ,-15.058097,-44.311197,185.68524199269484,-16.66916084,-43.82633972,0.0,2012-12-23T06:07:13.469436Z,2012-12-23T06:06:42.663038Z,2012-12-23T06:07:02.469436Z,2012-12-23T06:08:02.469436Z,earthquake,2.939217207,known,20121223T060642/BR_JANB_20121223T060642.mseed,"[['E', 'N', 'Z']]",0.0,0.9980000257492065,0.0020000000949949026,Natural,0.0,0.712,0.288,Natural
20121223T060642,PMNB,1296,usp2012zcsr,[],P,BL,,HHZ,-18.54,-46.44,346.1485504091549,-16.66916084,-43.82633972,0.0,2012-12-23T06:07:32.953842Z,2012-12-23T06:06:42.663038Z,2012-12-23T06:07:21.953842Z,2012-12-23T06:08:21.953842Z,earthquake,2.939217207,known,20121223T060642/BL_PMNB_20121223T060642.mseed,"[['E', 'N', 'Z']]",0.0,0.9819999933242798,0.017999999225139618,Natural,0.0,0.712,0.288,Natural
20121223T060642,SJMB,1295,usp2012zcsr,[],P,BL,,HHZ,-18.702916,-41.184694,359.4383027201669,-16.66916084,-43.82633972,0.0,2012-12-23T06:07:35.378967Z,2012-12-23T06:06:42.663038Z,2012-12-23T06:07:24.378967Z,2012-12-23T06:08:24.378967Z,earthquake,2.939217207,known,20121223T060642/BL_SJMB_20121223T060642.mseed,"[['E', 'N', 'Z']]",0.0,0.8190000057220459,0.1809999942779541,Natural,0.0,0.712,0.288,Natural
20130105T130147,NBCA,1862,usp2013aihu,[],P,NB,,HHZ,-8.225687,-36.013016,307.5550431320706,-5.447168827,-36.13132858,0.0,2013-01-05T13:02:32.395690Z,2013-01-05T13:01:47.168900Z,2013-01-05T13:02:21.395690Z,2013-01-05T13:03:21.395690Z,earthquake,2.6563333,known,20130105T130147/NB_NBCA_20130105T130147.mseed,"[['E', 'N', 'Z']]",0.0,0.9750000238418579,0.02500000037252903,Natural,0.0,0.871,0.129,Natural
20130105T130147,NBCL,1863,usp2013aihu,[],P,NB,,HHZ,-4.224377,-38.291041,275.09043951950565,-5.447168827,-36.13132858,0.0,2013-01-05T13:02:28.593521Z,2013-01-05T13:01:47.168900Z,2013-01-05T13:02:17.593521Z,2013-01-05T13:03:17.593521Z,earthquake,2.6563333,known,20130105T130147/NB_NBCL_20130105T130147.mseed,"[['E', 'N', 'Z']]",0.0,1.0,0.0,Natural,0.0,0.871,0.129,Natural
20130105T130147,NBLI,1864,usp2013aihu,[],P,NB,,HHZ,-7.364556,-36.949743,230.55998918700087,-5.447168827,-36.13132858,0.0,2013-01-05T13:02:23.069610Z,2013-01-05T13:01:47.168900Z,2013-01-05T13:02:12.069610Z,2013-01-05T13:03:12.069610Z,earthquake,2.6563333,known,20130105T130147/NB_NBLI_20130105T130147.mseed,"[['E', 'N', 'Z']]",0.0,1.0,0.0,Natural,0.0,0.871,0.129,Natural
20130105T130147,NBMA,1861,usp2013aihu,[],P,NB,,HHZ,-7.365352,-38.764058,360.3058237517325,-5.447168827,-36.13132858,0.0,2013-01-05T13:02:38.852203Z,2013-01-05T13:01:47.168900Z,2013-01-05T13:02:27.852203Z,2013-01-05T13:03:27.852203Z,earthquake,2.6563333,known,20130105T130147/NB_NBMA_20130105T130147.mseed,"[['E', 'N', 'Z']]",0.0,0.9909999966621399,0.008999999612569809,Natural,0.0,0.871,0.129,Natural
20130105T130147,NBPA,1866,usp2013aihu,[],P,NB,,HHZ,-5.75028,-37.112047,113.70837623873852,-5.447168827,-36.13132858,0.0,2013-01-05T13:02:07.538070Z,2013-01-05T13:01:47.168900Z,2013-01-05T13:01:56.538070Z,2013-01-05T13:02:56.538070Z,earthquake,2.6563333,known,20130105T130147/NB_NBPA_20130105T130147.mseed,"[['E', 'N', 'Z']]",0.0,0.9819999933242798,0.017999999225139618,Natural,0.0,0.871,0.129,Natural
20130105T130147,NBPB,1859,usp2013aihu,[],P,NB,,HHZ,-5.543242,-39.583619,382.6996831338697,-5.447168827,-36.13132858,0.0,2013-01-05T13:02:41.721740Z,2013-01-05T13:01:47.168900Z,2013-01-05T13:02:30.721740Z,2013-01-05T13:03:30.721740Z,earthquake,2.6563333,known,20130105T130147/NB_NBPB_20130105T130147.mseed,"[['E', 'N', 'Z']]",0.0,0.9919999837875366,0.00800000037997961,Natural,0.0,0.871,0.129,Natural
20130105T130147,NBPV,1865,usp2013aihu,[],P,NB,,HHZ,-6.417527,-35.290516,142.06551494603147,-5.447168827,-36.13132858,0.0,2013-01-05T13:02:10.909820Z,2013-01-05T13:01:47.168900Z,2013-01-05T13:01:59.909820Z,2013-01-05T13:02:59.909820Z,earthquake,2.6563333,known,20130105T130147/NB_NBPV_20130105T130147.mseed,"[['E', 'N', 'Z']]",0.0,1.0,0.0,Natural,0.0,0.871,0.129,Natural
20130105T130147,NBRF,1860,usp2013aihu,[],P,NB,,HHZ,-8.679466,-35.127172,374.278993675471,-5.447168827,-36.13132858,0.0,2013-01-05T13:02:40.645660Z,2013-01-05T13:01:47.168900Z,2013-01-05T13:02:29.645660Z,2013-01-05T13:03:29.645660Z,earthquake,2.6563333,known,20130105T130147/NB_NBRF_20130105T130147.mseed,"[['E', 'N', 'Z']]",1.0,0.02800000086426735,0.972000002861023,Anthropogenic,0.0,0.871,0.129,Natural
20130121T051932,AQDB,1078,usp2013bkyp,[],P,BL,,HHZ,-20.47579,-55.69971,359.41782498763433,-17.32059669,-56.50548553,0.0,2013-01-21T05:20:23.423896Z,2013-01-21T05:19:32.076853Z,2013-01-21T05:20:12.423896Z,2013-01-21T05:21:12.423896Z,earthquake,1.96781976,suspected,20130121T051932/BL_AQDB_20130121T051932.mseed,"[['E', 'N', 'Z']]",0.0,0.9800000190734863,0.019999999552965164,Natural,0.0,0.992,0.008,Natural
20130121T051932,SALB,1077,usp2013bkyp,[],P,BR,,HHZ,-15.90118,-55.69356,179.38570155580393,-17.32059669,-56.50548553,0.0,2013-01-21T05:20:01.722806Z,2013-01-21T05:19:32.076853Z,2013-01-21T05:19:50.722806Z,2013-01-21T05:20:50.722806Z,earthquake,1.96781976,suspected,20130121T051932/BR_SALB_20130121T051932.mseed,"[['E', 'N', 'Z']]",0.0,0.9980000257492065,0.0020000000949949026,Natural,0.0,0.992,0.008,Natural
20130121T051932,SALV,1079,usp2013bkyp,[],P,BR,,HHZ,-15.90118,-55.69356,179.38570155580393,-17.32059669,-56.50548553,0.0,2013-01-21T05:20:01.758636Z,2013-01-21T05:19:32.076853Z,2013-01-21T05:19:50.758636Z,2013-01-21T05:20:50.758636Z,earthquake,1.96781976,suspected,20130121T051932/BR_SALV_20130121T051932.mseed,"[['E', 'N', 'Z']]",0.0,0.9980000257492065,0.0020000000949949026,Natural,0.0,0.992,0.008,Natural
20130205T010256,ALF01,140,usp2013cmar,[],P,ON,,HHZ,-20.616865,-40.725213,201.12110513807576,-21.19421387,-42.55818939,0.0,2013-02-05T01:03:28.725737Z,2013-02-05T01:02:56.253829Z,2013-02-05T01:03:17.725737Z,2013-02-05T01:04:17.725737Z,earthquake,2.963358215,known,20130205T010256/ON_ALF01_20130205T010256.mseed,"[['E', 'N', 'Z']]",0.0,1.0,0.0,Natural,0.0,0.974,0.026,Natural
20130205T010256,BSCB,139,usp2013cmar,[],P,BL,,HHZ,-20.9984,-44.7635,230.16099898567225,-21.19421387,-42.55818939,0.0,2013-02-05T01:03:32.145636Z,2013-02-05T01:02:56.253829Z,2013-02-05T01:03:21.145636Z,2013-02-05T01:04:21.145636Z,earthquake,2.963358215,known,20130205T010256/BL_BSCB_20130205T010256.mseed,"[['Z', 'N', 'E']]",0.0,1.0,0.0,Natural,0.0,0.974,0.026,Natural
20130205T010256,BSFB,135,usp2013cmar,[],P,BL,,HHZ,-18.83133,-40.84653,317.01325197122407,-21.19421387,-42.55818939,0.0,2013-02-05T01:03:42.761572Z,2013-02-05T01:02:56.253829Z,2013-02-05T01:03:31.761572Z,2013-02-05T01:04:31.761572Z,earthquake,2.963358215,known,20130205T010256/BL_BSFB_20130205T010256.mseed,"[['N', 'Z', 'E']]",0.0,0.9919999837875366,0.00800000037997961,Natural,0.0,0.974,0.026,Natural
20130205T010256,CAM01,142,usp2013cmar,[],P,ON,,HHZ,-21.825656,-41.657401,116.61557189496943,-21.19421387,-42.55818939,0.0,2013-02-05T01:03:16.292984Z,2013-02-05T01:02:56.253829Z,2013-02-05T01:03:05.292984Z,2013-02-05T01:04:05.292984Z,earthquake,2.963358215,known,20130205T010256/ON_CAM01_20130205T010256.mseed,"[['1', '2', 'Z']]",0.0,0.7889999747276306,0.210999995470047,Natural,0.0,0.974,0.026,Natural
20130205T010256,DUB01,143,usp2013cmar,[],P,ON,,HHZ,-22.080966,-42.374182,100.01671267954497,-21.19421387,-42.55818939,0.0,2013-02-05T01:03:13.799316Z,2013-02-05T01:02:56.253829Z,2013-02-05T01:03:02.799316Z,2013-02-05T01:04:02.799316Z,earthquake,2.963358215,known,20130205T010256/ON_DUB01_20130205T010256.mseed,"[['E', 'N', 'Z']]",0.0,0.9879999756813049,0.012000000104308128,Natural,0.0,0.974,0.026,Natural
20130205T010256,ESAR,138,usp2013cmar,[],P,BL,,HHZ,-23.0207,-44.4403,280.3837634729403,-21.19421387,-42.55818939,0.0,2013-02-05T01:03:38.629194Z,2013-02-05T01:02:56.253829Z,2013-02-05T01:03:27.629194Z,2013-02-05T01:04:27.629194Z,earthquake,2.963358215,known,20130205T010256/BL_ESAR_20130205T010256.mseed,"[['E', 'N', 'Z']]",0.0,0.9980000257492065,0.0020000000949949026,Natural,0.0,0.974,0.026,Natural
20130205T010256,RIB01,137,usp2013cmar,[],P,ON,,HHZ,-19.314216,-40.394365,307.27763628381774,-21.19421387,-42.55818939,0.0,2013-02-05T01:03:41.265368Z,2013-02-05T01:02:56.253829Z,2013-02-05T01:03:30.265368Z,2013-02-05T01:04:30.265368Z,earthquake,2.963358215,known,20130205T010256/ON_RIB01_20130205T010256.mseed,"[['E', 'N', 'Z']]",0.0,0.996999979019165,0.003000000026077032,Natural,0.0,0.974,0.026,Natural
20130205T010256,SJMB,136,usp2013cmar,[],P,BL,,HHZ,-18.702916,-41.184694,311.0164238209841,-21.19421387,-42.55818939,0.0,2013-02-05T01:03:43.331557Z,2013-02-05T01:02:56.253829Z,2013-02-05T01:03:32.331557Z,2013-02-05T01:04:32.331557Z,earthquake,2.963358215,known,20130205T010256/BL_SJMB_20130205T010256.mseed,"[['E', 'N', 'Z']]",0.0,1.0,0.0,Natural,0.0,0.974,0.026,Natural
20130205T010256,VAS01,141,usp2013cmar,[],P,ON,,HHZ,-22.280081,-43.442624,151.0876178678291,-21.19421387,-42.55818939,0.0,2013-02-05T01:03:21.066574Z,2013-02-05T01:02:56.253829Z,2013-02-05T01:03:10.066574Z,2013-02-05T01:04:10.066574Z,earthquake,2.963358215,known,20130205T010256/ON_VAS01_20130205T010256.mseed,"[['E', 'N', 'Z']]",0.0,0.9990000128746033,0.0010000000474974513,Natural,0.0,0.974,0.026,Natural
20130213T045908,BB19B,1701,usp2013dayn,[],P,BL,,HHZ,-21.0662,-48.5279,145.27925457507803,-20.20763969,-47.47369003,0.0,2013-02-13T04:59:32.660465Z,2013-02-13T04:59:08.489259Z,2013-02-13T04:59:21.660465Z,2013-02-13T05:00:21.660465Z,earthquake,2.405332479,known,20130213T045908/BL_BB19B_20130213T045908.mseed,"[['E', 'N', 'Z']]",0.0,0.9929999709129333,0.007000000216066837,Natural,0.0,0.974,0.026,Natural
20130213T045908,BSCB,1699,usp2013dayn,[],P,BL,,HHZ,-20.9984,-44.7635,295.76528076799684,-20.20763969,-47.47369003,0.0,2013-02-13T04:59:52.030029Z,2013-02-13T04:59:08.489259Z,2013-02-13T04:59:41.030029Z,2013-02-13T05:00:41.030029Z,earthquake,2.405332479,known,20130213T045908/BL_BSCB_20130213T045908.mseed,"[['Z', 'N', 'E']]",0.0,0.9990000128746033,0.0010000000474974513,Natural,0.0,0.974,0.026,Natural
20130213T045908,IPMB,1700,usp2013dayn,[],P,BR,,HHZ,-17.982956,-48.211734,258.2126206151169,-20.20763969,-47.47369003,0.0,2013-02-13T04:59:47.653942Z,2013-02-13T04:59:08.489259Z,2013-02-13T04:59:36.653942Z,2013-02-13T05:00:36.653942Z,earthquake,2.405332479,known,20130213T045908/BR_IPMB_20130213T045908.mseed,"[['E', 'N', 'Z']]",0.0,0.9929999709129333,0.007000000216066837,Natural,0.0,0.974,0.026,Natural
20130213T045908,ITRB,1698,usp2013dayn,[],P,BL,,HHZ,-19.7042,-50.359,307.11741124561763,-20.20763969,-47.47369003,0.0,2013-02-13T04:59:53.393074Z,2013-02-13T04:59:08.489259Z,2013-02-13T04:59:42.393074Z,2013-02-13T05:00:42.393074Z,earthquake,2.405332479,known,20130213T045908/BL_ITRB_20130213T045908.mseed,"[['E', 'N', 'Z']]",0.0,0.9100000262260437,0.09000000357627869,Natural,0.0,0.974,0.026,Natural
20130303T133631,NBCA,60,usp2013eimq,[],P,NB,,HHZ,-8.225687,-36.013016,310.83983276411755,-5.416610718,-36.10967636,0.0,2013-03-03T13:37:17.260947Z,2013-03-03T13:36:31.106094Z,2013-03-03T13:37:06.260947Z,2013-03-03T13:38:06.260947Z,earthquake,2.323119832,known,20130303T133631/NB_NBCA_20130303T133631.mseed,"[['E', 'N', 'Z']]",0.0,0.9929999709129333,0.007000000216066837,Natural,0.0,0.841,0.159,Natural
20130303T133631,NBCL,61,usp2013eimq,[],P,NB,,HHZ,-4.224377,-38.291041,275.5567667405452,-5.416610718,-36.10967636,0.0,2013-03-03T13:37:12.669677Z,2013-03-03T13:36:31.106094Z,2013-03-03T13:37:01.669677Z,2013-03-03T13:38:01.669677Z,earthquake,2.323119832,known,20130303T133631/NB_NBCL_20130303T133631.mseed,"[['E', 'N', 'Z']]",0.0,0.9980000257492065,0.0020000000949949026,Natural,0.0,0.841,0.159,Natural
20130303T133631,NBLI,62,usp2013eimq,[],P,NB,,HHZ,-7.364556,-36.949743,234.6110341811506,-5.416610718,-36.10967636,0.0,2013-03-03T13:37:07.181610Z,2013-03-03T13:36:31.106094Z,2013-03-03T13:36:56.181610Z,2013-03-03T13:37:56.181610Z,earthquake,2.323119832,known,20130303T133631/NB_NBLI_20130303T133631.mseed,"[['E', 'N', 'Z']]",0.0,1.0,0.0,Natural,0.0,0.841,0.159,Natural
20130303T133631,NBMA,59,usp2013eimq,[],P,NB,,HHZ,-7.365352,-38.764058,364.2405219292938,-5.416610718,-36.10967636,0.0,2013-03-03T13:37:23.251166Z,2013-03-03T13:36:31.106094Z,2013-03-03T13:37:12.251166Z,2013-03-03T13:38:12.251166Z,earthquake,2.323119832,known,20130303T133631/NB_NBMA_20130303T133631.mseed,"[['E', 'N', 'Z']]",0.0,0.9660000205039978,0.03400000184774399,Natural,0.0,0.841,0.159,Natural
20130303T133631,NBPA,64,usp2013eimq,[],P,NB,,HHZ,-5.75028,-37.112047,117.02670115249276,-5.416610718,-36.10967636,0.0,2013-03-03T13:36:51.757720Z,2013-03-03T13:36:31.106094Z,2013-03-03T13:36:40.757720Z,2013-03-03T13:37:40.757720Z,earthquake,2.323119832,known,20130303T133631/NB_NBPA_20130303T133631.mseed,"[['E', 'N', 'Z']]",0.0,0.9909999966621399,0.008999999612569809,Natural,0.0,0.841,0.159,Natural
20130303T133631,NBPB,57,usp2013eimq,[],P,NB,,HHZ,-5.543242,-39.583619,385.2158625819844,-5.416610718,-36.10967636,0.0,2013-03-03T13:37:25.941386Z,2013-03-03T13:36:31.106094Z,2013-03-03T13:37:14.941386Z,2013-03-03T13:38:14.941386Z,earthquake,2.323119832,known,20130303T133631/NB_NBPB_20130303T133631.mseed,"[['E', 'N', 'Z']]",0.0,0.7799999713897705,0.2199999988079071,Natural,0.0,0.841,0.159,Natural
20130303T133631,NBPV,63,usp2013eimq,[],P,NB,,HHZ,-6.417527,-35.290516,143.10503922776738,-5.416610718,-36.10967636,0.0,2013-03-03T13:36:55.021850Z,2013-03-03T13:36:31.106094Z,2013-03-03T13:36:44.021850Z,2013-03-03T13:37:44.021850Z,earthquake,2.323119832,known,20130303T133631/NB_NBPV_20130303T133631.mseed,"[['E', 'N', 'Z']]",0.0,0.9980000257492065,0.0020000000949949026,Natural,0.0,0.841,0.159,Natural
20130303T133631,NBRF,58,usp2013eimq,[],P,NB,,HHZ,-8.679466,-35.127172,376.81283772105286,-5.416610718,-36.10967636,0.0,2013-03-03T13:37:24.865298Z,2013-03-03T13:36:31.106094Z,2013-03-03T13:37:13.865298Z,2013-03-03T13:38:13.865298Z,earthquake,2.323119832,known,20130303T133631/NB_NBRF_20130303T133631.mseed,"[['E', 'N', 'Z']]",1.0,0.004999999888241291,0.9950000047683716,Anthropogenic,0.0,0.841,0.159,Natural
20130402T193419,JANB,1916,usp2013gltn,[],P,BR,,HHZ,-15.058097,-44.311197,180.30250073809705,-16.64261627,-43.91891861,0.0,2013-04-02T19:34:49.021679Z,2013-04-02T19:34:19.283403Z,2013-04-02T19:34:38.021679Z,2013-04-02T19:35:38.021679Z,earthquake,1.50856413,known,20130402T193419/BR_JANB_20130402T193419.mseed,"[['E', 'N', 'Z']]",1.0,0.10499999672174454,0.8949999809265137,Anthropogenic,1.0,0.105,0.895,Anthropogenic
20130420T145821,BSCB,449,usp2013hshm,[],P,BL,,HHZ,-20.9984,-44.7635,74.05626972472044,-21.16717148,-44.07388306,0.0,2013-04-20T14:58:33.998321Z,2013-04-20T14:58:21.477830Z,2013-04-20T14:58:22.998321Z,2013-04-20T14:59:22.998321Z,earthquake,2.520786619,suspected,20130420T145821/BL_BSCB_20130420T145821.mseed,"[['Z', 'N', 'E']]",0.0,0.9350000023841858,0.06499999761581421,Natural,0.0,0.965,0.035,Natural
20130420T145821,ESAR,450,usp2013hshm,[],P,BL,,HHZ,-23.0207,-44.4403,208.6977373925137,-21.16717148,-44.07388306,0.0,2013-04-20T14:58:55.003540Z,2013-04-20T14:58:21.477830Z,2013-04-20T14:58:44.003540Z,2013-04-20T14:59:44.003540Z,earthquake,2.520786619,suspected,20130420T145821/BL_ESAR_20130420T145821.mseed,"[['E', 'N', 'Z']]",0.0,0.9940000176429749,0.006000000052154064,Natural,0.0,0.965,0.035,Natural
20130511T024543,CLDB,2352,usp2013jdsw,[],P,BL,,HHZ,-10.8732,-55.7965,380.9906169673393,-8.096297264,-57.84969711,0.0,2013-05-11T02:46:38.031097Z,2013-05-11T02:45:43.483959Z,2013-05-11T02:46:27.031097Z,2013-05-11T02:47:27.031097Z,earthquake,2.537685559,suspected,20130511T024543/BL_CLDB_20130511T024543.mseed,"[['E', 'N', 'Z']]",0.0,0.8299999833106995,0.17000000178813934,Natural,0.0,0.83,0.17,Natural
20130730T042204,PEXB,2171,usp2013ouah,[],P,BL,,HHZ,-12.10584,-48.30085,185.34759893942044,-13.77977657,-48.37178421,0.0,2013-07-30T04:22:34.957214Z,2013-07-30T04:22:04.048669Z,2013-07-30T04:22:23.957214Z,2013-07-30T04:23:23.957214Z,earthquake,3.289682375,known,20130730T042204/BL_PEXB_20130730T042204.mseed,"[['E', 'N', 'Z']]",0.0,1.0,0.0,Natural,0.0,1.0,0.0,Natural
20130730T095231,PEXB,1282,usp2013oulb,[],P,BL,,HHZ,-12.10584,-48.30085,189.50898451153813,-13.66854668,-49.01609039,0.0,2013-07-30T09:53:01.496032Z,2013-07-30T09:52:31.834511Z,2013-07-30T09:52:50.496032Z,2013-07-30T09:53:50.496032Z,earthquake,2.515409305,suspected,20130730T095231/BL_PEXB_20130730T095231.mseed,"[['E', 'N', 'Z']]",0.0,0.996999979019165,0.003000000026077032,Natural,0.0,0.997,0.003,Natural
20130731T212621,BB19B,357,usp2013oxdp,[],P,BL,,HHZ,-21.0662,-48.5279,155.26875007252775,-22.35198784,-47.92907333,0.0,2013-07-31T21:26:47.904270Z,2013-07-31T21:26:21.216588Z,2013-07-31T21:26:36.904270Z,2013-07-31T21:27:36.904270Z,earthquake,2.548764321,known,20130731T212621/BL_BB19B_20130731T212621.mseed,"[['E', 'N', 'Z']]",1.0,0.23399999737739563,0.765999972820282,Anthropogenic,1.0,0.255,0.745,Anthropogenic
20130731T212621,BSCB,359,usp2013oxdp,[],P,BL,,HHZ,-20.9984,-44.7635,360.2624023188962,-22.35198784,-47.92907333,0.0,2013-07-31T21:27:13.101375Z,2013-07-31T21:26:21.216588Z,2013-07-31T21:27:02.101375Z,2013-07-31T21:28:02.101375Z,earthquake,2.548764321,known,20130731T212621/BL_BSCB_20130731T212621.mseed,"[['Z', 'N', 'E']]",0.0,0.8920000195503235,0.1080000028014183,Natural,1.0,0.255,0.745,Anthropogenic
20130731T212621,FRTB,358,usp2013oxdp,[],P,BL,,HHZ,-23.3439,-49.564,200.5567555471296,-22.35198784,-47.92907333,0.0,2013-07-31T21:26:53.084978Z,2013-07-31T21:26:21.216588Z,2013-07-31T21:26:42.084978Z,2013-07-31T21:27:42.084978Z,earthquake,2.548764321,known,20130731T212621/BL_FRTB_20130731T212621.mseed,"[['E', 'N', 'Z']]",1.0,0.010999999940395355,0.9890000224113464,Anthropogenic,1.0,0.255,0.745,Anthropogenic
20130731T212621,ITRB,360,usp2013oxdp,[],P,BL,,HHZ,-19.7042,-50.359,386.9450596930393,-22.35198784,-47.92907333,0.0,2013-07-31T21:27:15.621090Z,2013-07-31T21:26:21.216588Z,2013-07-31T21:27:04.621090Z,2013-07-31T21:28:04.621090Z,earthquake,2.548764321,known,20130731T212621/BL_ITRB_20130731T212621.mseed,"[['E', 'N', 'Z']]",1.0,0.05900000035762787,0.9409999847412109,Anthropogenic,1.0,0.255,0.745,Anthropogenic
20130731T212621,PARB,361,usp2013oxdp,[],P,BL,,HHZ,-23.3421,-45.6246,260.69836125611846,-22.35198784,-47.92907333,0.0,2013-07-31T21:26:55.492775Z,2013-07-31T21:26:21.216588Z,2013-07-31T21:26:44.492775Z,2013-07-31T21:27:44.492775Z,earthquake,2.548764321,known,20130731T212621/BL_PARB_20130731T212621.mseed,"[['E', 'N', 'Z']]",1.0,0.32199999690055847,0.6779999732971191,Anthropogenic,1.0,0.255,0.745,Anthropogenic
20130731T212621,VABB,362,usp2013oxdp,[],P,BL,,HHZ,-23.0021,-46.9657,122.40910399741608,-22.35198784,-47.92907333,0.0,2013-07-31T21:26:32.160514Z,2013-07-31T21:26:21.216588Z,2013-07-31T21:26:21.160514Z,2013-07-31T21:27:21.160514Z,earthquake,2.548764321,known,20130731T212621/BL_VABB_20130731T212621.mseed,"[['E', 'N', 'Z']]",1.0,0.009999999776482582,0.9900000095367432,Anthropogenic,1.0,0.255,0.745,Anthropogenic
20130802T192427,ALF01,2065,usp2013paqo,[],P,ON,,HHZ,-20.616865,-40.725213,318.30370067368386,-19.03210449,-43.26053238,0.0,2013-08-02T19:25:13.333984Z,2013-08-02T19:24:27.125830Z,2013-08-02T19:25:02.333984Z,2013-08-02T19:26:02.333984Z,earthquake,2.117617234,suspected,20130802T192427/ON_ALF01_20130802T192427.mseed,"[['E', 'N', 'Z']]",1.0,0.41999998688697815,0.5799999833106995,Anthropogenic,0.0,0.537,0.463,Natural
20130802T192427,BSCB,2064,usp2013paqo,[],P,BL,,HHZ,-20.9984,-44.7635,268.5381043224231,-19.03210449,-43.26053238,0.0,2013-08-02T19:25:11.559371Z,2013-08-02T19:24:27.125830Z,2013-08-02T19:25:00.559371Z,2013-08-02T19:26:00.559371Z,earthquake,2.117617234,suspected,20130802T192427/BL_BSCB_20130802T192427.mseed,"[['Z', 'N', 'E']]",0.0,0.8740000128746033,0.12600000202655792,Natural,0.0,0.537,0.463,Natural
20130802T192427,PMNB,2061,usp2013paqo,[],P,BL,,HHZ,-18.54,-46.44,339.58930007816593,-19.03210449,-43.26053238,0.0,2013-08-02T19:25:29.442633Z,2013-08-02T19:24:27.125830Z,2013-08-02T19:25:18.442633Z,2013-08-02T19:26:18.442633Z,earthquake,2.117617234,suspected,20130802T192427/BL_PMNB_20130802T192427.mseed,"[['E', 'N', 'Z']]",0.0,0.8920000195503235,0.1080000028014183,Natural,0.0,0.537,0.463,Natural
20130802T192427,SJMB,2062,usp2013paqo,[],P,BL,,HHZ,-18.702916,-41.184694,221.7541256896605,-19.03210449,-43.26053238,0.0,2013-08-02T19:25:01.468772Z,2013-08-02T19:24:27.125830Z,2013-08-02T19:24:50.468772Z,2013-08-02T19:25:50.468772Z,earthquake,2.117617234,suspected,20130802T192427/BL_SJMB_20130802T192427.mseed,"[['E', 'N', 'Z']]",1.0,0.24799999594688416,0.7519999742507935,Anthropogenic,0.0,0.537,0.463,Natural
20130802T192427,VAS01,2063,usp2013paqo,[],P,ON,,HHZ,-22.280081,-43.442624,360.09272367966986,-19.03210449,-43.26053238,0.0,2013-08-02T19:25:19.058791Z,2013-08-02T19:24:27.125830Z,2013-08-02T19:25:08.058791Z,2013-08-02T19:26:08.058791Z,earthquake,2.117617234,suspected,20130802T192427/ON_VAS01_20130802T192427.mseed,"[['E', 'N', 'Z']]",1.0,0.2529999911785126,0.746999979019165,Anthropogenic,0.0,0.537,0.463,Natural
20131006T125323,AQDB,1531,usp2013toxj,[],P,BL,,HHZ,-20.47579,-55.69971,138.52825595320542,-19.50574112,-56.53590393,0.0,2013-10-06T12:53:46.910125Z,2013-10-06T12:53:23.533179Z,2013-10-06T12:53:35.910125Z,2013-10-06T12:54:35.910125Z,earthquake,2.576038655,suspected,20131006T125323/BL_AQDB_20131006T125323.mseed,"[['E', 'N', 'Z']]",1.0,0.0010000000474974513,0.9990000128746033,Anthropogenic,1.0,0.005,0.995,Anthropogenic
20131006T125323,PP1B,1530,usp2013toxj,[],P,BL,,HHZ,-17.6003,-54.8796,273.9571353834868,-19.50574112,-56.53590393,0.0,2013-10-06T12:54:04.873310Z,2013-10-06T12:53:23.533179Z,2013-10-06T12:53:53.873310Z,2013-10-06T12:54:53.873310Z,earthquake,2.576038655,suspected,20131006T125323/BL_PP1B_20131006T125323.mseed,"[['Z', 'N', 'E']]",1.0,0.008999999612569809,0.9909999966621399,Anthropogenic,1.0,0.005,0.995,Anthropogenic
20131009T204028,ALF01,894,usp2013tuzh,[],P,ON,,HHZ,-20.616865,-40.725213,225.77102716024663,-22.65029144,-40.5638237,0.0,2013-10-09T20:41:03.674774Z,2013-10-09T20:40:28.507225Z,2013-10-09T20:40:52.674774Z,2013-10-09T20:41:52.674774Z,earthquake,2.751872807,known,20131009T204028/ON_ALF01_20131009T204028.mseed,"[['E', 'N', 'Z']]",0.0,1.0,0.0,Natural,0.0,0.965,0.035,Natural
20131009T204028,CAM01,895,usp2013tuzh,[],P,ON,,HHZ,-21.825656,-41.657401,145.07707359653998,-22.65029144,-40.5638237,0.0,2013-10-09T20:40:53.515996Z,2013-10-09T20:40:28.507225Z,2013-10-09T20:40:42.515996Z,2013-10-09T20:41:42.515996Z,earthquake,2.751872807,known,20131009T204028/ON_CAM01_20131009T204028.mseed,"[['1', '2', 'Z']]",0.0,0.9909999966621399,0.008999999612569809,Natural,0.0,0.965,0.035,Natural
20131009T204028,DUB01,893,usp2013tuzh,[],P,ON,,HHZ,-22.080966,-42.374182,196.8261015578308,-22.65029144,-40.5638237,0.0,2013-10-09T20:40:59.940364Z,2013-10-09T20:40:28.507225Z,2013-10-09T20:40:48.940364Z,2013-10-09T20:41:48.940364Z,earthquake,2.751872807,known,20131009T204028/ON_DUB01_20131009T204028.mseed,"[['E', 'N', 'Z']]",0.0,0.996999979019165,0.003000000026077032,Natural,0.0,0.965,0.035,Natural
20131009T204028,VAS01,892,usp2013tuzh,[],P,ON,,HHZ,-22.280081,-43.442624,299.10925629921246,-22.65029144,-40.5638237,0.0,2013-10-09T20:41:12.791596Z,2013-10-09T20:40:28.507225Z,2013-10-09T20:41:01.791596Z,2013-10-09T20:42:01.791596Z,earthquake,2.751872807,known,20131009T204028/ON_VAS01_20131009T204028.mseed,"[['E', 'N', 'Z']]",0.0,0.871999979019165,0.12800000607967377,Natural,0.0,0.965,0.035,Natural
20131024T223441,NBCL,919,usp2013uwnq,[],P,NB,,HHZ,-4.224377,-38.291041,273.1728906438302,-5.379933834,-36.11449432,0.0,2013-10-24T22:35:23.352696Z,2013-10-24T22:34:41.065476Z,2013-10-24T22:35:12.352696Z,2013-10-24T22:36:12.352696Z,earthquake,2.696338179,known,20131024T223441/NB_NBCL_20131024T223441.mseed,"[['E', 'N', 'Z']]",0.0,0.996999979019165,0.003000000026077032,Natural,0.0,0.827,0.173,Natural
20131024T223441,NBLI,920,usp2013uwnq,[],P,NB,,HHZ,-7.364556,-36.949743,238.13444228616723,-5.379933834,-36.11449432,0.0,2013-10-24T22:35:17.038785Z,2013-10-24T22:34:41.065476Z,2013-10-24T22:35:06.038785Z,2013-10-24T22:36:06.038785Z,earthquake,2.696338179,known,20131024T223441/NB_NBLI_20131024T223441.mseed,"[['E', 'N', 'Z']]",0.0,1.0,0.0,Natural,0.0,0.827,0.173,Natural
20131024T223441,NBMA,918,usp2013uwnq,[],P,NB,,HHZ,-7.365352,-38.764058,366.23599716974127,-5.379933834,-36.11449432,0.0,2013-10-24T22:35:33.897580Z,2013-10-24T22:34:41.065476Z,2013-10-24T22:35:22.897580Z,2013-10-24T22:36:22.897580Z,earthquake,2.696338179,known,20131024T223441/NB_NBMA_20131024T223441.mseed,"[['E', 'N', 'Z']]",0.0,0.9850000143051147,0.014999999664723873,Natural,0.0,0.827,0.173,Natural
20131024T223441,NBPB,916,usp2013uwnq,[],P,NB,,HHZ,-5.543242,-39.583619,384.8629533976512,-5.379933834,-36.11449432,0.0,2013-10-24T22:35:35.947976Z,2013-10-24T22:34:41.065476Z,2013-10-24T22:35:24.947976Z,2013-10-24T22:36:24.947976Z,earthquake,2.696338179,known,20131024T223441/NB_NBPB_20131024T223441.mseed,"[['E', 'N', 'Z']]",0.0,0.9599999785423279,0.03999999910593033,Natural,0.0,0.827,0.173,Natural
20131024T223441,NBPV,921,usp2013uwnq,[],P,NB,,HHZ,-6.417527,-35.290516,146.5979816554089,-5.379933834,-36.11449432,0.0,2013-10-24T22:35:05.712798Z,2013-10-24T22:34:41.065476Z,2013-10-24T22:34:54.712798Z,2013-10-24T22:35:54.712798Z,earthquake,2.696338179,known,20131024T223441/NB_NBPV_20131024T223441.mseed,"[['E', 'N', 'Z']]",0.0,0.9990000128746033,0.0010000000474974513,Natural,0.0,0.827,0.173,Natural
20131024T223441,NBRF,917,usp2013uwnq,[],P,NB,,HHZ,-8.679466,-35.127172,380.8518276817195,-5.379933834,-36.11449432,0.0,2013-10-24T22:35:35.557423Z,2013-10-24T22:34:41.065476Z,2013-10-24T22:35:24.557423Z,2013-10-24T22:36:24.557423Z,earthquake,2.696338179,known,20131024T223441/NB_NBRF_20131024T223441.mseed,"[['E', 'N', 'Z']]",1.0,0.024000000208616257,0.9760000109672546,Anthropogenic,0.0,0.827,0.173,Natural
20131101T010514,NBCL,1999,usp2013vjnc,[],P,NB,,HHZ,-4.224377,-38.291041,275.6141674860024,-5.440600872,-36.12224579,2000.0,2013-11-01T01:05:55.498490Z,2013-11-01T01:05:14.259611Z,2013-11-01T01:05:44.498490Z,2013-11-01T01:06:44.498490Z,earthquake,1.978852545,known,20131101T010514/NB_NBCL_20131101T010514.mseed,"[['E', 'N', 'Z']]",0.0,1.0,0.0,Natural,0.0,0.815,0.185,Natural
20131101T010514,NBLI,2000,usp2013vjnc,[],P,NB,,HHZ,-7.364556,-36.949743,231.6236143062008,-5.440600872,-36.12224579,2000.0,2013-11-01T01:05:49.507455Z,2013-11-01T01:05:14.259611Z,2013-11-01T01:05:38.507455Z,2013-11-01T01:06:38.507455Z,earthquake,1.978852545,known,20131101T010514/NB_NBLI_20131101T010514.mseed,"[['E', 'N', 'Z']]",0.0,1.0,0.0,Natural,0.0,0.815,0.185,Natural
20131101T010514,NBMA,1998,usp2013vjnc,[],P,NB,,HHZ,-7.365352,-38.764058,361.5470421017158,-5.440600872,-36.12224579,2000.0,2013-11-01T01:06:05.781609Z,2013-11-01T01:05:14.259611Z,2013-11-01T01:05:54.781609Z,2013-11-01T01:06:54.781609Z,earthquake,1.978852545,known,20131101T010514/NB_NBMA_20131101T010514.mseed,"[['E', 'N', 'Z']]",0.0,0.722000002861023,0.27799999713897705,Natural,0.0,0.815,0.185,Natural
20131101T010514,NBPA,2002,usp2013vjnc,[],P,NB,,HHZ,-5.75028,-37.112047,114.8853305672145,-5.440600872,-36.12224579,2000.0,2013-11-01T01:05:34.753326Z,2013-11-01T01:05:14.259611Z,2013-11-01T01:05:23.753326Z,2013-11-01T01:06:23.753326Z,earthquake,1.978852545,known,20131101T010514/NB_NBPA_20131101T010514.mseed,"[['E', 'N', 'Z']]",0.0,0.9589999914169312,0.04100000113248825,Natural,0.0,0.815,0.185,Natural
20131101T010514,NBPB,1996,usp2013vjnc,[],P,NB,,HHZ,-5.543242,-39.583619,383.7286584475449,-5.440600872,-36.12224579,2000.0,2013-11-01T01:06:08.762223Z,2013-11-01T01:05:14.259611Z,2013-11-01T01:05:57.762223Z,2013-11-01T01:06:57.762223Z,earthquake,1.978852545,known,20131101T010514/NB_NBPB_20131101T010514.mseed,"[['E', 'N', 'Z']]",0.0,0.9800000190734863,0.019999999552965164,Natural,0.0,0.815,0.185,Natural
20131101T010514,NBPV,2001,usp2013vjnc,[],P,NB,,HHZ,-6.417527,-35.290516,141.96078582088276,-5.440600872,-36.12224579,2000.0,2013-11-01T01:05:38.136414Z,2013-11-01T01:05:14.259611Z,2013-11-01T01:05:27.136414Z,2013-11-01T01:06:27.136414Z,earthquake,1.978852545,known,20131101T010514/NB_NBPV_20131101T010514.mseed,"[['E', 'N', 'Z']]",0.0,0.9990000128746033,0.0010000000474974513,Natural,0.0,0.815,0.185,Natural
20131101T010514,NBRF,1997,usp2013vjnc,[],P,NB,,HHZ,-8.679466,-35.127172,374.6773686219617,-5.440600872,-36.12224579,2000.0,2013-11-01T01:06:07.569978Z,2013-11-01T01:05:14.259611Z,2013-11-01T01:05:56.569978Z,2013-11-01T01:06:56.569978Z,earthquake,1.978852545,known,20131101T010514/NB_NBRF_20131101T010514.mseed,"[['E', 'N', 'Z']]",1.0,0.041999999433755875,0.9580000042915344,Anthropogenic,0.0,0.815,0.185,Natural
20131101T115117,NBCL,1901,usp2013vkik,[],P,NB,,HHZ,-4.224377,-38.291041,274.8622264517161,-5.443225384,-36.13148117,2000.0,2013-11-01T11:51:58.432463Z,2013-11-01T11:51:17.305096Z,2013-11-01T11:51:47.432463Z,2013-11-01T11:52:47.432463Z,earthquake,2.756984597,known,20131101T115117/NB_NBCL_20131101T115117.mseed,"[['E', 'N', 'Z']]",0.0,0.9990000128746033,0.0010000000474974513,Natural,0.0,0.857,0.143,Natural
20131101T115117,NBLI,1902,usp2013vkik,[],P,NB,,HHZ,-7.364556,-36.949743,230.95462010233788,-5.443225384,-36.13148117,2000.0,2013-11-01T11:51:54.703212Z,2013-11-01T11:51:17.305096Z,2013-11-01T11:51:43.703212Z,2013-11-01T11:52:43.703212Z,earthquake,2.756984597,known,20131101T115117/NB_NBLI_20131101T115117.mseed,"[['E', 'N', 'Z']]",0.0,1.0,0.0,Natural,0.0,0.857,0.143,Natural
20131101T115117,NBMA,1900,usp2013vkik,[],P,NB,,HHZ,-7.365352,-38.764058,360.54995978189953,-5.443225384,-36.13148117,2000.0,2013-11-01T11:52:09.039031Z,2013-11-01T11:51:17.305096Z,2013-11-01T11:51:58.039031Z,2013-11-01T11:52:58.039031Z,earthquake,2.756984597,known,20131101T115117/NB_NBMA_20131101T115117.mseed,"[['E', 'N', 'Z']]",0.0,0.996999979019165,0.003000000026077032,Natural,0.0,0.857,0.143,Natural
20131101T115117,NBPA,1904,usp2013vkik,[],P,NB,,HHZ,-5.75028,-37.112047,113.82189766396048,-5.443225384,-36.13148117,2000.0,2013-11-01T11:51:37.506759Z,2013-11-01T11:51:17.305096Z,2013-11-01T11:51:26.506759Z,2013-11-01T11:52:26.506759Z,earthquake,2.756984597,known,20131101T115117/NB_NBPA_20131101T115117.mseed,"[['E', 'N', 'Z']]",0.0,0.9959999918937683,0.004000000189989805,Natural,0.0,0.857,0.143,Natural
20131101T115117,NBPB,1898,usp2013vkik,[],P,NB,,HHZ,-5.543242,-39.583619,382.6963898616709,-5.443225384,-36.13148117,2000.0,2013-11-01T11:52:11.702780Z,2013-11-01T11:51:17.305096Z,2013-11-01T11:52:00.702780Z,2013-11-01T11:53:00.702780Z,earthquake,2.756984597,known,20131101T115117/NB_NBPB_20131101T115117.mseed,"[['E', 'N', 'Z']]",0.0,0.9909999966621399,0.008999999612569809,Natural,0.0,0.857,0.143,Natural
20131101T115117,NBPV,1903,usp2013vkik,[],P,NB,,HHZ,-6.417527,-35.290516,142.40645113716164,-5.443225384,-36.13148117,2000.0,2013-11-01T11:51:41.119853Z,2013-11-01T11:51:17.305096Z,2013-11-01T11:51:30.119853Z,2013-11-01T11:52:30.119853Z,earthquake,2.756984597,known,20131101T115117/NB_NBPV_20131101T115117.mseed,"[['E', 'N', 'Z']]",0.0,1.0,0.0,Natural,0.0,0.857,0.143,Natural
20131101T115117,NBRF,1899,usp2013vkik,[],P,NB,,HHZ,-8.679466,-35.127172,374.7006257667661,-5.443225384,-36.13148117,2000.0,2013-11-01T11:52:10.588851Z,2013-11-01T11:51:17.305096Z,2013-11-01T11:51:59.588851Z,2013-11-01T11:52:59.588851Z,earthquake,2.756984597,known,20131101T115117/NB_NBRF_20131101T115117.mseed,"[['E', 'N', 'Z']]",1.0,0.014000000432133675,0.9860000014305115,Anthropogenic,0.0,0.857,0.143,Natural
20131101T220749,NBPA,1750,usp2013vlct,[],P,NB,,HHZ,-5.75028,-37.112047,115.23846453320752,-5.448509693,-36.11647797,2000.0,2013-11-01T22:08:09.853149Z,2013-11-01T22:07:49.639990Z,2013-11-01T22:07:58.853149Z,2013-11-01T22:08:58.853149Z,earthquake,2.460861112,known,20131101T220749/NB_NBPA_20131101T220749.mseed,"[['E', 'N', 'Z']]",0.0,0.9919999837875366,0.00800000037997961,Natural,0.0,0.992,0.008,Natural
20131103T114157,NBCL,36,usp2013vnzc,[],P,NB,,HHZ,-4.224377,-38.291041,276.3812091736086,-5.485337734,-36.13970184,2000.0,2013-11-03T11:42:38.520309Z,2013-11-03T11:41:57.021223Z,2013-11-03T11:42:27.520309Z,2013-11-03T11:43:27.520309Z,earthquake,2.111703109,known,20131103T114157/NB_NBCL_20131103T114157.mseed,"[['E', 'N', 'Z']]",0.0,0.9980000257492065,0.0020000000949949026,Natural,0.0,0.771,0.229,Natural
20131103T114157,NBLI,37,usp2013vnzc,[],P,NB,,HHZ,-7.364556,-36.949743,226.3145947923779,-5.485337734,-36.13970184,2000.0,2013-11-03T11:42:32.349762Z,2013-11-03T11:41:57.021223Z,2013-11-03T11:42:21.349762Z,2013-11-03T11:43:21.349762Z,earthquake,2.111703109,known,20131103T114157/NB_NBLI_20131103T114157.mseed,"[['E', 'N', 'Z']]",0.0,1.0,0.0,Natural,0.0,0.771,0.229,Natural
20131103T114157,NBMA,35,usp2013vnzc,[],P,NB,,HHZ,-7.365352,-38.764058,357.0752377936774,-5.485337734,-36.13970184,2000.0,2013-11-03T11:42:48.528640Z,2013-11-03T11:41:57.021223Z,2013-11-03T11:42:37.528640Z,2013-11-03T11:43:37.528640Z,earthquake,2.111703109,known,20131103T114157/NB_NBMA_20131103T114157.mseed,"[['E', 'N', 'Z']]",0.0,0.6489999890327454,0.35100001096725464,Natural,0.0,0.771,0.229,Natural
20131103T114157,NBPA,39,usp2013vnzc,[],P,NB,,HHZ,-5.75028,-37.112047,111.63764024322153,-5.485337734,-36.13970184,2000.0,2013-11-03T11:42:16.265602Z,2013-11-03T11:41:57.021223Z,2013-11-03T11:42:05.265602Z,2013-11-03T11:43:05.265602Z,earthquake,2.111703109,known,20131103T114157/NB_NBPA_20131103T114157.mseed,"[['E', 'N', 'Z']]",0.0,0.9869999885559082,0.013000000268220901,Natural,0.0,0.771,0.229,Natural
20131103T114157,NBPV,38,usp2013vnzc,[],P,NB,,HHZ,-6.417527,-35.290516,139.52582322377944,-5.485337734,-36.13970184,2000.0,2013-11-03T11:42:19.858160Z,2013-11-03T11:41:57.021223Z,2013-11-03T11:42:08.858160Z,2013-11-03T11:43:08.858160Z,earthquake,2.111703109,known,20131103T114157/NB_NBPV_20131103T114157.mseed,"[['E', 'N', 'Z']]",0.0,0.9940000176429749,0.006000000052154064,Natural,0.0,0.771,0.229,Natural
20131103T114157,NBRF,34,usp2013vnzc,[],P,NB,,HHZ,-8.679466,-35.127172,370.526732472232,-5.485337734,-36.13970184,2000.0,2013-11-03T11:42:50.108902Z,2013-11-03T11:41:57.021223Z,2013-11-03T11:42:39.108902Z,2013-11-03T11:43:39.108902Z,earthquake,2.111703109,known,20131103T114157/NB_NBRF_20131103T114157.mseed,"[['E', 'N', 'Z']]",1.0,0.0010000000474974513,0.9990000128746033,Anthropogenic,0.0,0.771,0.229,Natural
20131105T163813,NBCL,2390,usp2013vrzw,[],P,NB,,HHZ,-4.224377,-38.291041,275.45958834182056,-5.486532211,-36.15002823,2000.0,2013-11-05T16:38:54.695574Z,2013-11-05T16:38:13.214002Z,2013-11-05T16:38:43.695574Z,2013-11-05T16:39:43.695574Z,earthquake,2.998965564,known,20131105T163813/NB_NBCL_20131105T163813.mseed,"[['E', 'N', 'Z']]",0.0,0.9179999828338623,0.0820000022649765,Natural,0.0,0.839,0.161,Natural
20131105T163813,NBLI,2391,usp2013vrzw,[],P,NB,,HHZ,-7.364556,-36.949743,225.74317911696767,-5.486532211,-36.15002823,2000.0,2013-11-05T16:38:47.919279Z,2013-11-05T16:38:13.214002Z,2013-11-05T16:38:36.919279Z,2013-11-05T16:39:36.919279Z,earthquake,2.998965564,known,20131105T163813/NB_NBLI_20131105T163813.mseed,"[['E', 'N', 'Z']]",0.0,0.9800000190734863,0.019999999552965164,Natural,0.0,0.839,0.161,Natural
20131105T163813,NBMA,2389,usp2013vrzw,[],P,NB,,HHZ,-7.365352,-38.764058,356.0698053327793,-5.486532211,-36.15002823,2000.0,2013-11-05T16:39:01.898989Z,2013-11-05T16:38:13.214002Z,2013-11-05T16:38:50.898989Z,2013-11-05T16:39:50.898989Z,earthquake,2.998965564,known,20131105T163813/NB_NBMA_20131105T163813.mseed,"[['E', 'N', 'Z']]",0.0,0.9800000190734863,0.019999999552965164,Natural,0.0,0.839,0.161,Natural
20131105T163813,NBPA,2393,usp2013vrzw,[],P,NB,,HHZ,-5.75028,-37.112047,110.49906436366464,-5.486532211,-36.15002823,2000.0,2013-11-05T16:38:33.064132Z,2013-11-05T16:38:13.214002Z,2013-11-05T16:38:22.064132Z,2013-11-05T16:39:22.064132Z,earthquake,2.998965564,known,20131105T163813/NB_NBPA_20131105T163813.mseed,"[['E', 'N', 'Z']]",0.0,0.9929999709129333,0.007000000216066837,Natural,0.0,0.839,0.161,Natural
20131105T163813,NBPB,2387,usp2013vrzw,[],P,NB,,HHZ,-5.543242,-39.583619,380.51925475084136,-5.486532211,-36.15002823,2000.0,2013-11-05T16:39:07.255377Z,2013-11-05T16:38:13.214002Z,2013-11-05T16:38:56.255377Z,2013-11-05T16:39:56.255377Z,earthquake,2.998965564,known,20131105T163813/NB_NBPB_20131105T163813.mseed,"[['E', 'N', 'Z']]",0.0,0.9929999709129333,0.007000000216066837,Natural,0.0,0.839,0.161,Natural
20131105T163813,NBPV,2392,usp2013vrzw,[],P,NB,,HHZ,-6.417527,-35.290516,140.20175955362103,-5.486532211,-36.15002823,2000.0,2013-11-05T16:38:36.663948Z,2013-11-05T16:38:13.214002Z,2013-11-05T16:38:25.663948Z,2013-11-05T16:39:25.663948Z,earthquake,2.998965564,known,20131105T163813/NB_NBPV_20131105T163813.mseed,"[['E', 'N', 'Z']]",0.0,0.9990000128746033,0.0010000000474974513,Natural,0.0,0.839,0.161,Natural
20131105T163813,NBRF,2388,usp2013vrzw,[],P,NB,,HHZ,-8.679466,-35.127172,370.7467892744271,-5.486532211,-36.15002823,2000.0,2013-11-05T16:39:06.516565Z,2013-11-05T16:38:13.214002Z,2013-11-05T16:38:55.516565Z,2013-11-05T16:39:55.516565Z,earthquake,2.998965564,known,20131105T163813/NB_NBRF_20131105T163813.mseed,"[['E', 'N', 'Z']]",1.0,0.00800000037997961,0.9919999837875366,Anthropogenic,0.0,0.839,0.161,Natural
20131115T074234,NBLI,2168,usp2013wjpg,[],P,NB,,HHZ,-7.364556,-36.949743,227.6160397383889,-5.476953506,-36.12945557,2000.0,2013-11-15T07:43:11.092208Z,2013-11-15T07:42:34.513681Z,2013-11-15T07:43:00.092208Z,2013-11-15T07:44:00.092208Z,earthquake,3.031879807,known,20131115T074234/NB_NBLI_20131115T074234.mseed,"[['E', 'N', 'Z']]",0.0,0.9810000061988831,0.01899999938905239,Natural,0.0,0.989,0.011,Natural
20131115T074234,NBPA,2169,usp2013wjpg,[],P,NB,,HHZ,-5.75028,-37.112047,112.97866405159265,-5.476953506,-36.12945557,2000.0,2013-11-15T07:42:53.923339Z,2013-11-15T07:42:34.513681Z,2013-11-15T07:42:42.923339Z,2013-11-15T07:43:42.923339Z,earthquake,3.031879807,known,20131115T074234/NB_NBPA_20131115T074234.mseed,"[['E', 'N', 'Z']]",0.0,0.9959999918937683,0.004000000189989805,Natural,0.0,0.989,0.011,Natural
20131125T130610,NBCL,79,usp2013xcgw,[],P,NB,,HHZ,-4.224377,-38.291041,246.56045815288024,-3.758060455,-40.46218872,0.0,2013-11-25T13:06:48.261642Z,2013-11-25T13:06:10.314619Z,2013-11-25T13:06:37.261642Z,2013-11-25T13:07:37.261642Z,earthquake,2.281128726,known,20131125T130610/NB_NBCL_20131125T130610.mseed,"[['E', 'N', 'Z']]",0.0,0.9990000128746033,0.0010000000474974513,Natural,0.0,0.996,0.004,Natural
20131125T130610,NBMO,82,usp2013xcgw,[],P,NB,,HHZ,-3.310348,-40.042927,67.97810046123843,-3.758060455,-40.46218872,0.0,2013-11-25T13:06:22.020431Z,2013-11-25T13:06:10.314619Z,2013-11-25T13:06:11.020431Z,2013-11-25T13:07:11.020431Z,earthquake,2.281128726,known,20131125T130610/NB_NBMO_20131125T130610.mseed,"[['E', 'N', 'Z']]",0.0,0.9950000047683716,0.004999999888241291,Natural,0.0,0.996,0.004,Natural
20131125T130610,NBPB,80,usp2013xcgw,[],P,NB,,HHZ,-5.543242,-39.583619,220.16364331110063,-3.758060455,-40.46218872,0.0,2013-11-25T13:06:44.590484Z,2013-11-25T13:06:10.314619Z,2013-11-25T13:06:33.590484Z,2013-11-25T13:07:33.590484Z,earthquake,2.281128726,known,20131125T130610/NB_NBPB_20131125T130610.mseed,"[['E', 'N', 'Z']]",0.0,0.9900000095367432,0.009999999776482582,Natural,0.0,0.996,0.004,Natural
20131125T130610,NBPS,81,usp2013xcgw,[],P,NB,,HHZ,-4.393969,-41.445618,129.88144243192548,-3.758060455,-40.46218872,0.0,2013-11-25T13:06:31.568252Z,2013-11-25T13:06:10.314619Z,2013-11-25T13:06:20.568252Z,2013-11-25T13:07:20.568252Z,earthquake,2.281128726,known,20131125T130610/NB_NBPS_20131125T130610.mseed,"[['E', 'N', 'Z']]",0.0,1.0,0.0,Natural,0.0,0.996,0.004,Natural
20131202T061640,NBPA,591,usp2013xony,[],P,NB,,HHZ,-5.75028,-37.112047,117.92969634465965,-5.41067028,-36.10306931,0.0,2013-12-02T06:17:00.843322Z,2013-12-02T06:16:40.414104Z,2013-12-02T06:16:49.843322Z,2013-12-02T06:17:49.843322Z,earthquake,3.145486516,known,20131202T061640/NB_NBPA_20131202T061640.mseed,"[['E', 'N', 'Z']]",0.0,0.9990000128746033,0.0010000000474974513,Natural,0.0,0.999,0.001,Natural
20131204T191228,NBCL,579,usp2013xteo,[],P,NB,,HHZ,-4.224377,-38.291041,276.3422967391548,-5.464837074,-36.12832642,0.0,2013-12-04T19:13:10.311902Z,2013-12-04T19:12:28.483907Z,2013-12-04T19:12:59.311902Z,2013-12-04T19:13:59.311902Z,earthquake,2.206177895,known,20131204T191228/NB_NBCL_20131204T191228.mseed,"[['E', 'N', 'Z']]",0.0,1.0,0.0,Natural,0.0,0.582,0.418,Natural
20131204T191228,NBLI,580,usp2013xteo,[],P,NB,,HHZ,-7.364556,-36.949743,228.89543548641348,-5.464837074,-36.12832642,0.0,2013-12-04T19:13:03.724595Z,2013-12-04T19:12:28.483907Z,2013-12-04T19:12:52.724595Z,2013-12-04T19:13:52.724595Z,earthquake,2.206177895,known,20131204T191228/NB_NBLI_20131204T191228.mseed,"[['E', 'N', 'Z']]",0.0,1.0,0.0,Natural,0.0,0.582,0.418,Natural
20131204T191228,NBMA,578,usp2013xteo,[],P,NB,,HHZ,-7.365352,-38.764058,359.42448305321244,-5.464837074,-36.12832642,0.0,2013-12-04T19:13:20.437543Z,2013-12-04T19:12:28.483907Z,2013-12-04T19:13:09.437543Z,2013-12-04T19:14:09.437543Z,earthquake,2.206177895,known,20131204T191228/NB_NBMA_20131204T191228.mseed,"[['E', 'N', 'Z']]",1.0,0.02500000037252903,0.9750000238418579,Anthropogenic,0.0,0.582,0.418,Natural
20131204T191228,NBPA,582,usp2013xteo,[],P,NB,,HHZ,-5.75028,-37.112047,113.46570916449356,-5.464837074,-36.12832642,0.0,2013-12-04T19:12:48.144393Z,2013-12-04T19:12:28.483907Z,2013-12-04T19:12:37.144393Z,2013-12-04T19:13:37.144393Z,earthquake,2.206177895,known,20131204T191228/NB_NBPA_20131204T191228.mseed,"[['E', 'N', 'Z']]",0.0,0.9890000224113464,0.010999999940395355,Natural,0.0,0.582,0.418,Natural
20131204T191228,NBPB,576,usp2013xteo,[],P,NB,,HHZ,-5.543242,-39.583619,382.97738203957056,-5.464837074,-36.12832642,0.0,2013-12-04T19:13:23.411248Z,2013-12-04T19:12:28.483907Z,2013-12-04T19:13:12.411248Z,2013-12-04T19:14:12.411248Z,earthquake,2.206177895,known,20131204T191228/NB_NBPB_20131204T191228.mseed,"[['E', 'N', 'Z']]",1.0,0.004999999888241291,0.9950000047683716,Anthropogenic,0.0,0.582,0.418,Natural
20131204T191228,NBPV,581,usp2013xteo,[],P,NB,,HHZ,-6.417527,-35.290516,140.3746842440608,-5.464837074,-36.12832642,0.0,2013-12-04T19:12:51.603942Z,2013-12-04T19:12:28.483907Z,2013-12-04T19:12:40.603942Z,2013-12-04T19:13:40.603942Z,earthquake,2.206177895,known,20131204T191228/NB_NBPV_20131204T191228.mseed,"[['E', 'N', 'Z']]",0.0,0.9990000128746033,0.0010000000474974513,Natural,0.0,0.582,0.418,Natural
20131204T191228,NBRF,577,usp2013xteo,[],P,NB,,HHZ,-8.679466,-35.127172,372.3141726305847,-5.464837074,-36.12832642,0.0,2013-12-04T19:13:21.378586Z,2013-12-04T19:12:28.483907Z,2013-12-04T19:13:10.378586Z,2013-12-04T19:14:10.378586Z,earthquake,2.206177895,known,20131204T191228/NB_NBRF_20131204T191228.mseed,"[['E', 'N', 'Z']]",1.0,0.05400000140070915,0.9459999799728394,Anthropogenic,0.0,0.582,0.418,Natural
20140405T170841,BSCB,312,usp2014grbg,[],P,BL,,HHZ,-20.9984,-44.7635,120.64427554566058,-20.25478172,-43.91736984,0.0,2014-04-05T17:09:01.595678Z,2014-04-05T17:08:41.037385Z,2014-04-05T17:08:50.595678Z,2014-04-05T17:09:50.595678Z,earthquake,2.219028011,known,20140405T170841/BL_BSCB_20140405T170841.mseed,"[['Z', 'N', 'E']]",0.0,0.953000009059906,0.04699999839067459,Natural,0.0,0.605,0.395,Natural
20140405T170841,BSFB,311,usp2014grbg,[],P,BL,,HHZ,-18.83133,-40.84653,358.71779534326606,-20.25478172,-43.91736984,0.0,2014-04-05T17:09:32.978282Z,2014-04-05T17:08:41.037385Z,2014-04-05T17:09:21.978282Z,2014-04-05T17:10:21.978282Z,earthquake,2.219028011,known,20140405T170841/BL_BSFB_20140405T170841.mseed,"[['N', 'Z', 'E']]",1.0,0.3889999985694885,0.6110000014305115,Anthropogenic,0.0,0.605,0.395,Natural
20140405T170841,PARB,310,usp2014grbg,[],P,BL,,HHZ,-23.3421,-45.6246,384.73067927999983,-20.25478172,-43.91736984,0.0,2014-04-05T17:09:35.795673Z,2014-04-05T17:08:41.037385Z,2014-04-05T17:09:24.795673Z,2014-04-05T17:10:24.795673Z,earthquake,2.219028011,known,20140405T170841/BL_PARB_20140405T170841.mseed,"[['E', 'N', 'Z']]",1.0,0.07999999821186066,0.9200000166893005,Anthropogenic,0.0,0.605,0.395,Natural
20140405T170841,SJMB,313,usp2014grbg,[],P,BL,,HHZ,-18.702916,-41.184694,334.38275659823444,-20.25478172,-43.91736984,0.0,2014-04-05T17:09:29.886951Z,2014-04-05T17:08:41.037385Z,2014-04-05T17:09:18.886951Z,2014-04-05T17:10:18.886951Z,earthquake,2.219028011,known,20140405T170841/BL_SJMB_20140405T170841.mseed,"[['E', 'N', 'Z']]",0.0,0.9980000257492065,0.0020000000949949026,Natural,0.0,0.605,0.395,Natural
20140405T171155,BSCB,849,usp2014grbi,[],P,BL,,HHZ,-20.9984,-44.7635,118.56602122618482,-20.2534008,-43.94628143,0.0,2014-04-05T17:12:16.473922Z,2014-04-05T17:11:55.711356Z,2014-04-05T17:12:05.473922Z,2014-04-05T17:13:05.473922Z,earthquake,2.153049959,known,20140405T171155/BL_BSCB_20140405T171155.mseed,"[['Z', 'N', 'E']]",0.0,0.9480000138282776,0.052000001072883606,Natural,0.0,0.961,0.039,Natural
20140405T171155,SJMB,847,usp2014grbi,[],P,BL,,HHZ,-18.702916,-41.184694,336.91348937100946,-20.2534008,-43.94628143,0.0,2014-04-05T17:12:44.452194Z,2014-04-05T17:11:55.711356Z,2014-04-05T17:12:33.452194Z,2014-04-05T17:13:33.452194Z,earthquake,2.153049959,known,20140405T171155/BL_SJMB_20140405T171155.mseed,"[['E', 'N', 'Z']]",0.0,0.9739999771118164,0.026000000536441803,Natural,0.0,0.961,0.039,Natural
20140405T172203,BSCB,316,usp2014grbr,[],P,BL,,HHZ,-20.9984,-44.7635,117.02275607032918,-20.2589035,-43.96124268,0.0,2014-04-05T17:22:24.382637Z,2014-04-05T17:22:03.891424Z,2014-04-05T17:22:13.382637Z,2014-04-05T17:23:13.382637Z,earthquake,2.062884783,known,20140405T172203/BL_BSCB_20140405T172203.mseed,"[['Z', 'N', 'E']]",0.0,0.9729999899864197,0.027000000700354576,Natural,0.0,0.88,0.12,Natural
20140405T172203,SJMB,315,usp2014grbr,[],P,BL,,HHZ,-18.702916,-41.184694,338.571172005935,-20.2589035,-43.96124268,0.0,2014-04-05T17:22:53.065231Z,2014-04-05T17:22:03.891424Z,2014-04-05T17:22:42.065231Z,2014-04-05T17:23:42.065231Z,earthquake,2.062884783,known,20140405T172203/BL_SJMB_20140405T172203.mseed,"[['E', 'N', 'Z']]",0.0,0.7870000004768372,0.21299999952316284,Natural,0.0,0.88,0.12,Natural
20140408T025523,JANB,1145,usp2014gvlp,[],P,BR,,HHZ,-15.058097,-44.311197,192.75179571505768,-16.76839447,-43.97000122,2000.0,2014-04-08T02:55:54.750185Z,2014-04-08T02:55:23.688371Z,2014-04-08T02:55:43.750185Z,2014-04-08T02:56:43.750185Z,earthquake,2.877060129,known,20140408T025523/BR_JANB_20140408T025523.mseed,"[['E', 'N', 'Z']]",0.0,0.984000027179718,0.01600000075995922,Natural,0.0,0.979,0.021,Natural
20140408T025523,SJMB,1144,usp2014gvlp,[],P,BL,,HHZ,-18.702916,-41.184694,364.827951046998,-16.76839447,-43.97000122,2000.0,2014-04-08T02:56:18.290245Z,2014-04-08T02:55:23.688371Z,2014-04-08T02:56:07.290245Z,2014-04-08T02:57:07.290245Z,earthquake,2.877060129,known,20140408T025523/BL_SJMB_20140408T025523.mseed,"[['E', 'N', 'Z']]",0.0,0.9750000238418579,0.02500000037252903,Natural,0.0,0.979,0.021,Natural
20140411T185137,JANB,2113,usp2014hcdq,[],P,BR,,HHZ,-15.058097,-44.311197,191.1378437637516,-16.6922,-43.7329,2000.0,2014-04-11T18:52:01.352203Z,2014-04-11T18:51:37.000000Z,2014-04-11T18:51:50.352203Z,2014-04-11T18:52:50.352203Z,earthquake,1.590647206,known,20140411T185137/BR_JANB_20140411T185137.mseed,"[['E', 'N', 'Z']]",0.0,0.9860000014305115,0.014000000432133675,Natural,0.0,0.986,0.014,Natural
20140417T163405,CPSB,1276,usp2014hmyd,[],P,BL,,HHZ,-30.4123,-53.4432,298.8064664958245,-32.81098938,-54.87865448,0.0,2014-04-17T16:34:49.958740Z,2014-04-17T16:34:05.685113Z,2014-04-17T16:34:38.958740Z,2014-04-17T16:35:38.958740Z,earthquake,2.32592166,suspected,20140417T163405/BL_CPSB_20140417T163405.mseed,"[['E', 'N', 'Z']]",1.0,0.1080000028014183,0.8920000195503235,Anthropogenic,1.0,0.175,0.825,Anthropogenic
20140417T163405,PLTB,1275,usp2014hmyd,[],P,BL,,HHZ,-31.76367,-53.60445,167.01390500346724,-32.81098938,-54.87865448,0.0,2014-04-17T16:34:33.117431Z,2014-04-17T16:34:05.685113Z,2014-04-17T16:34:22.117431Z,2014-04-17T16:35:22.117431Z,earthquake,2.32592166,suspected,20140417T163405/BL_PLTB_20140417T163405.mseed,"[['E', 'N', 'Z']]",1.0,0.24300000071525574,0.7570000290870667,Anthropogenic,1.0,0.175,0.825,Anthropogenic
20140423T164524,PTLB,1406,usp2014hxxn,[],P,BR,,HHZ,-15.44874,-59.13676,95.01211186151664,-15.11504841,-59.95182037,0.0,2014-04-23T16:45:41.348794Z,2014-04-23T16:45:24.812630Z,2014-04-23T16:45:30.348794Z,2014-04-23T16:46:30.348794Z,earthquake,2.885285308,suspected,20140423T164524/BR_PTLB_20140423T164524.mseed,"[['1', '2', 'Z']]",1.0,0.013000000268220901,0.9869999885559082,Anthropogenic,1.0,0.169,0.831,Anthropogenic
20140423T164524,VILB,1407,usp2014hxxn,[],P,BR,,HHZ,-12.9528,-60.2002,240.73009519739583,-15.11504841,-59.95182037,0.0,2014-04-23T16:46:02.113858Z,2014-04-23T16:45:24.812630Z,2014-04-23T16:45:51.113858Z,2014-04-23T16:46:51.113858Z,earthquake,2.885285308,suspected,20140423T164524/BR_VILB_20140423T164524.mseed,"[['1', '2', 'Z']]",1.0,0.32499998807907104,0.675000011920929,Anthropogenic,1.0,0.169,0.831,Anthropogenic
20140429T163032,BOAV,1875,usp2014iiwa,[],P,BR,,HHZ,2.3953,-60.5225,27.979321948405698,2.6342,-60.6054,0.0,2014-04-29T16:30:34.324743Z,2014-04-29T16:30:32.000000Z,2014-04-29T16:30:23.324743Z,2014-04-29T16:31:23.324743Z,earthquake,1.391774031,suspected,20140429T163032/BR_BOAV_20140429T163032.mseed,"[['1', '2', 'Z']]",1.0,0.04699999839067459,0.953000009059906,Anthropogenic,1.0,0.047,0.953,Anthropogenic
20140513T024937,ESAR,195,usp2014jhka,[],P,BL,,HHZ,-23.0207,-44.4403,172.133765449427,-23.66120529,-45.97399139,0.0,2014-05-13T02:50:05.582519Z,2014-05-13T02:49:37.556308Z,2014-05-13T02:49:54.582519Z,2014-05-13T02:50:54.582519Z,earthquake,2.082081335,suspected,20140513T024937/BL_ESAR_20140513T024937.mseed,"[['E', 'N', 'Z']]",0.0,0.9909999966621399,0.008999999612569809,Natural,0.0,0.672,0.328,Natural
20140513T024937,MAN01,198,usp2014jhka,[],P,ON,,HHZ,-22.86516,-43.964094,223.75377112196225,-23.66120529,-45.97399139,0.0,2014-05-13T02:50:13.017028Z,2014-05-13T02:49:37.556308Z,2014-05-13T02:50:02.017028Z,2014-05-13T02:51:02.017028Z,earthquake,2.082081335,suspected,20140513T024937/ON_MAN01_20140513T024937.mseed,"[['1', '2', 'Z']]",0.0,0.9810000061988831,0.01899999938905239,Natural,0.0,0.672,0.328,Natural
20140513T024937,PARB,200,usp2014jhka,[],P,BL,,HHZ,-23.3421,-45.6246,50.224923504575706,-23.66120529,-45.97399139,0.0,2014-05-13T02:49:46.369384Z,2014-05-13T02:49:37.556308Z,2014-05-13T02:49:35.369384Z,2014-05-13T02:50:35.369384Z,earthquake,2.082081335,suspected,20140513T024937/BL_PARB_20140513T024937.mseed,"[['E', 'N', 'Z']]",1.0,0.012000000104308128,0.9879999756813049,Anthropogenic,0.0,0.672,0.328,Natural
20140513T024937,PET01,196,usp2014jhka,[],P,ON,,HHZ,-24.290108,-47.275344,149.6390766045918,-23.66120529,-45.97399139,0.0,2014-05-13T02:50:03.156433Z,2014-05-13T02:49:37.556308Z,2014-05-13T02:49:52.156433Z,2014-05-13T02:50:52.156433Z,earthquake,2.082081335,suspected,20140513T024937/ON_PET01_20140513T024937.mseed,"[['E', 'N', 'Z']]",0.0,0.9869999885559082,0.013000000268220901,Natural,0.0,0.672,0.328,Natural
20140513T024937,VABB,199,usp2014jhka,[],P,BL,,HHZ,-23.0021,-46.9657,124.95823326734298,-23.66120529,-45.97399139,0.0,2014-05-13T02:49:59.399719Z,2014-05-13T02:49:37.556308Z,2014-05-13T02:49:48.399719Z,2014-05-13T02:50:48.399719Z,earthquake,2.082081335,suspected,20140513T024937/BL_VABB_20140513T024937.mseed,"[['E', 'N', 'Z']]",1.0,0.12600000202655792,0.8740000128746033,Anthropogenic,0.0,0.672,0.328,Natural
20140513T024937,VAS01,197,usp2014jhka,[],P,ON,,HHZ,-22.280081,-43.442624,301.27750069956465,-23.66120529,-45.97399139,0.0,2014-05-13T02:50:21.547546Z,2014-05-13T02:49:37.556308Z,2014-05-13T02:50:10.547546Z,2014-05-13T02:51:10.547546Z,earthquake,2.082081335,suspected,20140513T024937/ON_VAS01_20140513T024937.mseed,"[['E', 'N', 'Z']]",0.0,0.9340000152587891,0.06599999964237213,Natural,0.0,0.672,0.328,Natural
20140515T141759,FRTB,1316,usp2014jlxs,[],P,BL,,HHZ,-23.3439,-49.564,229.62196757724288,-23.58703041,-51.79602051,0.0,2014-05-15T14:18:35.026077Z,2014-05-15T14:17:59.824654Z,2014-05-15T14:18:24.026077Z,2014-05-15T14:19:24.026077Z,earthquake,2.708386007,suspected,20140515T141759/BL_FRTB_20140515T141759.mseed,"[['E', 'N', 'Z']]",0.0,0.9869999885559082,0.013000000268220901,Natural,0.0,0.808,0.192,Natural
20140515T141759,PCMB,1315,usp2014jlxs,[],P,BL,,HHZ,-21.6074,-51.2619,225.9950908525589,-23.58703041,-51.79602051,0.0,2014-05-15T14:18:35.104339Z,2014-05-15T14:17:59.824654Z,2014-05-15T14:18:24.104339Z,2014-05-15T14:19:24.104339Z,earthquake,2.708386007,suspected,20140515T141759/BL_PCMB_20140515T141759.mseed,"[['E', 'N', 'Z']]",0.0,0.9829999804496765,0.017000000923871994,Natural,0.0,0.808,0.192,Natural
20140515T141759,PTGB,1317,usp2014jlxs,[],P,BL,,HHZ,-24.72095,-52.01182,127.49391012177486,-23.58703041,-51.79602051,0.0,2014-05-15T14:18:21.878269Z,2014-05-15T14:17:59.824654Z,2014-05-15T14:18:10.878269Z,2014-05-15T14:19:10.878269Z,earthquake,2.708386007,suspected,20140515T141759/BL_PTGB_20140515T141759.mseed,"[['E', 'N', 'Z']]",0.0,0.8519999980926514,0.14800000190734863,Natural,0.0,0.808,0.192,Natural
20140515T141759,TRCB,1314,usp2014jlxs,[],P,BL,,HHZ,-22.79461,-52.63569,122.84538191123691,-23.58703041,-51.79602051,0.0,2014-05-15T14:18:20.626094Z,2014-05-15T14:17:59.824654Z,2014-05-15T14:18:09.626094Z,2014-05-15T14:19:09.626094Z,earthquake,2.708386007,suspected,20140515T141759/BL_TRCB_20140515T141759.mseed,"[['E', 'N', 'Z']]",1.0,0.4090000092983246,0.5910000205039978,Anthropogenic,0.0,0.808,0.192,Natural
20140515T145742,JANB,645,usp2014jlza,[],P,BR,,HHZ,-15.058097,-44.311197,187.01430984036816,-16.6898,-43.8564,2000.0,2014-05-15T14:58:12.865295Z,2014-05-15T14:57:42.000000Z,2014-05-15T14:58:01.865295Z,2014-05-15T14:59:01.865295Z,earthquake,1.468061325,suspected,20140515T145742/BR_JANB_20140515T145742.mseed,"[['E', 'N', 'Z']]",0.0,0.7559999823570251,0.24400000274181366,Natural,1.0,0.388,0.612,Anthropogenic
20140515T145742,MC01,644,usp2014jlza,[],P,BR,,HHZ,-16.70744,-43.94167,9.301592295413387,-16.6898,-43.8564,2000.0,2014-05-15T14:57:44.887054Z,2014-05-15T14:57:42.000000Z,2014-05-15T14:57:33.887054Z,2014-05-15T14:58:33.887054Z,earthquake,1.468061325,suspected,20140515T145742/BR_MC01_20140515T145742.mseed,"[['E', 'N', 'Z']]",1.0,0.019999999552965164,0.9800000190734863,Anthropogenic,1.0,0.388,0.612,Anthropogenic
20140516T200122,JANB,1672,usp2014joeo,[],P,BR,,HHZ,-15.058097,-44.311197,188.39185176990185,-16.7329464,-43.99555969,2000.0,2014-05-16T20:01:53.279811Z,2014-05-16T20:01:22.989823Z,2014-05-16T20:01:42.279811Z,2014-05-16T20:02:42.279811Z,earthquake,1.46459146,suspected,20140516T200122/BR_JANB_20140516T200122.mseed,"[['E', 'N', 'Z']]",0.0,0.8669999837875366,0.13300000131130219,Natural,1.0,0.459,0.541,Anthropogenic
20140516T200122,MC01,1673,usp2014joeo,[],P,BR,,HHZ,-16.70744,-43.94167,6.40272512643673,-16.7329464,-43.99555969,2000.0,2014-05-16T20:01:24.368469Z,2014-05-16T20:01:22.989823Z,2014-05-16T20:01:13.368469Z,2014-05-16T20:02:13.368469Z,earthquake,1.46459146,suspected,20140516T200122/BR_MC01_20140516T200122.mseed,"[['E', 'N', 'Z']]",1.0,0.050999999046325684,0.9490000009536743,Anthropogenic,1.0,0.459,0.541,Anthropogenic
20140519T163828,PTLB,1479,usp2014jtkj,[],P,BR,,HHZ,-15.44874,-59.13676,81.57702658911882,-14.71256542,-59.09567261,0.0,2014-05-19T16:38:41.980279Z,2014-05-19T16:38:28.008366Z,2014-05-19T16:38:30.980279Z,2014-05-19T16:39:30.980279Z,earthquake,2.093043547,suspected,20140519T163828/BR_PTLB_20140519T163828.mseed,"[['1', '2', 'Z']]",1.0,0.004999999888241291,0.9950000047683716,Anthropogenic,1.0,0.067,0.933,Anthropogenic
20140519T163828,SALV,1477,usp2014jtkj,[],P,BR,,HHZ,-15.90118,-55.69356,388.3118626368645,-14.71256542,-59.09567261,0.0,2014-05-19T16:39:23.545475Z,2014-05-19T16:38:28.008366Z,2014-05-19T16:39:12.545475Z,2014-05-19T16:40:12.545475Z,earthquake,2.093043547,suspected,20140519T163828/BR_SALV_20140519T163828.mseed,"[['E', 'N', 'Z']]",1.0,0.1899999976158142,0.8100000023841858,Anthropogenic,1.0,0.067,0.933,Anthropogenic
20140519T163828,VILB,1478,usp2014jtkj,[],P,BR,,HHZ,-12.9528,-60.2002,228.3960449492168,-14.71256542,-59.09567261,0.0,2014-05-19T16:39:03.476852Z,2014-05-19T16:38:28.008366Z,2014-05-19T16:38:52.476852Z,2014-05-19T16:39:52.476852Z,earthquake,2.093043547,suspected,20140519T163828/BR_VILB_20140519T163828.mseed,"[['1', '2', 'Z']]",1.0,0.006000000052154064,0.9940000176429749,Anthropogenic,1.0,0.067,0.933,Anthropogenic
20140522T054256,BSCB,2232,usp2014jybg,[],P,BL,,HHZ,-20.9984,-44.7635,12.750955793603062,-21.053,-44.6555,0.0,2014-05-22T05:42:56.644843Z,2014-05-22T05:42:56.000000Z,2014-05-22T05:42:45.644843Z,2014-05-22T05:43:45.644843Z,earthquake,0.8015361742,known,20140522T054256/BL_BSCB_20140522T054256.mseed,"[['Z', 'N', 'E']]",0.0,0.9599999785423279,0.03999999910593033,Natural,0.0,0.96,0.04,Natural
20140530T181648,MACA,643,usp2014knqd,[],P,BR,,HHZ,-3.1615,-60.6838,265.19192468155984,-1.006558895,-59.63747787,0.0,2014-05-30T18:17:27.190826Z,2014-05-30T18:16:48.967319Z,2014-05-30T18:17:16.190826Z,2014-05-30T18:18:16.190826Z,earthquake,3.722206381,known,20140530T181648/BR_MACA_20140530T181648.mseed,"[['E', 'N', 'Z']]",0.0,0.9670000076293945,0.032999999821186066,Natural,0.0,0.967,0.033,Natural
20140530T210323,CNLB,2029,usp2014knvq,[],P,BL,,HHZ,-29.3148,-50.8533,236.762567872455,-30.45086479,-52.92890167,0.0,2014-05-30T21:04:00.595809Z,2014-05-30T21:03:23.974415Z,2014-05-30T21:03:49.595809Z,2014-05-30T21:04:49.595809Z,earthquake,2.008775651,suspected,20140530T210323/BL_CNLB_20140530T210323.mseed,"[['2', '1', 'Z']]",0.0,0.9190000295639038,0.08100000023841858,Natural,0.0,0.576,0.424,Natural
20140530T210323,CPSB,2031,usp2014knvq,[],P,BL,,HHZ,-30.4123,-53.4432,49.59119395976085,-30.45086479,-52.92890167,0.0,2014-05-30T21:03:32.329925Z,2014-05-30T21:03:23.974415Z,2014-05-30T21:03:21.329925Z,2014-05-30T21:04:21.329925Z,earthquake,2.008775651,suspected,20140530T210323/BL_CPSB_20140530T210323.mseed,"[['E', 'N', 'Z']]",1.0,0.017999999225139618,0.9819999933242798,Anthropogenic,0.0,0.576,0.424,Natural
20140530T210323,ITAB,2028,usp2014knvq,[],P,BL,,HHZ,-27.2349,-52.1313,364.8312914614276,-30.45086479,-52.92890167,0.0,2014-05-30T21:04:16.290390Z,2014-05-30T21:03:23.974415Z,2014-05-30T21:04:05.290390Z,2014-05-30T21:05:05.290390Z,earthquake,2.008775651,suspected,20140530T210323/BL_ITAB_20140530T210323.mseed,"[['E', 'N', 'Z']]",1.0,0.375,0.625,Anthropogenic,0.0,0.576,0.424,Natural
20140530T210323,PLTB,2030,usp2014knvq,[],P,BL,,HHZ,-31.76367,-53.60445,159.1802050608254,-30.45086479,-52.92890167,0.0,2014-05-30T21:03:50.416366Z,2014-05-30T21:03:23.974415Z,2014-05-30T21:03:39.416366Z,2014-05-30T21:04:39.416366Z,earthquake,2.008775651,suspected,20140530T210323/BL_PLTB_20140530T210323.mseed,"[['E', 'N', 'Z']]",0.0,0.9929999709129333,0.007000000216066837,Natural,0.0,0.576,0.424,Natural
20140530T213012,PEXB,914,usp2014knwn,[],P,BL,,HHZ,-12.10584,-48.30085,79.94100092452804,-11.74709034,-47.6638031,0.0,2014-05-30T21:30:26.497855Z,2014-05-30T21:30:12.677033Z,2014-05-30T21:30:15.497855Z,2014-05-30T21:31:15.497855Z,earthquake,2.372036502,suspected,20140530T213012/BL_PEXB_20140530T213012.mseed,"[['E', 'N', 'Z']]",1.0,0.01899999938905239,0.9810000061988831,Anthropogenic,1.0,0.019,0.981,Anthropogenic
20140602T190015,ESAR,1393,usp2014ktec,[],P,BL,,HHZ,-23.0207,-44.4403,142.53066409106702,-23.42913055,-45.76087952,0.0,2014-06-02T19:00:39.050061Z,2014-06-02T19:00:15.585528Z,2014-06-02T19:00:28.050061Z,2014-06-02T19:01:28.050061Z,earthquake,2.143164322,suspected,20140602T190015/BL_ESAR_20140602T190015.mseed,"[['E', 'N', 'Z']]",1.0,0.004999999888241291,0.9950000047683716,Anthropogenic,1.0,0.018,0.982,Anthropogenic
20140602T190015,MAN01,1391,usp2014ktec,[],P,ON,,HHZ,-22.86516,-43.964094,194.3194272013299,-23.42913055,-45.76087952,0.0,2014-06-02T19:00:46.891535Z,2014-06-02T19:00:15.585528Z,2014-06-02T19:00:35.891535Z,2014-06-02T19:01:35.891535Z,earthquake,2.143164322,suspected,20140602T190015/ON_MAN01_20140602T190015.mseed,"[['1', '2', 'Z']]",1.0,0.0,1.0,Anthropogenic,1.0,0.018,0.982,Anthropogenic
20140602T190015,PARB,1389,usp2014ktec,[],P,BL,,HHZ,-23.3421,-45.6246,16.940927151678466,-23.42913055,-45.76087952,0.0,2014-06-02T19:00:18.331106Z,2014-06-02T19:00:15.585528Z,2014-06-02T19:00:07.331106Z,2014-06-02T19:01:07.331106Z,earthquake,2.143164322,suspected,20140602T190015/BL_PARB_20140602T190015.mseed,"[['E', 'N', 'Z']]",1.0,0.0010000000474974513,0.9990000128746033,Anthropogenic,1.0,0.018,0.982,Anthropogenic
20140602T190015,PET01,1392,usp2014ktec,[],P,ON,,HHZ,-24.290108,-47.275344,181.3570250082188,-23.42913055,-45.76087952,0.0,2014-06-02T19:00:45.017573Z,2014-06-02T19:00:15.585528Z,2014-06-02T19:00:34.017573Z,2014-06-02T19:01:34.017573Z,earthquake,2.143164322,suspected,20140602T190015/ON_PET01_20140602T190015.mseed,"[['E', 'N', 'Z']]",1.0,0.0020000000949949026,0.9980000257492065,Anthropogenic,1.0,0.018,0.982,Anthropogenic
20140602T190015,RCLB,1390,usp2014ktec,[],P,BL,1.0,HHZ,-22.4191,-47.531,213.2611605928715,-23.42913055,-45.76087952,0.0,2014-06-02T19:00:49.077824Z,2014-06-02T19:00:15.585528Z,2014-06-02T19:00:38.077824Z,2014-06-02T19:01:38.077824Z,earthquake,2.143164322,suspected,20140602T190015/BL_RCLB_20140602T190015.mseed,"[['E', 'N', 'Z']]",1.0,0.08900000154972076,0.9110000133514404,Anthropogenic,1.0,0.018,0.982,Anthropogenic
20140602T190015,VABB,1394,usp2014ktec,[],P,BL,,HHZ,-23.0021,-46.9657,132.08038244178977,-23.42913055,-45.76087952,0.0,2014-06-02T19:00:37.530578Z,2014-06-02T19:00:15.585528Z,2014-06-02T19:00:26.530578Z,2014-06-02T19:01:26.530578Z,earthquake,2.143164322,suspected,20140602T190015/BL_VABB_20140602T190015.mseed,"[['E', 'N', 'Z']]",1.0,0.013000000268220901,0.9869999885559082,Anthropogenic,1.0,0.018,0.982,Anthropogenic
20140603T192800,PTLB,2319,usp2014kvam,[],P,BR,,HHZ,-15.44874,-59.13676,80.83176278096403,-14.71889496,-59.10443115,0.0,2014-06-03T19:28:14.759750Z,2014-06-03T19:28:00.887646Z,2014-06-03T19:28:03.759750Z,2014-06-03T19:29:03.759750Z,earthquake,2.838132818,suspected,20140603T192800/BR_PTLB_20140603T192800.mseed,"[['1', '2', 'Z']]",1.0,0.02800000086426735,0.972000002861023,Anthropogenic,1.0,0.07,0.93,Anthropogenic
20140603T192800,SALV,2317,usp2014kvam,[],P,BR,,HHZ,-15.90118,-55.69356,388.95576411082,-14.71889496,-59.10443115,0.0,2014-06-03T19:28:55.895721Z,2014-06-03T19:28:00.887646Z,2014-06-03T19:28:44.895721Z,2014-06-03T19:29:44.895721Z,earthquake,2.838132818,suspected,20140603T192800/BR_SALV_20140603T192800.mseed,"[['E', 'N', 'Z']]",1.0,0.07900000363588333,0.9210000038146973,Anthropogenic,1.0,0.07,0.93,Anthropogenic
20140603T192800,VILB,2318,usp2014kvam,[],P,BR,,HHZ,-12.9528,-60.2002,228.5001904157153,-14.71889496,-59.10443115,0.0,2014-06-03T19:28:36.408691Z,2014-06-03T19:28:00.887646Z,2014-06-03T19:28:25.408691Z,2014-06-03T19:29:25.408691Z,earthquake,2.838132818,suspected,20140603T192800/BR_VILB_20140603T192800.mseed,"[['1', '2', 'Z']]",1.0,0.10400000214576721,0.8960000276565552,Anthropogenic,1.0,0.07,0.93,Anthropogenic
20140605T202027,JANB,280,usp2014kytg,[],P,BR,,HHZ,-15.058097,-44.311197,182.3338233090068,-16.65131378,-43.87691879,0.0,2014-06-05T20:20:57.851371Z,2014-06-05T20:20:27.910472Z,2014-06-05T20:20:46.851371Z,2014-06-05T20:21:46.851371Z,earthquake,1.508831748,suspected,20140605T202027/BR_JANB_20140605T202027.mseed,"[['E', 'N', 'Z']]",0.0,0.9020000100135803,0.09799999743700027,Natural,0.0,0.562,0.438,Natural
20140605T202027,MC01,281,usp2014kytg,[],P,BR,,HHZ,-16.70744,-43.94167,9.288821795770543,-16.65131378,-43.87691879,0.0,2014-06-05T20:20:29.158132Z,2014-06-05T20:20:27.910472Z,2014-06-05T20:20:18.158132Z,2014-06-05T20:21:18.158132Z,earthquake,1.508831748,suspected,20140605T202027/BR_MC01_20140605T202027.mseed,"[['E', 'N', 'Z']]",1.0,0.22200000286102295,0.777999997138977,Anthropogenic,0.0,0.562,0.438,Natural
20140611T163953,PTLB,1922,usp2014ljkz,[],P,BR,,HHZ,-15.44874,-59.13676,83.59858354648765,-14.69815445,-59.04797745,0.0,2014-06-11T16:40:08.452613Z,2014-06-11T16:39:53.315625Z,2014-06-11T16:39:57.452613Z,2014-06-11T16:40:57.452613Z,earthquake,2.791735553,suspected,20140611T163953/BR_PTLB_20140611T163953.mseed,"[['1', '2', 'Z']]",1.0,0.017000000923871994,0.9829999804496765,Anthropogenic,1.0,0.139,0.861,Anthropogenic
20140611T163953,SALV,1920,usp2014ljkz,[],P,BR,,HHZ,-15.90118,-55.69356,384.0576956148576,-14.69815445,-59.04797745,0.0,2014-06-11T16:40:46.785598Z,2014-06-11T16:39:53.315625Z,2014-06-11T16:40:35.785598Z,2014-06-11T16:41:35.785598Z,earthquake,2.791735553,suspected,20140611T163953/BR_SALV_20140611T163953.mseed,"[['E', 'N', 'Z']]",1.0,0.03200000151991844,0.9679999947547913,Anthropogenic,1.0,0.139,0.861,Anthropogenic
20140611T163953,VILB,1921,usp2014ljkz,[],P,BR,,HHZ,-12.9528,-60.2002,229.7940925910406,-14.69815445,-59.04797745,0.0,2014-06-11T16:40:29.186950Z,2014-06-11T16:39:53.315625Z,2014-06-11T16:40:18.186950Z,2014-06-11T16:41:18.186950Z,earthquake,2.791735553,suspected,20140611T163953/BR_VILB_20140611T163953.mseed,"[['1', '2', 'Z']]",1.0,0.367000013589859,0.6330000162124634,Anthropogenic,1.0,0.139,0.861,Anthropogenic
20140616T143507,CLDB,941,usp2014lskj,[],P,BL,,HHZ,-10.8732,-55.7965,352.1702155918508,-8.85251236,-53.31507492,0.0,2014-06-16T14:35:52.078266Z,2014-06-16T14:35:07.008048Z,2014-06-16T14:35:41.078266Z,2014-06-16T14:36:41.078266Z,earthquake,3.690933276,suspected,20140616T143507/BL_CLDB_20140616T143507.mseed,"[['E', 'N', 'Z']]",0.0,0.8619999885559082,0.1379999965429306,Natural,0.0,0.92,0.08,Natural
20140616T143507,NPGB,942,usp2014lskj,[],P,BR,,HHZ,-7.0454,-55.3579,301.1147133776737,-8.85251236,-53.31507492,0.0,2014-06-16T14:35:55.639129Z,2014-06-16T14:35:07.008048Z,2014-06-16T14:35:44.639129Z,2014-06-16T14:36:44.639129Z,earthquake,3.690933276,suspected,20140616T143507/BR_NPGB_20140616T143507.mseed,"[['N', 'E', 'Z']]",0.0,0.9769999980926514,0.023000000044703484,Natural,0.0,0.92,0.08,Natural
20140617T170004,JANB,1842,usp2014lukr,[],P,BR,,HHZ,-15.058097,-44.311197,202.44975081080136,-16.82752609,-43.83058167,2000.0,2014-06-17T17:00:38.205432Z,2014-06-17T17:00:04.756675Z,2014-06-17T17:00:27.205432Z,2014-06-17T17:01:27.205432Z,earthquake,2.253811115,suspected,20140617T170004/BR_JANB_20140617T170004.mseed,"[['E', 'N', 'Z']]",0.0,0.6499999761581421,0.3499999940395355,Natural,1.0,0.396,0.604,Anthropogenic
20140617T170004,MC01,1843,usp2014lukr,[],P,BR,,HHZ,-16.70744,-43.94167,17.801344702158097,-16.82752609,-43.83058167,2000.0,2014-06-17T17:00:09.307587Z,2014-06-17T17:00:04.756675Z,2014-06-17T16:59:58.307587Z,2014-06-17T17:00:58.307587Z,earthquake,2.253811115,suspected,20140617T170004/BR_MC01_20140617T170004.mseed,"[['E', 'N', 'Z']]",1.0,0.14300000667572021,0.8569999933242798,Anthropogenic,1.0,0.396,0.604,Anthropogenic
20140619T043928,ARAG,996,usp2014lxdg,[],P,BR,,HHZ,-15.706,-51.812,113.21480277749887,-16.21765327,-50.89619827,0.0,2014-06-19T04:39:48.095397Z,2014-06-19T04:39:28.321652Z,2014-06-19T04:39:37.095397Z,2014-06-19T04:40:37.095397Z,earthquake,3.039163236,suspected,20140619T043928/BR_ARAG_20140619T043928.mseed,"[['E', 'N', 'Z']]",0.0,0.9599999785423279,0.03999999910593033,Natural,0.0,0.642,0.358,Natural
20140619T043928,IPMB,994,usp2014lxdg,[],P,BR,,HHZ,-17.982956,-48.211734,346.10103586622256,-16.21765327,-50.89619827,0.0,2014-06-19T04:40:18.476898Z,2014-06-19T04:39:28.321652Z,2014-06-19T04:40:07.476898Z,2014-06-19T04:41:07.476898Z,earthquake,3.039163236,suspected,20140619T043928/BR_IPMB_20140619T043928.mseed,"[['E', 'N', 'Z']]",0.0,0.9539999961853027,0.04600000008940697,Natural,0.0,0.642,0.358,Natural
20140619T043928,ITRB,995,usp2014lxdg,[],P,BL,,HHZ,-19.7042,-50.359,390.0631536439015,-16.21765327,-50.89619827,0.0,2014-06-19T04:40:23.943695Z,2014-06-19T04:39:28.321652Z,2014-06-19T04:40:12.943695Z,2014-06-19T04:41:12.943695Z,earthquake,3.039163236,suspected,20140619T043928/BL_ITRB_20140619T043928.mseed,"[['E', 'N', 'Z']]",1.0,0.012000000104308128,0.9879999756813049,Anthropogenic,0.0,0.642,0.358,Natural
20140621T170648,BB19B,2285,usp2014mbsx,[],P,BL,,HHZ,-21.0662,-48.5279,178.7443839068169,-19.9861393,-47.25399399,0.0,2014-06-21T17:07:17.996185Z,2014-06-21T17:06:48.473680Z,2014-06-21T17:07:06.996185Z,2014-06-21T17:08:06.996185Z,earthquake,2.865167698,known,20140621T170648/BL_BB19B_20140621T170648.mseed,"[['E', 'N', 'Z']]",0.0,0.9919999837875366,0.00800000037997961,Natural,0.0,0.8,0.2,Natural
20140621T170648,BSCB,2283,usp2014mbsx,[],P,BL,,HHZ,-20.9984,-44.7635,282.9366029128837,-19.9861393,-47.25399399,0.0,2014-06-21T17:07:30.936370Z,2014-06-21T17:06:48.473680Z,2014-06-21T17:07:19.936370Z,2014-06-21T17:08:19.936370Z,earthquake,2.865167698,known,20140621T170648/BL_BSCB_20140621T170648.mseed,"[['Z', 'N', 'E']]",0.0,0.9990000128746033,0.0010000000474974513,Natural,0.0,0.8,0.2,Natural
20140621T170648,IPMB,2284,usp2014mbsx,[],P,BR,,HHZ,-17.982956,-48.211734,243.5911108097856,-19.9861393,-47.25399399,0.0,2014-06-21T17:07:26.802124Z,2014-06-21T17:06:48.473680Z,2014-06-21T17:07:15.802124Z,2014-06-21T17:08:15.802124Z,earthquake,2.865167698,known,20140621T170648/BR_IPMB_20140621T170648.mseed,"[['E', 'N', 'Z']]",0.0,0.9990000128746033,0.0010000000474974513,Natural,0.0,0.8,0.2,Natural
20140621T170648,ITRB,2287,usp2014mbsx,[],P,BL,,HHZ,-19.7042,-50.359,326.7354479948657,-19.9861393,-47.25399399,0.0,2014-06-21T17:07:36.467407Z,2014-06-21T17:06:48.473680Z,2014-06-21T17:07:25.467407Z,2014-06-21T17:08:25.467407Z,earthquake,2.865167698,known,20140621T170648/BL_ITRB_20140621T170648.mseed,"[['E', 'N', 'Z']]",1.0,0.032999999821186066,0.9670000076293945,Anthropogenic,0.0,0.8,0.2,Natural
20140621T170648,VABB,2286,usp2014mbsx,[],P,BL,,HHZ,-23.0021,-46.9657,335.2714958336176,-19.9861393,-47.25399399,0.0,2014-06-21T17:07:37.641326Z,2014-06-21T17:06:48.473680Z,2014-06-21T17:07:26.641326Z,2014-06-21T17:08:26.641326Z,earthquake,2.865167698,known,20140621T170648/BL_VABB_20140621T170648.mseed,"[['E', 'N', 'Z']]",0.0,0.9769999980926514,0.023000000044703484,Natural,0.0,0.8,0.2,Natural
20140625T193502,PTLB,70,usp2014mjfu,[],P,BR,,HHZ,-15.44874,-59.13676,84.3814391417485,-14.95359802,-59.73402786,0.0,2014-06-25T19:35:16.896362Z,2014-06-25T19:35:02.562957Z,2014-06-25T19:35:05.896362Z,2014-06-25T19:36:05.896362Z,earthquake,2.525312133,suspected,20140625T193502/BR_PTLB_20140625T193502.mseed,"[['1', '2', 'Z']]",1.0,0.061000000685453415,0.9390000104904175,Anthropogenic,1.0,0.068,0.932,Anthropogenic
20140625T193502,VILB,69,usp2014mjfu,[],P,BR,,HHZ,-12.9528,-60.2002,227.02444852988128,-14.95359802,-59.73402786,0.0,2014-06-25T19:35:38.917236Z,2014-06-25T19:35:02.562957Z,2014-06-25T19:35:27.917236Z,2014-06-25T19:36:27.917236Z,earthquake,2.525312133,suspected,20140625T193502/BR_VILB_20140625T193502.mseed,"[['1', '2', 'Z']]",1.0,0.07400000095367432,0.9259999990463257,Anthropogenic,1.0,0.068,0.932,Anthropogenic
20140625T203120,BSFB,1128,usp2014mjhr,[],P,BL,,HHZ,-18.83133,-40.84653,16.85660942219742,-18.68104744,-40.87238693,0.0,2014-06-25T20:31:23.495658Z,2014-06-25T20:31:20.550311Z,2014-06-25T20:31:12.495658Z,2014-06-25T20:32:12.495658Z,earthquake,1.448349858,suspected,20140625T203120/BL_BSFB_20140625T203120.mseed,"[['N', 'Z', 'E']]",1.0,0.01899999938905239,0.9810000061988831,Anthropogenic,1.0,0.025,0.975,Anthropogenic
20140625T203120,RIB01,1126,usp2014mjhr,[],P,ON,,HHZ,-19.314216,-40.394365,86.28721563722003,-18.68104744,-40.87238693,0.0,2014-06-25T20:31:35.381538Z,2014-06-25T20:31:20.550311Z,2014-06-25T20:31:24.381538Z,2014-06-25T20:32:24.381538Z,earthquake,1.448349858,suspected,20140625T203120/ON_RIB01_20140625T203120.mseed,"[['E', 'N', 'Z']]",1.0,0.026000000536441803,0.9739999771118164,Anthropogenic,1.0,0.025,0.975,Anthropogenic
20140625T203120,SJMB,1127,usp2014mjhr,[],P,BL,,HHZ,-18.702916,-41.184694,33.032275833111804,-18.68104744,-40.87238693,0.0,2014-06-25T20:31:26.440246Z,2014-06-25T20:31:20.550311Z,2014-06-25T20:31:15.440246Z,2014-06-25T20:32:15.440246Z,earthquake,1.448349858,suspected,20140625T203120/BL_SJMB_20140625T203120.mseed,"[['E', 'N', 'Z']]",1.0,0.03099999949336052,0.968999981880188,Anthropogenic,1.0,0.025,0.975,Anthropogenic
20140702T195951,BSFB,1184,usp2014mwbd,[],P,BL,,HHZ,-18.83133,-40.84653,393.9486371816309,-16.70798111,-43.82839966,2000.0,2014-07-02T20:00:47.295665Z,2014-07-02T19:59:51.155770Z,2014-07-02T20:00:36.295665Z,2014-07-02T20:01:36.295665Z,earthquake,2.415117171,suspected,20140702T195951/BL_BSFB_20140702T195951.mseed,"[['N', 'Z', 'E']]",1.0,0.10899999737739563,0.890999972820282,Anthropogenic,0.0,0.63,0.37,Natural
20140702T195951,JANB,1186,usp2014mwbd,[],P,BR,,HHZ,-15.058097,-44.311197,189.7520862877781,-16.70798111,-43.82839966,2000.0,2014-07-02T20:00:21.645652Z,2014-07-02T19:59:51.155770Z,2014-07-02T20:00:10.645652Z,2014-07-02T20:01:10.645652Z,earthquake,2.415117171,suspected,20140702T195951/BR_JANB_20140702T195951.mseed,"[['E', 'N', 'Z']]",0.0,0.9710000157356262,0.028999999165534973,Natural,0.0,0.63,0.37,Natural
20140702T195951,SJMB,1185,usp2014mwbd,[],P,BL,,HHZ,-18.702916,-41.184694,356.9122627692956,-16.70798111,-43.82839966,2000.0,2014-07-02T20:00:42.208698Z,2014-07-02T19:59:51.155770Z,2014-07-02T20:00:31.208698Z,2014-07-02T20:01:31.208698Z,earthquake,2.415117171,suspected,20140702T195951/BL_SJMB_20140702T195951.mseed,"[['E', 'N', 'Z']]",0.0,0.8109999895095825,0.1889999955892563,Natural,0.0,0.63,0.37,Natural
20140709T221201,CLDB,1529,usp2014njaa,[],P,BL,,HHZ,-10.8732,-55.7965,78.89080478480545,-10.80770302,-56.51493073,0.0,2014-07-09T22:12:14.986867Z,2014-07-09T22:12:01.202367Z,2014-07-09T22:12:03.986867Z,2014-07-09T22:13:03.986867Z,earthquake,1.955943901,suspected,20140709T221201/BL_CLDB_20140709T221201.mseed,"[['E', 'N', 'Z']]",0.0,0.8930000066757202,0.10700000077486038,Natural,0.0,0.893,0.107,Natural
20140715T195953,JANB,2291,usp2014ntur,[],P,BR,,HHZ,-15.058097,-44.311197,184.3682853733785,-16.67769432,-43.90724564,2000.0,2014-07-15T20:00:22.986156Z,2014-07-15T19:59:53.087426Z,2014-07-15T20:00:11.986156Z,2014-07-15T20:01:11.986156Z,earthquake,1.274714897,suspected,20140715T195953/BR_JANB_20140715T195953.mseed,"[['E', 'N', 'Z']]",1.0,0.33000001311302185,0.6700000166893005,Anthropogenic,1.0,0.484,0.516,Anthropogenic
20140715T195953,MC01,2292,usp2014ntur,[],P,BR,,HHZ,-16.70744,-43.94167,4.931231206655915,-16.67769432,-43.90724564,2000.0,2014-07-15T19:59:54.047647Z,2014-07-15T19:59:53.087426Z,2014-07-15T19:59:43.047647Z,2014-07-15T20:00:43.047647Z,earthquake,1.274714897,suspected,20140715T195953/BR_MC01_20140715T195953.mseed,"[['E', 'N', 'Z']]",0.0,0.6389999985694885,0.3610000014305115,Natural,1.0,0.484,0.516,Anthropogenic
20140717T140657,MC01,1513,usp2014nxab,[],P,BR,,HHZ,-16.70744,-43.94167,13.343273792065457,-16.688,-43.8182,0.0,2014-07-17T14:07:03.673370Z,2014-07-17T14:06:57.000000Z,2014-07-17T14:06:52.673370Z,2014-07-17T14:07:52.673370Z,earthquake,1.267279779,suspected,20140717T140657/BR_MC01_20140717T140657.mseed,"[['E', 'N', 'Z']]",1.0,0.013000000268220901,0.9869999885559082,Anthropogenic,1.0,0.013,0.987,Anthropogenic
20140722T190635,CLDB,806,usp2014ognl,[],P,BL,,HHZ,-10.8732,-55.7965,368.665834855928,-8.59480381,-53.34399033,0.0,2014-07-22T19:07:31.174133Z,2014-07-22T19:06:35.734966Z,2014-07-22T19:07:20.174133Z,2014-07-22T19:08:20.174133Z,earthquake,3.798625197,known,20140722T190635/BL_CLDB_20140722T190635.mseed,"[['E', 'N', 'Z']]",0.0,0.9819999933242798,0.017999999225139618,Natural,0.0,0.99,0.01,Natural
20140722T190635,NPGB,805,usp2014ognl,[],P,BR,,HHZ,-7.0454,-55.3579,280.5268490880096,-8.59480381,-53.34399033,0.0,2014-07-22T19:07:20.060791Z,2014-07-22T19:06:35.734966Z,2014-07-22T19:07:09.060791Z,2014-07-22T19:08:09.060791Z,earthquake,3.798625197,known,20140722T190635/BR_NPGB_20140722T190635.mseed,"[['N', 'E', 'Z']]",0.0,0.9980000257492065,0.0020000000949949026,Natural,0.0,0.99,0.01,Natural
20140723T202013,JANB,2079,usp2014oilj,[],P,BR,,HHZ,-15.058097,-44.311197,193.2206828744673,-16.75123978,-43.87012482,2000.0,2014-07-23T20:20:44.085391Z,2014-07-23T20:20:13.262743Z,2014-07-23T20:20:33.085391Z,2014-07-23T20:21:33.085391Z,earthquake,1.62722316,suspected,20140723T202013/BR_JANB_20140723T202013.mseed,"[['E', 'N', 'Z']]",0.0,0.9139999747276306,0.0860000029206276,Natural,0.0,0.636,0.364,Natural
20140723T202013,MC01,2080,usp2014oilj,[],P,BR,,HHZ,-16.70744,-43.94167,9.038954402614028,-16.75123978,-43.87012482,2000.0,2014-07-23T20:20:15.219565Z,2014-07-23T20:20:13.262743Z,2014-07-23T20:20:04.219565Z,2014-07-23T20:21:04.219565Z,earthquake,1.62722316,suspected,20140723T202013/BR_MC01_20140723T202013.mseed,"[['E', 'N', 'Z']]",1.0,0.3580000102519989,0.6420000195503235,Anthropogenic,0.0,0.636,0.364,Natural
20140728T211632,BSCB,1054,usp2014orqt,[],P,BL,,HHZ,-20.9984,-44.7635,20.46041712832205,-21.09174538,-44.59360886,0.0,2014-07-28T21:16:35.397827Z,2014-07-28T21:16:32.117197Z,2014-07-28T21:16:24.397827Z,2014-07-28T21:17:24.397827Z,earthquake,2.512400269,suspected,20140728T211632/BL_BSCB_20140728T211632.mseed,"[['Z', 'N', 'E']]",1.0,0.1420000046491623,0.8579999804496765,Anthropogenic,1.0,0.082,0.918,Anthropogenic
20140728T211632,MAN01,1052,usp2014orqt,[],P,ON,,HHZ,-22.86516,-43.964094,206.85191493215507,-21.09174538,-44.59360886,0.0,2014-07-28T21:17:04.882598Z,2014-07-28T21:16:32.117197Z,2014-07-28T21:16:53.882598Z,2014-07-28T21:17:53.882598Z,earthquake,2.512400269,suspected,20140728T211632/ON_MAN01_20140728T211632.mseed,"[['1', '2', 'Z']]",1.0,0.00800000037997961,0.9919999837875366,Anthropogenic,1.0,0.082,0.918,Anthropogenic
20140728T211632,PARB,1051,usp2014orqt,[],P,BL,,HHZ,-23.3421,-45.6246,270.9108245349457,-21.09174538,-44.59360886,0.0,2014-07-28T21:17:12.043518Z,2014-07-28T21:16:32.117197Z,2014-07-28T21:17:01.043518Z,2014-07-28T21:18:01.043518Z,earthquake,2.512400269,suspected,20140728T211632/BL_PARB_20140728T211632.mseed,"[['E', 'N', 'Z']]",1.0,0.07500000298023224,0.925000011920929,Anthropogenic,1.0,0.082,0.918,Anthropogenic
20140728T211632,VABB,1050,usp2014orqt,[],P,BL,,HHZ,-23.0021,-46.9657,323.5697754043593,-21.09174538,-44.59360886,0.0,2014-07-28T21:17:19.713104Z,2014-07-28T21:16:32.117197Z,2014-07-28T21:17:08.713104Z,2014-07-28T21:18:08.713104Z,earthquake,2.512400269,suspected,20140728T211632/BL_VABB_20140728T211632.mseed,"[['E', 'N', 'Z']]",1.0,0.008999999612569809,0.9909999966621399,Anthropogenic,1.0,0.082,0.918,Anthropogenic
20140728T211632,VAS01,1053,usp2014orqt,[],P,ON,,HHZ,-22.280081,-43.442624,177.48338316029145,-21.09174538,-44.59360886,0.0,2014-07-28T21:17:01.165222Z,2014-07-28T21:16:32.117197Z,2014-07-28T21:16:50.165222Z,2014-07-28T21:17:50.165222Z,earthquake,2.512400269,suspected,20140728T211632/ON_VAS01_20140728T211632.mseed,"[['E', 'N', 'Z']]",1.0,0.17499999701976776,0.824999988079071,Anthropogenic,1.0,0.082,0.918,Anthropogenic
20140729T145949,JANB,1374,usp2014oszv,[],P,BR,,HHZ,-15.058097,-44.311197,182.79789765600464,-16.65819359,-43.88702393,2000.0,2014-07-29T15:00:19.247968Z,2014-07-29T14:59:49.444312Z,2014-07-29T15:00:08.247968Z,2014-07-29T15:01:08.247968Z,earthquake,1.298347453,suspected,20140729T145949/BR_JANB_20140729T145949.mseed,"[['E', 'N', 'Z']]",0.0,0.5820000171661377,0.4180000126361847,Natural,0.0,0.705,0.295,Natural
20140729T145949,MC01,1375,usp2014oszv,[],P,BR,,HHZ,-16.70744,-43.94167,7.979691157181769,-16.65819359,-43.88702393,2000.0,2014-07-29T14:59:50.889227Z,2014-07-29T14:59:49.444312Z,2014-07-29T14:59:39.889227Z,2014-07-29T15:00:39.889227Z,earthquake,1.298347453,suspected,20140729T145949/BR_MC01_20140729T145949.mseed,"[['E', 'N', 'Z']]",0.0,0.828000009059906,0.1720000058412552,Natural,0.0,0.705,0.295,Natural
20140729T204204,BSFB,583,usp2014otlc,[],P,BL,,HHZ,-18.83133,-40.84653,391.60727042360224,-16.75828743,-43.83992004,2000.0,2014-07-29T20:43:00.033916Z,2014-07-29T20:42:04.244134Z,2014-07-29T20:42:49.033916Z,2014-07-29T20:43:49.033916Z,earthquake,2.160949559,suspected,20140729T204204/BL_BSFB_20140729T204204.mseed,"[['N', 'Z', 'E']]",1.0,0.3930000066757202,0.6069999933242798,Anthropogenic,1.0,0.469,0.531,Anthropogenic
20140729T204204,JANB,585,usp2014otlc,[],P,BR,,HHZ,-15.058097,-44.311197,194.7895896355581,-16.75828743,-43.83992004,2000.0,2014-07-29T20:42:35.247953Z,2014-07-29T20:42:04.244134Z,2014-07-29T20:42:24.247953Z,2014-07-29T20:43:24.247953Z,earthquake,2.160949559,suspected,20140729T204204/BR_JANB_20140729T204204.mseed,"[['E', 'N', 'Z']]",1.0,0.34200000762939453,0.6579999923706055,Anthropogenic,1.0,0.469,0.531,Anthropogenic
20140729T204204,MC01,586,usp2014otlc,[],P,BR,,HHZ,-16.70744,-43.94167,12.222530857506149,-16.75828743,-43.83992004,2000.0,2014-07-29T20:42:06.950193Z,2014-07-29T20:42:04.244134Z,2014-07-29T20:41:55.950193Z,2014-07-29T20:42:55.950193Z,earthquake,2.160949559,suspected,20140729T204204/BR_MC01_20140729T204204.mseed,"[['E', 'N', 'Z']]",1.0,0.24199999868869781,0.7580000162124634,Anthropogenic,1.0,0.469,0.531,Anthropogenic
20140729T204204,SJMB,584,usp2014otlc,[],P,BL,,HHZ,-18.702916,-41.184694,354.43499303171234,-16.75828743,-43.83992004,2000.0,2014-07-29T20:42:54.901004Z,2014-07-29T20:42:04.244134Z,2014-07-29T20:42:43.901004Z,2014-07-29T20:43:43.901004Z,earthquake,2.160949559,suspected,20140729T204204/BL_SJMB_20140729T204204.mseed,"[['E', 'N', 'Z']]",0.0,0.8980000019073486,0.10199999809265137,Natural,1.0,0.469,0.531,Anthropogenic
20140730T200137,JANB,2119,usp2014ovfh,[],P,BR,,HHZ,-15.058097,-44.311197,186.26273626740925,-13.38148022,-44.46689606,0.0,2014-07-30T20:02:07.747924Z,2014-07-30T20:01:37.420345Z,2014-07-30T20:01:56.747924Z,2014-07-30T20:02:56.747924Z,earthquake,2.192393969,suspected,20140730T200137/BR_JANB_20140730T200137.mseed,"[['E', 'N', 'Z']]",0.0,0.8949999809265137,0.10499999672174454,Natural,1.0,0.471,0.529,Anthropogenic
20140730T200137,SDBA,2120,usp2014ovfh,[],P,BR,,HHZ,-12.4085,-44.903,117.58644014017618,-13.38148022,-44.46689606,0.0,2014-07-30T20:01:57.652252Z,2014-07-30T20:01:37.420345Z,2014-07-30T20:01:46.652252Z,2014-07-30T20:02:46.652252Z,earthquake,2.192393969,suspected,20140730T200137/BR_SDBA_20140730T200137.mseed,"[['E', 'N', 'Z']]",1.0,0.04800000041723251,0.9520000219345093,Anthropogenic,1.0,0.471,0.529,Anthropogenic
20140730T202920,MCPB,386,usp2014ovgf,[],P,BR,,HHZ,-0.3602,-52.0567,234.9824370158714,0.3605,-50.0709,0.0,2014-07-30T20:29:56.554832Z,2014-07-30T20:29:20.000000Z,2014-07-30T20:29:45.554832Z,2014-07-30T20:30:45.554832Z,earthquake,1.901381458,suspected,20140730T202920/BR_MCPB_20140730T202920.mseed,"[['1', '2', 'Z']]",1.0,0.029999999329447746,0.9700000286102295,Anthropogenic,1.0,0.03,0.97,Anthropogenic
20140804T024634,CNLB,1146,usp2014pdaq,[],P,BL,,HHZ,-29.3148,-50.8533,16.55588177955947,-29.464,-50.8613,0.0,2014-08-04T02:46:34.886948Z,2014-08-04T02:46:34.000000Z,2014-08-04T02:46:23.886948Z,2014-08-04T02:47:23.886948Z,earthquake,1.567319067,known,20140804T024634/BL_CNLB_20140804T024634.mseed,"[['2', '1', 'Z']]",1.0,0.21299999952316284,0.7870000004768372,Anthropogenic,1.0,0.213,0.787,Anthropogenic
20140806T002623,CNLB,171,usp2014pgna,[],P,BL,,HHZ,-29.3148,-50.8533,17.165355775823514,-29.4694,-50.8636,0.0,2014-08-06T00:26:24.261474Z,2014-08-06T00:26:23.000000Z,2014-08-06T00:26:13.261474Z,2014-08-06T00:27:13.261474Z,earthquake,0.9529741482,known,20140806T002623/BL_CNLB_20140806T002623.mseed,"[['2', '1', 'Z']]",0.0,0.7630000114440918,0.2370000034570694,Natural,0.0,0.763,0.237,Natural
20140806T163207,ARAG,2337,usp2014phsx,[],P,BR,,HHZ,-15.706,-51.812,280.9822740439191,-13.89595222,-49.98114395,0.0,2014-08-06T16:32:49.452578Z,2014-08-06T16:32:07.320136Z,2014-08-06T16:32:38.452578Z,2014-08-06T16:33:38.452578Z,earthquake,2.424401543,suspected,20140806T163207/BR_ARAG_20140806T163207.mseed,"[['E', 'N', 'Z']]",1.0,0.42800000309944153,0.5720000267028809,Anthropogenic,1.0,0.336,0.664,Anthropogenic
20140806T163207,PEXB,2338,usp2014phsx,[],P,BL,,HHZ,-12.10584,-48.30085,269.1562790095604,-13.89595222,-49.98114395,0.0,2014-08-06T16:32:48.896240Z,2014-08-06T16:32:07.320136Z,2014-08-06T16:32:37.896240Z,2014-08-06T16:33:37.896240Z,earthquake,2.424401543,suspected,20140806T163207/BL_PEXB_20140806T163207.mseed,"[['E', 'N', 'Z']]",1.0,0.24500000476837158,0.7549999952316284,Anthropogenic,1.0,0.336,0.664,Anthropogenic
20140806T204255,PEXB,1124,usp2014pibe,[],P,BL,,HHZ,-12.10584,-48.30085,0.2111911599080015,-12.1073,-48.2996,0.0,2014-08-06T20:42:56.632583Z,2014-08-06T20:42:55.000000Z,2014-08-06T20:42:45.632583Z,2014-08-06T20:43:45.632583Z,earthquake,1.492333411,suspected,20140806T204255/BL_PEXB_20140806T204255.mseed,"[['E', 'N', 'Z']]",0.0,0.9340000152587891,0.06599999964237213,Natural,0.0,0.934,0.066,Natural
