EventID,Event,Error,Pick,Network,Station,Location,Channel,Latitude,Longitude,Distance,Origem Latitude,Origem Longitude,Depth/km,Pick Time,Origin Time,Start Time,End Time,Cat,MLv,Certainty,Path
usp2015akkm,20150106T163952,,P,BR,ARAG,,HHZ,-15.706,-51.812,272.10662116650826,-17.00253868,-53.97602844,0.0,2015-01-06T16:40:33.623061Z,2015-01-06T16:39:52.513537Z,2015-01-06T16:40:22.623061Z,2015-01-06T16:41:22.623061Z,earthquake,2.543128837,known,20150106T163952/BR_ARAG_20150106T163952.mseed
usp2015akkm,20150106T163952,,P,BL,C2SB,,HHZ,-18.7688,-52.8377,229.7090208386392,-17.00253868,-53.97602844,0.0,2015-01-06T16:40:28.368561Z,2015-01-06T16:39:52.513537Z,2015-01-06T16:40:17.368561Z,2015-01-06T16:41:17.368561Z,earthquake,2.543128837,known,20150106T163952/BL_C2SB_20150106T163952.mseed
usp2015akkm,20150106T163952,,P,BL,PP1B,,HHZ,-17.6003,-54.8796,116.63813280346686,-17.00253868,-53.97602844,0.0,2015-01-06T16:40:12.126082Z,2015-01-06T16:39:52.513537Z,2015-01-06T16:40:01.126082Z,2015-01-06T16:41:01.126082Z,earthquake,2.543128837,known,20150106T163952/BL_PP1B_20150106T163952.mseed
usp2015rufg,20150910T232853,,P,NB,NBMO,,HHZ,-3.310348,-40.042927,58.1057625388312,-3.817320824,-39.90538788,0.0,2015-09-10T23:29:02.289398Z,2015-09-10T23:28:53.080856Z,2015-09-10T23:28:51.289398Z,2015-09-10T23:29:51.289398Z,earthquake,2.269619269,known,20150910T232853/NB_NBMO_20150910T232853.mseed
usp2015rufg,20150910T232853,,P,NB,NBPS,,HHZ,-4.393969,-41.445618,182.520804408637,-3.817320824,-39.90538788,0.0,2015-09-10T23:29:22.676696Z,2015-09-10T23:28:53.080856Z,2015-09-10T23:29:11.676696Z,2015-09-10T23:30:11.676696Z,earthquake,2.269619269,known,20150910T232853/NB_NBPS_20150910T232853.mseed
usp2015rufg,20150910T232853,,P,NB,NBPB,,HHZ,-5.543242,-39.583619,194.16541145630043,-3.817320824,-39.90538788,0.0,2015-09-10T23:29:23.057861Z,2015-09-10T23:28:53.080856Z,2015-09-10T23:29:12.057861Z,2015-09-10T23:30:12.057861Z,earthquake,2.269619269,known,20150910T232853/NB_NBPB_20150910T232853.mseed
usp2015rufg,20150910T232853,,P,NB,NBCL,,HHZ,-4.224377,-38.291041,184.83312196229184,-3.817320824,-39.90538788,0.0,2015-09-10T23:29:23.781799Z,2015-09-10T23:28:53.080856Z,2015-09-10T23:29:12.781799Z,2015-09-10T23:30:12.781799Z,earthquake,2.269619269,known,20150910T232853/NB_NBCL_20150910T232853.mseed
usp2020rbac,20200830T111807,,P,ON,GUA01,,HHZ,-16.58349,-39.805342,396.9446264075344,-13.00246429,-39.58411407,0.0,2020-08-30T11:19:03.906642Z,2020-08-30T11:18:07.108883Z,2020-08-30T11:18:52.906642Z,2020-08-30T11:19:52.906642Z,earthquake,3.686849636,known,20200830T111807/ON_GUA01_20200830T111807.mseed
usp2020rbac,20200830T111807,,P,ON,CMC01,,HHZ,-15.360055,-39.519089,260.9408197403863,-13.00246429,-39.58411407,0.0,2020-08-30T11:18:47.594948Z,2020-08-30T11:18:07.108883Z,2020-08-30T11:18:36.594948Z,2020-08-30T11:19:36.594948Z,earthquake,3.686849636,known,20200830T111807/ON_CMC01_20200830T111807.mseed
usp2020rbac,20200830T111807,,P,NB,NBPN,,HHZ,-10.847009,-40.198957,247.66726672308667,-13.00246429,-39.58411407,0.0,2020-08-30T11:18:45.085697Z,2020-08-30T11:18:07.108883Z,2020-08-30T11:18:34.085697Z,2020-08-30T11:19:34.085697Z,earthquake,3.686849636,known,20200830T111807/NB_NBPN_20200830T111807.mseed
usp2020rbac,20200830T111807,,P,NB,NBIT,,HHZ,-14.930689,-39.434579,213.94790350307656,-13.00246429,-39.58411407,0.0,2020-08-30T11:18:40.792286Z,2020-08-30T11:18:07.108883Z,2020-08-30T11:18:29.792286Z,2020-08-30T11:19:29.792286Z,earthquake,3.686849636,known,20200830T111807/NB_NBIT_20200830T111807.mseed
usp2015aqzf,20150110T065510,,P,BR,PDRB,,HHZ,-11.612297,-56.729597,22.449255331835285,-11.41101742,-56.75588989,0.0,2015-01-10T06:55:14.256011Z,2015-01-10T06:55:10.210676Z,2015-01-10T06:55:03.256011Z,2015-01-10T06:56:03.256011Z,earthquake,3.246361719,known,20150110T065510/BR_PDRB_20150110T065510.mseed
usp2016hdlg,20160411T115522,,P,ON,RIB01,,HHZ,-19.314216,-40.394365,394.068525452159,-19.44933333,-44.143,0.0,2016-04-11T11:56:17.431997Z,2016-04-11T11:55:22.449999Z,2016-04-11T11:56:06.431997Z,2016-04-11T11:57:06.431997Z,earthquake,3.281836033,known,20160411T115522/ON_RIB01_20160411T115522.mseed
usp2016hdlg,20160411T115522,,P,ON,MAN01,,HHZ,-22.86516,-43.964094,378.65400659831414,-19.44933333,-44.143,0.0,2016-04-11T11:56:16.094540Z,2016-04-11T11:55:22.449999Z,2016-04-11T11:56:05.094540Z,2016-04-11T11:57:05.094540Z,earthquake,3.281836033,known,20160411T115522/ON_MAN01_20160411T115522.mseed
usp2016hdlg,20160411T115522,,P,ON,ALF01,,HHZ,-20.616865,-40.725213,380.2150302791897,-19.44933333,-44.143,0.0,2016-04-11T11:56:16.043921Z,2016-04-11T11:55:22.449999Z,2016-04-11T11:56:05.043921Z,2016-04-11T11:57:05.043921Z,earthquake,3.281836033,known,20160411T115522/ON_ALF01_20160411T115522.mseed
usp2016hdlg,20160411T115522,,P,ON,CAM01,,HHZ,-21.825656,-41.657401,369.1967305646836,-19.44933333,-44.143,0.0,2016-04-11T11:56:14.746004Z,2016-04-11T11:55:22.449999Z,2016-04-11T11:56:03.746004Z,2016-04-11T11:57:03.746004Z,earthquake,3.281836033,known,20160411T115522/ON_CAM01_20160411T115522.mseed
usp2016hdlg,20160411T115522,,P,ON,DUB01,,HHZ,-22.080966,-42.374182,344.6845561216187,-19.44933333,-44.143,0.0,2016-04-11T11:56:12.186737Z,2016-04-11T11:55:22.449999Z,2016-04-11T11:56:01.186737Z,2016-04-11T11:57:01.186737Z,earthquake,3.281836033,known,20160411T115522/ON_DUB01_20160411T115522.mseed
usp2016hdlg,20160411T115522,,P,ON,VAS01,,HHZ,-22.280081,-43.442624,321.76814876053953,-19.44933333,-44.143,0.0,2016-04-11T11:56:09.015445Z,2016-04-11T11:55:22.449999Z,2016-04-11T11:55:58.015445Z,2016-04-11T11:56:58.015445Z,earthquake,3.281836033,known,20160411T115522/ON_VAS01_20160411T115522.mseed
usp2016hdlg,20160411T115522,,P,BL,SJMB,,HHZ,-18.702916,-41.184694,322.1141950225438,-19.44933333,-44.143,0.0,2016-04-11T11:56:09.084020Z,2016-04-11T11:55:22.449999Z,2016-04-11T11:55:58.084020Z,2016-04-11T11:56:58.084020Z,earthquake,3.281836033,known,20160411T115522/BL_SJMB_20160411T115522.mseed
usp2016hdlg,20160411T115522,,P,BL,DIAM,,HHZ,-18.2952,-43.6648,137.32960539063723,-19.44933333,-44.143,0.0,2016-04-11T11:55:45.688486Z,2016-04-11T11:55:22.449999Z,2016-04-11T11:55:34.688486Z,2016-04-11T11:56:34.688486Z,earthquake,3.281836033,known,20160411T115522/BL_DIAM_20160411T115522.mseed
usp2024mkuy,20240625T162156,,P,GE,SALTA,,HHZ,-24.2241,-66.34,278.98511678463296,-22.72389984,-68.53385925,105000.0,2024-06-25T16:22:36.940552Z,2024-06-25T16:21:56.769715Z,2024-06-25T16:22:25.940552Z,2024-06-25T16:23:25.940552Z,earthquake,4.397704054,known,20240625T162156/GE_SALTA_20240625T162156.mseed
usp2018bojv,20180123T022350,,P,BX,LDASE,,HHZ,-23.3932,-51.1177,8.80516012808984,-23.35,-51.19,0.0,2018-01-23T02:23:51.869610Z,2018-01-23T02:23:50.000000Z,2018-01-23T02:23:40.869610Z,2018-01-23T02:24:40.869610Z,earthquake,0.7047947441,known,20180123T022350/BX_LDASE_20180123T022350.mseed
usp2016dxua,20160225T165133,,P,NB,NBPV,,HHZ,-6.417527,-35.290516,225.48765846436905,-8.285860062,-36.10827255,0.0,2016-02-25T16:52:08.375112Z,2016-02-25T16:51:33.183460Z,2016-02-25T16:51:57.375112Z,2016-02-25T16:52:57.375112Z,earthquake,2.267070145,suspected,20160225T165133/NB_NBPV_20160225T165133.mseed
usp2016dxua,20160225T165133,,P,NB,NBRF,,HHZ,-8.679466,-35.127172,116.46975064297553,-8.285860062,-36.10827255,0.0,2016-02-25T16:51:53.058632Z,2016-02-25T16:51:33.183460Z,2016-02-25T16:51:42.058632Z,2016-02-25T16:52:42.058632Z,earthquake,2.267070145,suspected,20160225T165133/NB_NBRF_20160225T165133.mseed
usp2016dxua,20160225T165133,,P,NB,NBLA,,HHZ,-10.99255,-37.788972,351.6360158233867,-8.285860062,-36.10827255,0.0,2016-02-25T16:52:24.111158Z,2016-02-25T16:51:33.183460Z,2016-02-25T16:52:13.111158Z,2016-02-25T16:53:13.111158Z,earthquake,2.267070145,suspected,20160225T165133/NB_NBLA_20160225T165133.mseed
usp2016dxua,20160225T165133,,P,NB,NBMA,,HHZ,-7.365352,-38.764058,310.0893545967207,-8.285860062,-36.10827255,0.0,2016-02-25T16:52:19.102461Z,2016-02-25T16:51:33.183460Z,2016-02-25T16:52:08.102461Z,2016-02-25T16:53:08.102461Z,earthquake,2.267070145,suspected,20160225T165133/NB_NBMA_20160225T165133.mseed
usp2016dxua,20160225T165133,,P,NB,NBAN,,HHZ,-9.668656,-36.274726,154.0305013898977,-8.285860062,-36.10827255,0.0,2016-02-25T16:51:58.721313Z,2016-02-25T16:51:33.183460Z,2016-02-25T16:51:47.721313Z,2016-02-25T16:52:47.721313Z,earthquake,2.267070145,suspected,20160225T165133/NB_NBAN_20160225T165133.mseed
usp2016dxua,20160225T165133,,P,NB,NBLV,,HHZ,-7.357693,-36.921745,136.33169140437096,-8.285860062,-36.10827255,0.0,2016-02-25T16:51:56.177856Z,2016-02-25T16:51:33.183460Z,2016-02-25T16:51:45.177856Z,2016-02-25T16:52:45.177856Z,earthquake,2.267070145,suspected,20160225T165133/NB_NBLV_20160225T165133.mseed
usp2022babz,20220115T063206,,P,BL,ITRB,,HHZ,-19.7042,-50.359,233.18020346756128,-21.08945084,-48.67615891,0.0,2022-01-15T06:32:43.244048Z,2022-01-15T06:32:06.921709Z,2022-01-15T06:32:32.244048Z,2022-01-15T06:33:32.244048Z,earthquake,2.033963173,suspected,20220115T063206/BL_ITRB_20220115T063206.mseed
usp2022babz,20220115T063206,,P,BL,CANS,,HHZ,-20.2896,-46.3921,253.90061517215705,-21.08945084,-48.67615891,0.0,2022-01-15T06:32:45.659896Z,2022-01-15T06:32:06.921709Z,2022-01-15T06:32:34.659896Z,2022-01-15T06:33:34.659896Z,earthquake,2.033963173,suspected,20220115T063206/BL_CANS_20220115T063206.mseed
usp2022babz,20220115T063206,,P,BL,FRTB,,HHZ,-23.3439,-49.564,265.8936810905831,-21.08945084,-48.67615891,0.0,2022-01-15T06:32:47.490127Z,2022-01-15T06:32:06.921709Z,2022-01-15T06:32:36.490127Z,2022-01-15T06:33:36.490127Z,earthquake,2.033963173,suspected,20220115T063206/BL_FRTB_20220115T063206.mseed
usp2022babz,20220115T063206,,P,BL,VABB,,HHZ,-23.0021,-46.9657,275.7294591452129,-21.08945084,-48.67615891,0.0,2022-01-15T06:32:48.382482Z,2022-01-15T06:32:06.921709Z,2022-01-15T06:32:37.382482Z,2022-01-15T06:33:37.382482Z,earthquake,2.033963173,suspected,20220115T063206/BL_VABB_20220115T063206.mseed
usp2020sxdw,20200925T194337,,P,BR,SALV,,HHZ,-15.90118,-55.69356,279.7530040183828,-16.96948624,-53.31947327,0.0,2020-09-25T19:44:19.515538Z,2020-09-25T19:43:37.660984Z,2020-09-25T19:44:08.515538Z,2020-09-25T19:45:08.515538Z,earthquake,2.380403737,suspected,20200925T194337/BR_SALV_20200925T194337.mseed
usp2020sxdw,20200925T194337,,P,BR,ARAG,,HHZ,-15.706,-51.812,213.29383894523252,-16.96948624,-53.31947327,0.0,2020-09-25T19:44:11.503890Z,2020-09-25T19:43:37.660984Z,2020-09-25T19:44:00.503890Z,2020-09-25T19:45:00.503890Z,earthquake,2.380403737,suspected,20200925T194337/BR_ARAG_20200925T194337.mseed
usp2020sxdw,20200925T194337,,P,BL,C2SB,,HHZ,-18.7688,-52.8377,205.58701379283806,-16.96948624,-53.31947327,0.0,2020-09-25T19:44:10.271143Z,2020-09-25T19:43:37.660984Z,2020-09-25T19:43:59.271143Z,2020-09-25T19:44:59.271143Z,earthquake,2.380403737,suspected,20200925T194337/BL_C2SB_20200925T194337.mseed
usp2020sxdw,20200925T194337,,P,BL,PP1B,,HHZ,-17.6003,-54.8796,179.9696202743478,-16.96948624,-53.31947327,0.0,2020-09-25T19:44:06.799635Z,2020-09-25T19:43:37.660984Z,2020-09-25T19:43:55.799635Z,2020-09-25T19:44:55.799635Z,earthquake,2.380403737,suspected,20200925T194337/BL_PP1B_20200925T194337.mseed
usp2018ysnw,20181218T161918,,P,ON,CMC01,,HHZ,-15.360055,-39.519089,220.91190671087185,-13.70076847,-40.65911102,0.0,2018-12-18T16:19:53.134294Z,2018-12-18T16:19:18.272961Z,2018-12-18T16:19:42.134294Z,2018-12-18T16:20:42.134294Z,earthquake,1.716957727,suspected,20181218T161918/ON_CMC01_20181218T161918.mseed
usp2018ysnw,20181218T161918,,P,ON,GDU01,,HHZ,-13.72,-39.575278,117.25516442759965,-13.70076847,-40.65911102,0.0,2018-12-18T16:19:38.355751Z,2018-12-18T16:19:18.272961Z,2018-12-18T16:19:27.355751Z,2018-12-18T16:20:27.355751Z,earthquake,1.716957727,suspected,20181218T161918/ON_GDU01_20181218T161918.mseed
usp2018ysnw,20181218T161918,,P,ON,ANA01,,HHZ,-14.531001,-40.74522,92.32660789303134,-13.70076847,-40.65911102,0.0,2018-12-18T16:19:34.167526Z,2018-12-18T16:19:18.272961Z,2018-12-18T16:19:23.167526Z,2018-12-18T16:20:23.167526Z,earthquake,1.716957727,suspected,20181218T161918/ON_ANA01_20181218T161918.mseed
usp2022yikw,20221213T032627,,P,NB,NBMA,,HHZ,-7.365352,-38.764058,302.4582030883084,-9.84998703,-39.91209793,0.0,2022-12-13T03:27:12.705123Z,2022-12-13T03:26:27.848673Z,2022-12-13T03:27:01.705123Z,2022-12-13T03:28:01.705123Z,earthquake,2.097140672,suspected,20221213T032627/NB_NBMA_20221213T032627.mseed
usp2022yikw,20221213T032627,,P,NB,NBLA,,HHZ,-10.99255,-37.788972,264.59955364365595,-9.84998703,-39.91209793,0.0,2022-12-13T03:27:07.987175Z,2022-12-13T03:26:27.848673Z,2022-12-13T03:26:56.987175Z,2022-12-13T03:27:56.987175Z,earthquake,2.097140672,suspected,20221213T032627/NB_NBLA_20221213T032627.mseed
usp2022yikw,20221213T032627,,P,NB,NBTA,,HHZ,-9.121932,-38.063215,218.40609002665036,-9.84998703,-39.91209793,0.0,2022-12-13T03:27:02.294872Z,2022-12-13T03:26:27.848673Z,2022-12-13T03:26:51.294872Z,2022-12-13T03:27:51.294872Z,earthquake,2.097140672,suspected,20221213T032627/NB_NBTA_20221213T032627.mseed
usp2022yikw,20221213T032627,,P,NB,NBPN,,HHZ,-10.847009,-40.198957,114.6683894891254,-9.84998703,-39.91209793,0.0,2022-12-13T03:26:47.378206Z,2022-12-13T03:26:27.848673Z,2022-12-13T03:26:36.378206Z,2022-12-13T03:27:36.378206Z,earthquake,2.097140672,suspected,20221213T032627/NB_NBPN_20221213T032627.mseed
usp2020aznr,20200114T231900,,P,BL,BSCB,,HHZ,-20.9984,-44.7635,395.1138258839687,-24.489,-43.96683333,0.0,2020-01-14T23:19:56.466878Z,2020-01-14T23:19:00.500000Z,2020-01-14T23:19:45.466878Z,2020-01-14T23:20:45.466878Z,earthquake,2.65089906,suspected,20200114T231900/BL_BSCB_20200114T231900.mseed
usp2020aznr,20200114T231900,,P,ON,CAM01,,HHZ,-21.825656,-41.657401,378.0360944423371,-24.489,-43.96683333,0.0,2020-01-14T23:19:54.651813Z,2020-01-14T23:19:00.500000Z,2020-01-14T23:19:43.651813Z,2020-01-14T23:20:43.651813Z,earthquake,2.65089906,suspected,20200114T231900/ON_CAM01_20200114T231900.mseed
usp2020aznr,20200114T231900,,P,BL,VABB,,HHZ,-23.0021,-46.9657,347.2509037256403,-24.489,-43.96683333,0.0,2020-01-14T23:19:50.683385Z,2020-01-14T23:19:00.500000Z,2020-01-14T23:19:39.683385Z,2020-01-14T23:20:39.683385Z,earthquake,2.65089906,suspected,20200114T231900/BL_VABB_20200114T231900.mseed
usp2020aznr,20200114T231900,,P,ON,PET01,,HHZ,-24.290108,-47.275344,336.3397375950416,-24.489,-43.96683333,0.0,2020-01-14T23:19:48.975661Z,2020-01-14T23:19:00.500000Z,2020-01-14T23:19:37.975661Z,2020-01-14T23:20:37.975661Z,earthquake,2.65089906,suspected,20200114T231900/ON_PET01_20200114T231900.mseed
usp2020aznr,20200114T231900,,P,ON,DUB01,,HHZ,-22.080966,-42.374182,312.5114900953259,-24.489,-43.96683333,0.0,2020-01-14T23:19:46.478675Z,2020-01-14T23:19:00.500000Z,2020-01-14T23:19:35.478675Z,2020-01-14T23:20:35.478675Z,earthquake,2.65089906,suspected,20200114T231900/ON_DUB01_20200114T231900.mseed
usp2020aznr,20200114T231900,,P,BL,PARB,,HHZ,-23.3421,-45.6246,211.24475245126308,-24.489,-43.96683333,0.0,2020-01-14T23:19:33.959327Z,2020-01-14T23:19:00.500000Z,2020-01-14T23:19:22.959327Z,2020-01-14T23:20:22.959327Z,earthquake,2.65089906,suspected,20200114T231900/BL_PARB_20200114T231900.mseed
usp2016frpw,20160321T191400,,P,BL,BB19B,,HHZ,-21.0662,-48.5279,34.35020916503184,-21.3736,-48.5726,0.0,2016-03-21T19:14:07.262939Z,2016-03-21T19:14:00.000000Z,2016-03-21T19:13:56.262939Z,2016-03-21T19:14:56.262939Z,earthquake,1.336833567,known,20160321T191400/BL_BB19B_20160321T191400.mseed
usp2017opgx,20170727T140210,,P,BR,CZSB,,HHZ,-7.7299,-72.7049,342.3278592925772,-10.4123745,-74.25847626,129000.0,2017-07-27T14:02:58.200862Z,2017-07-27T14:02:10.101286Z,2017-07-27T14:02:47.200862Z,2017-07-27T14:03:47.200862Z,earthquake,4.095793594,known,20170727T140210/BR_CZSB_20170727T140210.mseed
usp2021gnfj,20210403T144101,,P,BR,BOAV,,HHZ,2.3953,-60.5225,116.17002632578185,2.700666667,-59.523,0.0,2021-04-03T14:41:19.786527Z,2021-04-03T14:41:01.080000Z,2021-04-03T14:41:08.786527Z,2021-04-03T14:42:08.786527Z,earthquake,4.151803025,suspected,20210403T144101/BR_BOAV_20210403T144101.mseed
usp2021gnfj,20210403T144101,,P,XV,GUY3,,HHZ,2.638405,-59.432881,12.158253089898741,2.700666667,-59.523,0.0,2021-04-03T14:41:03.060521Z,2021-04-03T14:41:01.080000Z,2021-04-03T14:40:52.060521Z,2021-04-03T14:41:52.060521Z,earthquake,4.151803025,suspected,20210403T144101/XV_GUY3_20210403T144101.mseed
usp2021gnfj,20210403T144101,,P,XV,GUY2,,HHZ,2.6527,-59.62017,12.036799398427174,2.700666667,-59.523,0.0,2021-04-03T14:41:03.051196Z,2021-04-03T14:41:01.080000Z,2021-04-03T14:40:52.051196Z,2021-04-03T14:41:52.051196Z,earthquake,4.151803025,suspected,20210403T144101/XV_GUY2_20210403T144101.mseed
usp2021gnfj,20210403T144101,,P,XV,GUY1,,HHZ,2.79532,-59.54006,10.636977119065747,2.700666667,-59.523,0.0,2021-04-03T14:41:02.835628Z,2021-04-03T14:41:01.080000Z,2021-04-03T14:40:51.835628Z,2021-04-03T14:41:51.835628Z,earthquake,4.151803025,suspected,20210403T144101/XV_GUY1_20210403T144101.mseed
usp2021gnfj,20210403T144101,,P,XV,GUY4,,HHZ,2.701044,-59.498237,2.7538790026007662,2.700666667,-59.523,0.0,2021-04-03T14:41:01.484265Z,2021-04-03T14:41:01.080000Z,2021-04-03T14:40:50.484265Z,2021-04-03T14:41:50.484265Z,earthquake,4.151803025,suspected,20210403T144101/XV_GUY4_20210403T144101.mseed
usp2017mtzp,20170701T165646,,P,BR,CZSB,,HHZ,-7.7299,-72.7049,390.8002316390166,-10.7844944,-74.49279022,50000.0,2017-07-01T16:57:38.711635Z,2017-07-01T16:56:46.201983Z,2017-07-01T16:57:27.711635Z,2017-07-01T16:58:27.711635Z,earthquake,4.693413138,known,20170701T165646/BR_CZSB_20170701T165646.mseed
usp2013ekfx,20130304T122916,,P,BR,IPMB,,HHZ,-17.982956,-48.211734,291.7855844429491,-18.53904152,-45.51453018,0.0,2013-03-04T12:30:00.059783Z,2013-03-04T12:29:16.156417Z,2013-03-04T12:29:49.059783Z,2013-03-04T12:30:49.059783Z,earthquake,2.989014876,known,20130304T122916/BR_IPMB_20130304T122916.mseed
usp2013ekfx,20130304T122916,,P,BL,BSCB,,HHZ,-20.9984,-44.7635,283.40109081514606,-18.53904152,-45.51453018,0.0,2013-03-04T12:29:58.732604Z,2013-03-04T12:29:16.156417Z,2013-03-04T12:29:47.732604Z,2013-03-04T12:30:47.732604Z,earthquake,2.989014876,known,20130304T122916/BL_BSCB_20130304T122916.mseed
usp2013ekfx,20130304T122916,,P,BL,MCI8,,HHZ,-16.65967,-43.92041,268.1239655529116,-18.53904152,-45.51453018,0.0,2013-03-04T12:29:56.652160Z,2013-03-04T12:29:16.156417Z,2013-03-04T12:29:45.652160Z,2013-03-04T12:30:45.652160Z,earthquake,2.989014876,known,20130304T122916/BL_MCI8_20130304T122916.mseed
usp2013ekfx,20130304T122916,,P,BL,MCI9,,HHZ,-16.69806,-43.89328,266.6789523004077,-18.53904152,-45.51453018,0.0,2013-03-04T12:29:56.580413Z,2013-03-04T12:29:16.156417Z,2013-03-04T12:29:45.580413Z,2013-03-04T12:30:45.580413Z,earthquake,2.989014876,known,20130304T122916/BL_MCI9_20130304T122916.mseed
usp2013ekfx,20130304T122916,,P,BL,MCI6,,HHZ,-16.80705,-43.8933,257.54580563836595,-18.53904152,-45.51453018,0.0,2013-03-04T12:29:55.791290Z,2013-03-04T12:29:16.156417Z,2013-03-04T12:29:44.791290Z,2013-03-04T12:30:44.791290Z,earthquake,2.989014876,known,20130304T122916/BL_MCI6_20130304T122916.mseed
usp2021cquq,20210207T154000,,P,NB,NBPA,,HHZ,-5.75028,-37.112047,218.263564436758,-4.134428024,-38.24222565,0.0,2021-02-07T15:40:35.253622Z,2021-02-07T15:40:00.862947Z,2021-02-07T15:40:24.253622Z,2021-02-07T15:41:24.253622Z,earthquake,1.848470441,known,20210207T154000/NB_NBPA_20210207T154000.mseed
usp2021cquq,20210207T154000,,P,NB,NBMO,,HHZ,-3.310348,-40.042927,219.81006062934904,-4.134428024,-38.24222565,0.0,2021-02-07T15:40:35.459336Z,2021-02-07T15:40:00.862947Z,2021-02-07T15:40:24.459336Z,2021-02-07T15:41:24.459336Z,earthquake,1.848470441,known,20210207T154000/NB_NBMO_20210207T154000.mseed
usp2021cquq,20210207T154000,,P,NB,NBMA,,HHZ,-7.365352,-38.764058,361.9377381488838,-4.134428024,-38.24222565,0.0,2021-02-07T15:40:53.056790Z,2021-02-07T15:40:00.862947Z,2021-02-07T15:40:42.056790Z,2021-02-07T15:41:42.056790Z,earthquake,1.848470441,known,20210207T154000/NB_NBMA_20210207T154000.mseed
usp2015fgsx,20150316T200239,,P,NB,NBLI,,HHZ,-7.364556,-36.949743,239.30407496357213,-8.20911026,-34.95222855,0.0,2015-03-16T20:03:16.773910Z,2015-03-16T20:02:39.460731Z,2015-03-16T20:03:05.773910Z,2015-03-16T20:04:05.773910Z,earthquake,1.257805545,suspected,20150316T200239/NB_NBLI_20150316T200239.mseed
usp2015fgsx,20150316T200239,,P,NB,NBRF,,HHZ,-8.679466,-35.127172,55.47312180187522,-8.20911026,-34.95222855,0.0,2015-03-16T20:02:48.678268Z,2015-03-16T20:02:39.460731Z,2015-03-16T20:02:37.678268Z,2015-03-16T20:03:37.678268Z,earthquake,1.257805545,suspected,20150316T200239/NB_NBRF_20150316T200239.mseed
usp2021gayn,20210327T213536,,P,NB,NBMO,,HHZ,-3.310348,-40.042927,398.1086061641122,-5.870241642,-37.52006912,0.0,2021-03-27T21:36:32.728568Z,2021-03-27T21:35:36.414292Z,2021-03-27T21:36:21.728568Z,2021-03-27T21:37:21.728568Z,earthquake,2.490423531,known,20210327T213536/NB_NBMO_20210327T213536.mseed
usp2021gayn,20210327T213536,,P,NB,NBPV,,HHZ,-6.417527,-35.290516,254.08882246774132,-5.870241642,-37.52006912,0.0,2021-03-27T21:36:15.400981Z,2021-03-27T21:35:36.414292Z,2021-03-27T21:36:04.400981Z,2021-03-27T21:37:04.400981Z,earthquake,2.490423531,known,20210327T213536/NB_NBPV_20210327T213536.mseed
usp2021gayn,20210327T213536,,P,NB,NBPA,,HHZ,-5.75028,-37.112047,47.096012382407814,-5.870241642,-37.52006912,0.0,2021-03-27T21:35:44.870679Z,2021-03-27T21:35:36.414292Z,2021-03-27T21:35:33.870679Z,2021-03-27T21:36:33.870679Z,earthquake,2.490423531,known,20210327T213536/NB_NBPA_20210327T213536.mseed
usp2016dkpq,20160218T115201,,P,ON,TER01,,HHZ,-28.531839,-49.129072,278.2050835751048,-27.18205452,-51.51086044,0.0,2016-02-18T11:52:42.794822Z,2016-02-18T11:52:01.033857Z,2016-02-18T11:52:31.794822Z,2016-02-18T11:53:31.794822Z,earthquake,2.257516451,suspected,20160218T115201/ON_TER01_20160218T115201.mseed
usp2016dkpq,20160218T115201,,P,BL,ITAB,,HHZ,-27.2349,-52.1313,61.745909299490485,-27.18205452,-51.51086044,0.0,2016-02-18T11:52:11.790581Z,2016-02-18T11:52:01.033857Z,2016-02-18T11:52:00.790581Z,2016-02-18T11:53:00.790581Z,earthquake,2.257516451,suspected,20160218T115201/BL_ITAB_20160218T115201.mseed
usp2016dkpq,20160218T115201,,P,ON,TIJ01,,HHZ,-25.908848,-49.024241,285.12316416426336,-27.18205452,-51.51086044,0.0,2016-02-18T11:52:48.207973Z,2016-02-18T11:52:01.033857Z,2016-02-18T11:52:37.207973Z,2016-02-18T11:53:37.207973Z,earthquake,2.257516451,suspected,20160218T115201/ON_TIJ01_20160218T115201.mseed
usp2016dkpq,20160218T115201,,P,BL,PTGB,,HHZ,-24.72095,-52.01182,277.23634438196547,-27.18205452,-51.51086044,0.0,2016-02-18T11:52:42.651447Z,2016-02-18T11:52:01.033857Z,2016-02-18T11:52:31.651447Z,2016-02-18T11:53:31.651447Z,earthquake,2.257516451,suspected,20160218T115201/BL_PTGB_20160218T115201.mseed
usp2017jfco,20170511T204807,,P,BX,TQJ5A,,HHZ,-21.3614,-48.5929,217.55217769279093,-21.26412582,-50.68718719,0.0,2017-05-11T20:48:41.443557Z,2017-05-11T20:48:07.286636Z,2017-05-11T20:48:30.443557Z,2017-05-11T20:49:30.443557Z,earthquake,2.519077336,suspected,20170511T204807/BX_TQJ5A_20170511T204807.mseed
usp2017jfco,20170511T204807,,P,BL,BB19B,,HHZ,-21.0662,-48.5279,225.32036055077532,-21.26412582,-50.68718719,0.0,2017-05-11T20:48:42.493564Z,2017-05-11T20:48:07.286636Z,2017-05-11T20:48:31.493564Z,2017-05-11T20:49:31.493564Z,earthquake,2.519077336,suspected,20170511T204807/BL_BB19B_20170511T204807.mseed
usp2017jfco,20170511T204807,,P,BL,FRTB,,HHZ,-23.3439,-49.564,257.74290761867826,-21.26412582,-50.68718719,0.0,2017-05-11T20:48:46.475174Z,2017-05-11T20:48:07.286636Z,2017-05-11T20:48:35.475174Z,2017-05-11T20:49:35.475174Z,earthquake,2.519077336,suspected,20170511T204807/BL_FRTB_20170511T204807.mseed
usp2017jfco,20170511T204807,,P,BL,PCMB,,HHZ,-21.6074,-51.2619,70.66924986590409,-21.26412582,-50.68718719,0.0,2017-05-11T20:48:19.575073Z,2017-05-11T20:48:07.286636Z,2017-05-11T20:48:08.575073Z,2017-05-11T20:49:08.575073Z,earthquake,2.519077336,suspected,20170511T204807/BL_PCMB_20170511T204807.mseed
usp2012tkqn,20121003T045247,,P,NB,NBLI,,HHZ,-7.364556,-36.949743,125.71970872595578,-8.223321915,-36.20291901,0.0,2012-10-03T04:53:08.230648Z,2012-10-03T04:52:47.696524Z,2012-10-03T04:52:57.230648Z,2012-10-03T04:53:57.230648Z,earthquake,1.786019986,known,20121003T045247/NB_NBLI_20121003T045247.mseed
usp2014uojr,20141020T113018,,P,BR,CZSB,,HHZ,-7.7299,-72.7049,360.1212023630309,-9.98493576,-75.06663513,10000.0,2014-10-20T11:31:08.934265Z,2014-10-20T11:30:18.188049Z,2014-10-20T11:30:57.934265Z,2014-10-20T11:31:57.934265Z,earthquake,3.970977507,known,20141020T113018/BR_CZSB_20141020T113018.mseed
usp2020hmyz,20200416T165951,,P,BL,PARB,,HHZ,-23.3421,-45.6246,293.086470521313,-24.72204971,-48.08306503,0.0,2020-04-16T17:00:35.493076Z,2020-04-16T16:59:51.887412Z,2020-04-16T17:00:24.493076Z,2020-04-16T17:01:24.493076Z,earthquake,2.127491606,known,20200416T165951/BL_PARB_20200416T165951.mseed
usp2020hmyz,20200416T165951,,P,BL,RCLB,,HHZ,-22.4191,-47.531,261.20776588197754,-24.72204971,-48.08306503,0.0,2020-04-16T17:00:31.612660Z,2020-04-16T16:59:51.887412Z,2020-04-16T17:00:20.612660Z,2020-04-16T17:01:20.612660Z,earthquake,2.127491606,known,20200416T165951/BL_RCLB_20200416T165951.mseed
usp2020hmyz,20200416T165951,,P,BL,VABB,,HHZ,-23.0021,-46.9657,221.90227628958348,-24.72204971,-48.08306503,0.0,2020-04-16T17:00:26.706702Z,2020-04-16T16:59:51.887412Z,2020-04-16T17:00:15.706702Z,2020-04-16T17:01:15.706702Z,earthquake,2.127491606,known,20200416T165951/BL_VABB_20200416T165951.mseed
usp2020hmyz,20200416T165951,,P,BL,FRTB,,HHZ,-23.3439,-49.564,214.45951780751065,-24.72204971,-48.08306503,0.0,2020-04-16T17:00:25.847464Z,2020-04-16T16:59:51.887412Z,2020-04-16T17:00:14.847464Z,2020-04-16T17:01:14.847464Z,earthquake,2.127491606,known,20200416T165951/BL_FRTB_20200416T165951.mseed
usp2020hmyz,20200416T165951,,P,ON,TIJ01,,HHZ,-25.908848,-49.024241,162.06450825200073,-24.72204971,-48.08306503,0.0,2020-04-16T17:00:18.491398Z,2020-04-16T16:59:51.887412Z,2020-04-16T17:00:07.491398Z,2020-04-16T17:01:07.491398Z,earthquake,2.127491606,known,20200416T165951/ON_TIJ01_20200416T165951.mseed
usp2020hmyz,20200416T165951,,P,ON,PET01,,HHZ,-24.290108,-47.275344,94.81806622115342,-24.72204971,-48.08306503,0.0,2020-04-16T17:00:08.339393Z,2020-04-16T16:59:51.887412Z,2020-04-16T16:59:57.339393Z,2020-04-16T17:00:57.339393Z,earthquake,2.127491606,known,20200416T165951/ON_PET01_20200416T165951.mseed
usp2019jlko,20190515T073908,,P,BR,CZSB,,HHZ,-7.7299,-72.7049,244.51358272209666,-8.658065796,-74.71891022,136642.7612,2019-05-15T07:39:45.593938Z,2019-05-15T07:39:08.692904Z,2019-05-15T07:39:34.593938Z,2019-05-15T07:40:34.593938Z,earthquake,4.175993609,known,20190515T073908/BR_CZSB_20190515T073908.mseed
usp2020leli,20200607T231013,,P,BR,IPMB,,HHZ,-17.982956,-48.211734,348.96967178696843,-21.06053352,-48.93208313,0.0,2020-06-07T23:11:04.134109Z,2020-06-07T23:10:13.433092Z,2020-06-07T23:10:53.134109Z,2020-06-07T23:11:53.134109Z,earthquake,2.134238253,suspected,20200607T231013/BR_IPMB_20200607T231013.mseed
usp2020leli,20200607T231013,,P,BL,VABB,,HHZ,-23.0021,-46.9657,295.68081237857854,-21.06053352,-48.93208313,0.0,2020-06-07T23:10:57.256950Z,2020-06-07T23:10:13.433092Z,2020-06-07T23:10:46.256950Z,2020-06-07T23:11:46.256950Z,earthquake,2.134238253,suspected,20200607T231013/BL_VABB_20200607T231013.mseed
usp2020leli,20200607T231013,,P,BL,CANS,,HHZ,-20.2896,-46.3921,278.0681357521583,-21.06053352,-48.93208313,0.0,2020-06-07T23:10:55.258720Z,2020-06-07T23:10:13.433092Z,2020-06-07T23:10:44.258720Z,2020-06-07T23:11:44.258720Z,earthquake,2.134238253,suspected,20200607T231013/BL_CANS_20200607T231013.mseed
usp2020leli,20200607T231013,,P,BL,RCLB,,HHZ,-22.4191,-47.531,208.8910907517933,-21.06053352,-48.93208313,0.0,2020-06-07T23:10:46.636741Z,2020-06-07T23:10:13.433092Z,2020-06-07T23:10:35.636741Z,2020-06-07T23:11:35.636741Z,earthquake,2.134238253,suspected,20200607T231013/BL_RCLB_20200607T231013.mseed
usp2020leli,20200607T231013,,P,BX,TQJ3B,,HHZ,-21.37382,-48.5607,51.86333274739552,-21.06053352,-48.93208313,0.0,2020-06-07T23:10:22.397993Z,2020-06-07T23:10:13.433092Z,2020-06-07T23:10:11.397993Z,2020-06-07T23:11:11.397993Z,earthquake,2.134238253,suspected,20200607T231013/BX_TQJ3B_20200607T231013.mseed
usp2020leli,20200607T231013,,P,BL,BB19B,,HHZ,-21.0662,-48.5279,42.009994034953614,-21.06053352,-48.93208313,0.0,2020-06-07T23:10:21.002681Z,2020-06-07T23:10:13.433092Z,2020-06-07T23:10:10.002681Z,2020-06-07T23:11:10.002681Z,earthquake,2.134238253,suspected,20200607T231013/BL_BB19B_20200607T231013.mseed
usp2017ears,20170227T070540,,P,XC,AZCA,,HHZ,-28.0799,-55.9832,153.44856370833207,-26.95033333,-56.88166667,15000.0,2017-02-27T07:06:06.539026Z,2017-02-27T07:05:40.689999Z,2017-02-27T07:05:55.539026Z,2017-02-27T07:06:55.539026Z,earthquake,3.365370339,known,20170227T070540/XC_AZCA_20170227T070540.mseed
usp2017ears,20170227T070540,,P,XC,CRSM,,HHZ,-27.49373,-54.0433,287.53361812795646,-26.95033333,-56.88166667,15000.0,2017-02-27T07:06:22.658967Z,2017-02-27T07:05:40.689999Z,2017-02-27T07:06:11.658967Z,2017-02-27T07:07:11.658967Z,earthquake,3.365370339,known,20170227T070540/XC_CRSM_20170227T070540.mseed
usp2017ears,20170227T070540,,P,XC,MCR1,,HHZ,-24.4591,-54.0367,397.0860930248116,-26.95033333,-56.88166667,15000.0,2017-02-27T07:06:34.839460Z,2017-02-27T07:05:40.689999Z,2017-02-27T07:06:23.839460Z,2017-02-27T07:07:23.839460Z,earthquake,3.365370339,known,20170227T070540/XC_MCR1_20170227T070540.mseed
usp2017ears,20170227T070540,,P,XC,FRBT,,HHZ,-25.975008,-53.06258,395.8607109669784,-26.95033333,-56.88166667,15000.0,2017-02-27T07:06:36.108629Z,2017-02-27T07:05:40.689999Z,2017-02-27T07:06:25.108629Z,2017-02-27T07:07:25.108629Z,earthquake,3.365370339,known,20170227T070540/XC_FRBT_20170227T070540.mseed
usp2017ears,20170227T070540,,P,BL,ITQB,,HHZ,-29.6638,-56.6275,301.74984525056027,-26.95033333,-56.88166667,15000.0,2017-02-27T07:06:24.325021Z,2017-02-27T07:05:40.689999Z,2017-02-27T07:06:13.325021Z,2017-02-27T07:07:13.325021Z,earthquake,3.365370339,known,20170227T070540/BL_ITQB_20170227T070540.mseed
usp2017ears,20170227T070540,,P,XC,MECA,,HHZ,-29.29687,-58.17347,289.3586232506383,-26.95033333,-56.88166667,15000.0,2017-02-27T07:06:22.282430Z,2017-02-27T07:05:40.689999Z,2017-02-27T07:06:11.282430Z,2017-02-27T07:07:11.282430Z,earthquake,3.365370339,known,20170227T070540/XC_MECA_20170227T070540.mseed
usp2017ears,20170227T070540,,P,XC,ESFA,,HHZ,-24.9575,-58.4883,273.19047766263594,-26.95033333,-56.88166667,15000.0,2017-02-27T07:06:20.311460Z,2017-02-27T07:05:40.689999Z,2017-02-27T07:06:09.311460Z,2017-02-27T07:07:09.311460Z,earthquake,3.365370339,known,20170227T070540/XC_ESFA_20170227T070540.mseed
usp2019szhk,20190927T234649,,P,NB,NBAN,,HHZ,-9.668656,-36.274726,40.52165870961959,-9.9439,-36.5185,0.0,2019-09-27T23:46:55.471141Z,2019-09-27T23:46:49.000000Z,2019-09-27T23:46:44.471141Z,2019-09-27T23:47:44.471141Z,earthquake,2.304013624,suspected,20190927T234649/NB_NBAN_20190927T234649.mseed
usp2014jxhz,20140521T195850,,P,BL,SJMB,,HHZ,-18.702916,-41.184694,358.1039481054652,-16.77572632,-43.89704895,2000.0,2014-05-21T19:59:25.582145Z,2014-05-21T19:58:50.361814Z,2014-05-21T19:59:14.582145Z,2014-05-21T20:00:14.582145Z,earthquake,1.665542941,suspected,20140521T195850/BL_SJMB_20140521T195850.mseed
usp2014jxhz,20140521T195850,,P,BR,JANB,,HHZ,-15.058097,-44.311197,195.17361957184727,-16.77572632,-43.89704895,2000.0,2014-05-21T19:59:21.363964Z,2014-05-21T19:58:50.361814Z,2014-05-21T19:59:10.363964Z,2014-05-21T20:00:10.363964Z,earthquake,1.665542941,suspected,20140521T195850/BR_JANB_20140521T195850.mseed
usp2014jxhz,20140521T195850,,P,BR,MC01,,HHZ,-16.70744,-43.94167,8.930097802328334,-16.77572632,-43.89704895,2000.0,2014-05-21T19:58:52.361547Z,2014-05-21T19:58:50.361814Z,2014-05-21T19:58:41.361547Z,2014-05-21T19:59:41.361547Z,earthquake,1.665542941,suspected,20140521T195850/BR_MC01_20140521T195850.mseed
usp2020hpmd,20200418T015540,,P,BL,FRTB,,HHZ,-23.3439,-49.564,251.63874142304223,-23.59355545,-47.11582184,0.0,2020-04-18T01:56:19.067004Z,2020-04-18T01:55:40.830508Z,2020-04-18T01:56:08.067004Z,2020-04-18T01:57:08.067004Z,earthquake,2.004648357,known,20200418T015540/BL_FRTB_20200418T015540.mseed
usp2020hpmd,20200418T015540,,P,BL,PARB,,HHZ,-23.3421,-45.6246,154.87540929473545,-23.59355545,-47.11582184,0.0,2020-04-18T01:56:06.487130Z,2020-04-18T01:55:40.830508Z,2020-04-18T01:55:55.487130Z,2020-04-18T01:56:55.487130Z,earthquake,2.004648357,known,20200418T015540/BL_PARB_20200418T015540.mseed
usp2020hpmd,20200418T015540,,P,BL,RCLB,,HHZ,-22.4191,-47.531,136.85092716487654,-23.59355545,-47.11582184,0.0,2020-04-18T01:56:04.622242Z,2020-04-18T01:55:40.830508Z,2020-04-18T01:55:53.622242Z,2020-04-18T01:56:53.622242Z,earthquake,2.004648357,known,20200418T015540/BL_RCLB_20200418T015540.mseed
usp2020hpmd,20200418T015540,,P,ON,PET01,,HHZ,-24.290108,-47.275344,78.83885440226254,-23.59355545,-47.11582184,0.0,2020-04-18T01:55:54.766750Z,2020-04-18T01:55:40.830508Z,2020-04-18T01:55:43.766750Z,2020-04-18T01:56:43.766750Z,earthquake,2.004648357,known,20200418T015540/ON_PET01_20200418T015540.mseed
usp2020hpmd,20200418T015540,,P,BL,VABB,,HHZ,-23.0021,-46.9657,67.27871177750055,-23.59355545,-47.11582184,0.0,2020-04-18T01:55:53.210418Z,2020-04-18T01:55:40.830508Z,2020-04-18T01:55:42.210418Z,2020-04-18T01:56:42.210418Z,earthquake,2.004648357,known,20200418T015540/BL_VABB_20200418T015540.mseed
usp2021sidp,20210918T143309,,P,NB,NBMA,,HHZ,-7.365352,-38.764058,392.18527944339553,-6.800964355,-35.25930786,0.0,2021-09-18T14:34:05.842852Z,2021-09-18T14:33:09.910487Z,2021-09-18T14:33:54.842852Z,2021-09-18T14:34:54.842852Z,earthquake,2.032556603,known,20210918T143309/NB_NBMA_20210918T143309.mseed
usp2021sidp,20210918T143309,,P,NB,NBPA,,HHZ,-5.75028,-37.112047,235.65219783747244,-6.800964355,-35.25930786,0.0,2021-09-18T14:33:46.479998Z,2021-09-18T14:33:09.910487Z,2021-09-18T14:33:35.479998Z,2021-09-18T14:34:35.479998Z,earthquake,2.032556603,known,20210918T143309/NB_NBPA_20210918T143309.mseed
usp2021lglv,20210610T014044,,P,NB,NBPN,,HHZ,-10.847009,-40.198957,51.33347595387962,-11.1907,-40.5146,0.0,2021-06-10T01:40:52.241794Z,2021-06-10T01:40:44.000000Z,2021-06-10T01:40:41.241794Z,2021-06-10T01:41:41.241794Z,earthquake,1.255653144,known,20210610T014044/NB_NBPN_20210610T014044.mseed
usp2023grdv,20230405T182754,,P,BL,CANS,,HHZ,-20.2896,-46.3921,245.3097260368752,-21.2494545,-48.51544189,0.0,2023-04-05T18:28:32.860659Z,2023-04-05T18:27:54.787551Z,2023-04-05T18:28:21.860659Z,2023-04-05T18:29:21.860659Z,earthquake,2.265572708,known,20230405T182754/BL_CANS_20230405T182754.mseed
usp2023grdv,20230405T182754,,P,BL,RCLB,,HHZ,-22.4191,-47.531,164.71412532789452,-21.2494545,-48.51544189,0.0,2023-04-05T18:28:21.836545Z,2023-04-05T18:27:54.787551Z,2023-04-05T18:28:10.836545Z,2023-04-05T18:29:10.836545Z,earthquake,2.265572708,known,20230405T182754/BL_RCLB_20230405T182754.mseed
usp2023grdv,20230405T182754,,P,BL,BB19B,,HHZ,-21.0662,-48.5279,20.330985926288598,-21.2494545,-48.51544189,0.0,2023-04-05T18:27:58.086033Z,2023-04-05T18:27:54.787551Z,2023-04-05T18:27:47.086033Z,2023-04-05T18:28:47.086033Z,earthquake,2.265572708,known,20230405T182754/BL_BB19B_20230405T182754.mseed
usp2015hhim,20150414T145908,,P,BR,IPMB,,HHZ,-17.982956,-48.211734,390.3037919417351,-20.10749054,-45.25223541,0.0,2015-04-14T15:00:00.713134Z,2015-04-14T14:59:08.021184Z,2015-04-14T14:59:49.713134Z,2015-04-14T15:00:49.713134Z,earthquake,2.254227869,suspected,20150414T145908/BR_IPMB_20150414T145908.mseed
usp2015hhim,20150414T145908,,P,ON,DUB01,,HHZ,-22.080966,-42.374182,370.34366347908866,-20.10749054,-45.25223541,0.0,2015-04-14T15:00:01.104400Z,2015-04-14T14:59:08.021184Z,2015-04-14T14:59:50.104400Z,2015-04-14T15:00:50.104400Z,earthquake,2.254227869,suspected,20150414T145908/ON_DUB01_20150414T145908.mseed
usp2015hhim,20150414T145908,,P,BL,ESAR,,HHZ,-23.0207,-44.4403,333.3427941629899,-20.10749054,-45.25223541,0.0,2015-04-14T14:59:56.956573Z,2015-04-14T14:59:08.021184Z,2015-04-14T14:59:45.956573Z,2015-04-14T15:00:45.956573Z,earthquake,2.254227869,suspected,20150414T145908/BL_ESAR_20150414T145908.mseed
usp2015hhim,20150414T145908,,P,ON,VAS01,,HHZ,-22.280081,-43.442624,305.2282042380239,-20.10749054,-45.25223541,0.0,2015-04-14T14:59:53.043548Z,2015-04-14T14:59:08.021184Z,2015-04-14T14:59:42.043548Z,2015-04-14T15:00:42.043548Z,earthquake,2.254227869,suspected,20150414T145908/ON_VAS01_20150414T145908.mseed
usp2015hhim,20150414T145908,,P,ON,MAN01,,HHZ,-22.86516,-43.964094,333.2361611217735,-20.10749054,-45.25223541,0.0,2015-04-14T14:59:56.643524Z,2015-04-14T14:59:08.021184Z,2015-04-14T14:59:45.643524Z,2015-04-14T15:00:45.643524Z,earthquake,2.254227869,suspected,20150414T145908/ON_MAN01_20150414T145908.mseed
usp2015hhim,20150414T145908,,P,BL,BSCB,,HHZ,-20.9984,-44.7635,111.02181621755017,-20.10749054,-45.25223541,0.0,2015-04-14T14:59:26.904403Z,2015-04-14T14:59:08.021184Z,2015-04-14T14:59:15.904403Z,2015-04-14T15:00:15.904403Z,earthquake,2.254227869,suspected,20150414T145908/BL_BSCB_20150414T145908.mseed
usp2019jsmd,20190519T042432,,P,BR,SNDB,,HHZ,-11.9742,-51.2943,313.30503773406133,-14.04140377,-49.32014465,0.0,2019-05-19T04:25:18.827743Z,2019-05-19T04:24:32.171829Z,2019-05-19T04:25:07.827743Z,2019-05-19T04:26:07.827743Z,earthquake,2.092001477,known,20190519T042432/BR_SNDB_20190519T042432.mseed
usp2019jsmd,20190519T042432,,P,BR,ARAG,,HHZ,-15.706,-51.812,325.3072966619782,-14.04140377,-49.32014465,0.0,2019-05-19T04:25:19.758788Z,2019-05-19T04:24:32.171829Z,2019-05-19T04:25:08.758788Z,2019-05-19T04:26:08.758788Z,earthquake,2.092001477,known,20190519T042432/BR_ARAG_20190519T042432.mseed
usp2012jxhc,20120520T193210,,P,BL,SJMB,,HHZ,-18.702916,-41.184694,374.64613570592337,-16.61113548,-43.9609108,0.0,2012-05-20T19:33:04.034835Z,2012-05-20T19:32:10.423255Z,2012-05-20T19:32:53.034835Z,2012-05-20T19:33:53.034835Z,earthquake,2.602437608,known,20120520T193210/BL_SJMB_20120520T193210.mseed
usp2012jxhc,20120520T193210,,P,BL,PMNB,,HHZ,-18.54,-46.44,338.8530466738104,-16.61113548,-43.9609108,0.0,2012-05-20T19:33:00.128051Z,2012-05-20T19:32:10.423255Z,2012-05-20T19:32:49.128051Z,2012-05-20T19:33:49.128051Z,earthquake,2.602437608,known,20120520T193210/BL_PMNB_20120520T193210.mseed
usp2012jxhc,20120520T193210,,P,BR,JAN7,,HHZ,-15.058097,-44.311197,175.9031558868767,-16.61113548,-43.9609108,0.0,2012-05-20T19:32:39.093200Z,2012-05-20T19:32:10.423255Z,2012-05-20T19:32:28.093200Z,2012-05-20T19:33:28.093200Z,earthquake,2.602437608,known,20120520T193210/BR_JAN7_20120520T193210.mseed
usp2016fooj,20160320T025046,,P,NB,NBIT,,HHZ,-14.930689,-39.434579,235.35389957350694,-12.82451534,-39.12890625,0.0,2016-03-20T02:51:23.285533Z,2016-03-20T02:50:46.697961Z,2016-03-20T02:51:12.285533Z,2016-03-20T02:52:12.285533Z,earthquake,1.284617825,known,20160320T025046/NB_NBIT_20160320T025046.mseed
usp2016fooj,20160320T025046,,P,NB,NBLA,,HHZ,-10.99255,-37.788972,249.74913193976644,-12.82451534,-39.12890625,0.0,2016-03-20T02:51:25.600646Z,2016-03-20T02:50:46.697961Z,2016-03-20T02:51:14.600646Z,2016-03-20T02:52:14.600646Z,earthquake,1.284617825,known,20160320T025046/NB_NBLA_20160320T025046.mseed
usp2016fooj,20160320T025046,,P,ON,GDU01,,HHZ,-13.72,-39.575278,110.24783401735692,-12.82451534,-39.12890625,0.0,2016-03-20T02:51:05.919067Z,2016-03-20T02:50:46.697961Z,2016-03-20T02:50:54.919067Z,2016-03-20T02:51:54.919067Z,earthquake,1.284617825,known,20160320T025046/ON_GDU01_20160320T025046.mseed
usp2022jqwm,20220518T072049,,P,BR,PTLB,,HHZ,-15.44874,-59.13676,110.89735909722054,-16.449049,-59.19971085,0.0,2022-05-18T07:21:08.860554Z,2022-05-18T07:20:49.767573Z,2022-05-18T07:20:57.860554Z,2022-05-18T07:21:57.860554Z,earthquake,2.789807146,suspected,20220518T072049/BR_PTLB_20220518T072049.mseed
usp2020raza,20200830T104430,,P,ON,GUA01,,HHZ,-16.58349,-39.805342,392.286356705912,-13.05133333,-39.49083333,1000.0,2020-08-30T10:45:27.869889Z,2020-08-30T10:44:30.149999Z,2020-08-30T10:45:16.869889Z,2020-08-30T10:46:16.869889Z,earthquake,4.157870951,known,20200830T104430/ON_GUA01_20200830T104430.mseed
usp2020raza,20200830T104430,,P,ON,CMC01,,HHZ,-15.360055,-39.519089,255.4581933541654,-13.05133333,-39.49083333,1000.0,2020-08-30T10:45:09.450244Z,2020-08-30T10:44:30.149999Z,2020-08-30T10:44:58.450244Z,2020-08-30T10:45:58.450244Z,earthquake,4.157870951,known,20200830T104430/ON_CMC01_20200830T104430.mseed
usp2020raza,20200830T104430,,P,NB,NBPN,,HHZ,-10.847009,-40.198957,255.75303676545613,-13.05133333,-39.49083333,1000.0,2020-08-30T10:45:09.973521Z,2020-08-30T10:44:30.149999Z,2020-08-30T10:44:58.973521Z,2020-08-30T10:45:58.973521Z,earthquake,4.157870951,known,20200830T104430/NB_NBPN_20200830T104430.mseed
usp2020raza,20200830T104430,,P,NB,NBIT,,HHZ,-14.930689,-39.434579,208.019385066406,-13.05133333,-39.49083333,1000.0,2020-08-30T10:45:03.436183Z,2020-08-30T10:44:30.149999Z,2020-08-30T10:44:52.436183Z,2020-08-30T10:45:52.436183Z,earthquake,4.157870951,known,20200830T104430/NB_NBIT_20200830T104430.mseed
usp2015guhs,20150407T115017,,P,BL,CLDB,,HHZ,-10.8732,-55.7965,394.9792958541258,-9.015133858,-52.72040939,0.0,2015-04-07T11:51:13.457580Z,2015-04-07T11:50:17.315692Z,2015-04-07T11:51:02.457580Z,2015-04-07T11:52:02.457580Z,earthquake,3.135158039,known,20150407T115017/BL_CLDB_20150407T115017.mseed
usp2015guhs,20150407T115017,,P,BR,NPGB,,HHZ,-7.0454,-55.3579,363.2897546613274,-9.015133858,-52.72040939,0.0,2015-04-07T11:51:09.838043Z,2015-04-07T11:50:17.315692Z,2015-04-07T11:50:58.838043Z,2015-04-07T11:51:58.838043Z,earthquake,3.135158039,known,20150407T115017/BR_NPGB_20150407T115017.mseed
usp2015guhs,20150407T115017,,P,BR,SNDB,,HHZ,-11.9742,-51.2943,362.62304326656255,-9.015133858,-52.72040939,0.0,2015-04-07T11:51:09.436950Z,2015-04-07T11:50:17.315692Z,2015-04-07T11:50:58.436950Z,2015-04-07T11:51:58.436950Z,earthquake,3.135158039,known,20150407T115017/BR_SNDB_20150407T115017.mseed
usp2015vgdj,20151030T044549,,P,BR,CZSB,,HHZ,-7.7299,-72.7049,289.65863590195505,-9.920454979,-74.14811707,10000.0,2015-10-30T04:46:32.433743Z,2015-10-30T04:45:49.545124Z,2015-10-30T04:46:21.433743Z,2015-10-30T04:47:21.433743Z,earthquake,4.160530297,known,20151030T044549/BR_CZSB_20151030T044549.mseed
usp2022heyq,20220413T074411,,P,BL,ITAB,,HHZ,-27.2349,-52.1313,360.9943275249411,-25.19570732,-49.3135643,0.0,2022-04-13T07:45:04.046990Z,2022-04-13T07:44:11.707909Z,2022-04-13T07:44:53.046990Z,2022-04-13T07:45:53.046990Z,earthquake,2.464091004,known,20220413T074411/BL_ITAB_20220413T074411.mseed
usp2022heyq,20220413T074411,,P,BL,PTGB,,HHZ,-24.72095,-52.01182,277.5039280697786,-25.19570732,-49.3135643,0.0,2022-04-13T07:44:53.597301Z,2022-04-13T07:44:11.707909Z,2022-04-13T07:44:42.597301Z,2022-04-13T07:45:42.597301Z,earthquake,2.464091004,known,20220413T074411/BL_PTGB_20220413T074411.mseed
usp2022heyq,20220413T074411,,P,BX,LDASE,,HHZ,-23.3932,-51.1177,270.9255950707992,-25.19570732,-49.3135643,0.0,2022-04-13T07:44:52.761068Z,2022-04-13T07:44:11.707909Z,2022-04-13T07:44:41.761068Z,2022-04-13T07:45:41.761068Z,earthquake,2.464091004,known,20220413T074411/BX_LDASE_20220413T074411.mseed
usp2022heyq,20220413T074411,,P,ON,PET01,,HHZ,-24.290108,-47.275344,229.28680647667792,-25.19570732,-49.3135643,0.0,2022-04-13T07:44:47.627545Z,2022-04-13T07:44:11.707909Z,2022-04-13T07:44:36.627545Z,2022-04-13T07:45:36.627545Z,earthquake,2.464091004,known,20220413T074411/ON_PET01_20220413T074411.mseed
usp2022heyq,20220413T074411,,P,BL,FRTB,,HHZ,-23.3439,-49.564,206.68030851608526,-25.19570732,-49.3135643,0.0,2022-04-13T07:44:44.412640Z,2022-04-13T07:44:11.707909Z,2022-04-13T07:44:33.412640Z,2022-04-13T07:45:33.412640Z,earthquake,2.464091004,known,20220413T074411/BL_FRTB_20220413T074411.mseed
usp2023dqqu,20230221T191629,,P,NB,NBPN,,HHZ,-10.847009,-40.198957,383.88915913379446,-14.11268616,-39.0044899,0.0,2023-02-21T19:17:24.256450Z,2023-02-21T19:16:29.627007Z,2023-02-21T19:17:13.256450Z,2023-02-21T19:18:13.256450Z,earthquake,2.249090085,suspected,20230221T191629/NB_NBPN_20230221T191629.mseed
usp2023dqqu,20230221T191629,,P,ON,GUA01,,HHZ,-16.58349,-39.805342,286.601877263974,-14.11268616,-39.0044899,0.0,2023-02-21T19:17:12.730809Z,2023-02-21T19:16:29.627007Z,2023-02-21T19:17:01.730809Z,2023-02-21T19:18:01.730809Z,earthquake,2.249090085,suspected,20230221T191629/ON_GUA01_20230221T191629.mseed
usp2016smxv,20160920T051849,,P,BR,SDBA,,HHZ,-12.4085,-44.903,239.33417303788178,-10.47552776,-43.91759872,0.0,2016-09-20T05:19:26.639579Z,2016-09-20T05:18:49.665648Z,2016-09-20T05:19:15.639579Z,2016-09-20T05:20:15.639579Z,earthquake,2.240455035,suspected,20160920T051849/BR_SDBA_20160920T051849.mseed
usp2016smxv,20160920T051849,,P,BR,SDBA,,HHZ,-12.4085,-44.903,239.33417303788178,-10.47552776,-43.91759872,0.0,2016-09-20T05:19:54.546554Z,2016-09-20T05:18:49.665648Z,2016-09-20T05:19:43.546554Z,2016-09-20T05:20:43.546554Z,earthquake,2.240455035,suspected,20160920T051849/BR_SDBA_20160920T051849.mseed
usp2015mdzc,20150622T223108,,P,BL,DIAM,,HHZ,-18.2952,-43.6648,172.0136509502423,-16.75398445,-43.87394333,2000.0,2015-06-22T22:31:36.608871Z,2015-06-22T22:31:08.560591Z,2015-06-22T22:31:25.608871Z,2015-06-22T22:32:25.608871Z,earthquake,1.62317473,suspected,20150622T223108/BL_DIAM_20150622T223108.mseed
usp2015mdzc,20150622T223108,,P,BR,JANB,,HHZ,-15.058097,-44.311197,193.41575997055827,-16.75398445,-43.87394333,2000.0,2015-06-22T22:31:39.700149Z,2015-06-22T22:31:08.560591Z,2015-06-22T22:31:28.700149Z,2015-06-22T22:32:28.700149Z,earthquake,1.62317473,suspected,20150622T223108/BR_JANB_20150622T223108.mseed
usp2015mdzc,20150622T223108,,P,BL,SJMB,,HHZ,-18.702916,-41.184694,357.59831157231406,-16.75398445,-43.87394333,2000.0,2015-06-22T22:31:59.539260Z,2015-06-22T22:31:08.560591Z,2015-06-22T22:31:48.539260Z,2015-06-22T22:32:48.539260Z,earthquake,1.62317473,suspected,20150622T223108/BL_SJMB_20150622T223108.mseed
usp2015mdzc,20150622T223108,,P,BR,MC01,,HHZ,-16.70744,-43.94167,8.870810430615538,-16.75398445,-43.87394333,2000.0,2015-06-22T22:31:10.332687Z,2015-06-22T22:31:08.560591Z,2015-06-22T22:30:59.332687Z,2015-06-22T22:31:59.332687Z,earthquake,1.62317473,suspected,20150622T223108/BR_MC01_20150622T223108.mseed
usp2016gggk,20160329T191619,,P,XC,NBRS,,HHZ,-14.32244,-55.77729,325.53225475839025,-11.5597229,-56.81003952,0.0,2016-03-29T19:17:07.096125Z,2016-03-29T19:16:19.425338Z,2016-03-29T19:16:56.096125Z,2016-03-29T19:17:56.096125Z,earthquake,2.708852754,known,20160329T191619/XC_NBRS_20160329T191619.mseed
usp2016gggk,20160329T191619,,P,BL,CLDB,,HHZ,-10.8732,-55.7965,134.23158527033132,-11.5597229,-56.81003952,0.0,2016-03-29T19:16:42.000028Z,2016-03-29T19:16:19.425338Z,2016-03-29T19:16:31.000028Z,2016-03-29T19:17:31.000028Z,earthquake,2.708852754,known,20160329T191619/BL_CLDB_20160329T191619.mseed
usp2016gggk,20160329T191619,,P,BR,PDRB,,HHZ,-11.612297,-56.729597,10.526035513289902,-11.5597229,-56.81003952,0.0,2016-03-29T19:16:21.465518Z,2016-03-29T19:16:19.425338Z,2016-03-29T19:16:10.465518Z,2016-03-29T19:17:10.465518Z,earthquake,2.708852754,known,20160329T191619/BR_PDRB_20160329T191619.mseed
usp2022cdem,20220131T044408,,P,NB,NBPN,,HHZ,-10.847009,-40.198957,265.39705371002776,-13.10505772,-39.37559128,0.0,2022-01-31T04:44:48.825792Z,2022-01-31T04:44:08.589355Z,2022-01-31T04:44:37.825792Z,2022-01-31T04:45:37.825792Z,earthquake,1.634436664,known,20220131T044408/NB_NBPN_20220131T044408.mseed
usp2022cdem,20220131T044408,,P,ON,CMC01,,HHZ,-15.360055,-39.519089,249.97652049821605,-13.10505772,-39.37559128,0.0,2022-01-31T04:44:46.944252Z,2022-01-31T04:44:08.589355Z,2022-01-31T04:44:35.944252Z,2022-01-31T04:45:35.944252Z,earthquake,1.634436664,known,20220131T044408/ON_CMC01_20220131T044408.mseed
usp2020fgpz,20200315T183339,,P,BR,SGC2,,HHZ,-0.1514,-66.9776,230.2000727704023,0.5467396379,-68.92580414,14924.77894,2020-03-15T18:34:13.653991Z,2020-03-15T18:33:39.430591Z,2020-03-15T18:34:02.653991Z,2020-03-15T18:35:02.653991Z,earthquake,4.551711338,suspected,20200315T183339/BR_SGC2_20200315T183339.mseed
usp2023gjfn,20230401T101337,,P,NB,NBPN,,HHZ,-10.847009,-40.198957,361.837056579092,-14.09658527,-39.82030487,0.0,2023-04-01T10:14:30.076908Z,2023-04-01T10:13:37.835285Z,2023-04-01T10:14:19.076908Z,2023-04-01T10:15:19.076908Z,earthquake,2.094206188,known,20230401T101337/NB_NBPN_20230401T101337.mseed
usp2023gjfn,20230401T101337,,P,ON,GUA01,,HHZ,-16.58349,-39.805342,275.1861169900392,-14.09658527,-39.82030487,0.0,2023-04-01T10:14:19.358963Z,2023-04-01T10:13:37.835285Z,2023-04-01T10:14:08.358963Z,2023-04-01T10:15:08.358963Z,earthquake,2.094206188,known,20230401T101337/ON_GUA01_20230401T101337.mseed
usp2014vjxo,20141101T062236,,P,BL,CLDB,,HHZ,-10.8732,-55.7965,370.0039207370007,-8.667116165,-53.26119614,0.0,2014-11-01T06:23:29.634796Z,2014-11-01T06:22:36.194511Z,2014-11-01T06:23:18.634796Z,2014-11-01T06:24:18.634796Z,earthquake,2.91464146,suspected,20141101T062236/BL_CLDB_20141101T062236.mseed
usp2014vjxo,20141101T062236,,P,BR,NPGB,,HHZ,-7.0454,-55.3579,292.6264170682435,-8.667116165,-53.26119614,0.0,2014-11-01T06:23:19.323898Z,2014-11-01T06:22:36.194511Z,2014-11-01T06:23:08.323898Z,2014-11-01T06:24:08.323898Z,earthquake,2.91464146,suspected,20141101T062236/BR_NPGB_20141101T062236.mseed
usp2014iiwa,20140429T163032,,P,BR,BOAV,,HHZ,2.3953,-60.5225,27.979321948405698,2.6342,-60.6054,0.0,2014-04-29T16:30:34.324743Z,2014-04-29T16:30:32.000000Z,2014-04-29T16:30:23.324743Z,2014-04-29T16:31:23.324743Z,earthquake,1.391774031,suspected,20140429T163032/BR_BOAV_20140429T163032.mseed
usp2024mbzw,20240620T203807,,P,BL,CANS,,HHZ,-20.2896,-46.3921,251.84568813011535,-20.02398682,-48.78466034,0.0,2024-06-20T20:38:46.493135Z,2024-06-20T20:38:07.939310Z,2024-06-20T20:38:35.493135Z,2024-06-20T20:39:35.493135Z,earthquake,2.039853121,known,20240620T203807/BL_CANS_20240620T203807.mseed
usp2024mbzw,20240620T203807,,P,BR,IPMB,,HHZ,-17.982956,-48.211734,233.83974712755446,-20.02398682,-48.78466034,0.0,2024-06-20T20:38:44.293307Z,2024-06-20T20:38:07.939310Z,2024-06-20T20:38:33.293307Z,2024-06-20T20:39:33.293307Z,earthquake,2.039853121,known,20240620T203807/BR_IPMB_20240620T203807.mseed
usp2024mbzw,20240620T203807,,P,BL,BB19B,,HHZ,-21.0662,-48.5279,118.45049974736472,-20.02398682,-48.78466034,0.0,2024-06-20T20:38:28.231993Z,2024-06-20T20:38:07.939310Z,2024-06-20T20:38:17.231993Z,2024-06-20T20:39:17.231993Z,earthquake,2.039853121,known,20240620T203807/BL_BB19B_20240620T203807.mseed
usp2023ctzh,20230209T092620,,P,NB,NBCA,,HHZ,-8.225687,-36.013016,365.8128811148958,-5.037809849,-35.13003922,0.0,2023-02-09T09:27:13.064105Z,2023-02-09T09:26:20.375410Z,2023-02-09T09:27:02.064105Z,2023-02-09T09:28:02.064105Z,earthquake,2.225395244,known,20230209T092620/NB_NBCA_20230209T092620.mseed
usp2023ctzh,20230209T092620,,P,NB,NBCL,,HHZ,-4.224377,-38.291041,362.0874626298952,-5.037809849,-35.13003922,0.0,2023-02-09T09:27:12.562359Z,2023-02-09T09:26:20.375410Z,2023-02-09T09:27:01.562359Z,2023-02-09T09:28:01.562359Z,earthquake,2.225395244,known,20230209T092620/NB_NBCL_20230209T092620.mseed
usp2023ctzh,20230209T092620,,P,NB,NBLV,,HHZ,-7.357693,-36.921745,324.2416264605475,-5.037809849,-35.13003922,0.0,2023-02-09T09:27:08.179491Z,2023-02-09T09:26:20.375410Z,2023-02-09T09:26:57.179491Z,2023-02-09T09:27:57.179491Z,earthquake,2.225395244,known,20230209T092620/NB_NBLV_20230209T092620.mseed
usp2019xvje,20191205T234836,,P,ON,VAS01,,HHZ,-22.280081,-43.442624,387.74115610586205,-18.994,-44.72966667,0.0,2019-12-05T23:49:31.228216Z,2019-12-05T23:48:36.679999Z,2019-12-05T23:49:20.228216Z,2019-12-05T23:50:20.228216Z,earthquake,2.702045276,suspected,20191205T234836/ON_VAS01_20191205T234836.mseed
usp2019xvje,20191205T234836,,P,BR,IPMB,,HHZ,-17.982956,-48.211734,384.3787994573235,-18.994,-44.72966667,0.0,2019-12-05T23:49:30.898561Z,2019-12-05T23:48:36.679999Z,2019-12-05T23:49:19.898561Z,2019-12-05T23:50:19.898561Z,earthquake,2.702045276,suspected,20191205T234836/BR_IPMB_20191205T234836.mseed
usp2019xvje,20191205T234836,,P,BL,ARCA,,HHZ,-16.8467,-41.9597,377.6265753379313,-18.994,-44.72966667,0.0,2019-12-05T23:49:31.652496Z,2019-12-05T23:48:36.679999Z,2019-12-05T23:49:20.652496Z,2019-12-05T23:50:20.652496Z,earthquake,2.702045276,suspected,20191205T234836/BL_ARCA_20191205T234836.mseed
usp2019xvje,20191205T234836,,P,BL,SJMB,,HHZ,-18.702916,-41.184694,374.97397195710647,-18.994,-44.72966667,0.0,2019-12-05T23:49:30.405376Z,2019-12-05T23:48:36.679999Z,2019-12-05T23:49:19.405376Z,2019-12-05T23:50:19.405376Z,earthquake,2.702045276,suspected,20191205T234836/BL_SJMB_20191205T234836.mseed
usp2019xvje,20191205T234836,,P,BL,CANS,,HHZ,-20.2896,-46.3921,225.7633770012012,-18.994,-44.72966667,0.0,2019-12-05T23:49:11.466798Z,2019-12-05T23:48:36.679999Z,2019-12-05T23:49:00.466798Z,2019-12-05T23:50:00.466798Z,earthquake,2.702045276,suspected,20191205T234836/BL_CANS_20191205T234836.mseed
usp2019xvje,20191205T234836,,P,BL,BSCB,,HHZ,-20.9984,-44.7635,221.9239970855074,-18.994,-44.72966667,0.0,2019-12-05T23:49:11.618586Z,2019-12-05T23:48:36.679999Z,2019-12-05T23:49:00.618586Z,2019-12-05T23:50:00.618586Z,earthquake,2.702045276,suspected,20191205T234836/BL_BSCB_20191205T234836.mseed
usp2019xvje,20191205T234836,,P,BL,PMNB,,HHZ,-18.54,-46.44,187.20333249209588,-18.994,-44.72966667,0.0,2019-12-05T23:49:06.611421Z,2019-12-05T23:48:36.679999Z,2019-12-05T23:48:55.611421Z,2019-12-05T23:49:55.611421Z,earthquake,2.702045276,suspected,20191205T234836/BL_PMNB_20191205T234836.mseed
usp2019xvje,20191205T234836,,P,VL,FABR,,HHZ,-20.4192,-43.9133,179.48890188599776,-18.994,-44.72966667,0.0,2019-12-05T23:49:05.897157Z,2019-12-05T23:48:36.679999Z,2019-12-05T23:48:54.897157Z,2019-12-05T23:49:54.897157Z,earthquake,2.702045276,suspected,20191205T234836/VL_FABR_20191205T234836.mseed
usp2019xvje,20191205T234836,,P,VL,CHCR,,HHZ,-19.6133,-43.2403,170.88402310005176,-18.994,-44.72966667,0.0,2019-12-05T23:49:05.074296Z,2019-12-05T23:48:36.679999Z,2019-12-05T23:48:54.074296Z,2019-12-05T23:49:54.074296Z,earthquake,2.702045276,suspected,20191205T234836/VL_CHCR_20191205T234836.mseed
usp2019xvje,20191205T234836,,P,VL,GNG6,,HHZ,-19.9698,-43.5929,160.96738082696328,-18.994,-44.72966667,0.0,2019-12-05T23:49:02.515728Z,2019-12-05T23:48:36.679999Z,2019-12-05T23:48:51.515728Z,2019-12-05T23:49:51.515728Z,earthquake,2.702045276,suspected,20191205T234836/VL_GNG6_20191205T234836.mseed
usp2019xvje,20191205T234836,,P,VL,FJAO,,HHZ,-20.1001,-44.1283,137.75016327987845,-18.994,-44.72966667,0.0,2019-12-05T23:48:59.545729Z,2019-12-05T23:48:36.679999Z,2019-12-05T23:48:48.545729Z,2019-12-05T23:49:48.545729Z,earthquake,2.702045276,suspected,20191205T234836/VL_FJAO_20191205T234836.mseed
usp2019xvje,20191205T234836,,P,BL,DIAM,,HHZ,-18.2952,-43.6648,136.4069511914008,-18.994,-44.72966667,0.0,2019-12-05T23:48:59.347147Z,2019-12-05T23:48:36.679999Z,2019-12-05T23:48:48.347147Z,2019-12-05T23:49:48.347147Z,earthquake,2.702045276,suspected,20191205T234836/BL_DIAM_20191205T234836.mseed
usp2015cztc,20150212T130734,,P,BR,SNDB,,HHZ,-11.9742,-51.2943,168.94188959143085,-10.51813412,-51.76122284,0.0,2015-02-12T13:08:02.910919Z,2015-02-12T13:07:34.304073Z,2015-02-12T13:07:51.910919Z,2015-02-12T13:08:51.910919Z,earthquake,3.104425459,suspected,20150212T130734/BR_SNDB_20150212T130734.mseed
usp2022ojja,20220724T081708,,P,BR,CZSB,,HHZ,-7.7299,-72.7049,200.49059263675392,-8.967534065,-71.37489319,613000.0,2022-07-24T08:18:23.661770Z,2022-07-24T08:17:08.163716Z,2022-07-24T08:18:12.661770Z,2022-07-24T08:19:12.661770Z,earthquake,4.420390587,known,20220724T081708/BR_CZSB_20220724T081708.mseed
usp2016bnvo,20160122T191159,,P,BR,CZSB,,HHZ,-7.7299,-72.7049,206.4769222105748,-8.733635902,-74.28502655,139254.837,2016-01-22T19:12:33.974096Z,2016-01-22T19:11:59.482118Z,2016-01-22T19:12:22.974096Z,2016-01-22T19:13:22.974096Z,earthquake,4.198250182,known,20160122T191159/BR_CZSB_20160122T191159.mseed
usp2022nlpg,20220711T080939,,P,BL,BSCB,,HHZ,-20.9984,-44.7635,268.88959830032354,-18.65377617,-45.43397903,0.0,2022-07-11T08:10:20.101383Z,2022-07-11T08:09:39.463460Z,2022-07-11T08:10:09.101383Z,2022-07-11T08:11:09.101383Z,earthquake,1.809422908,suspected,20220711T080939/BL_BSCB_20220711T080939.mseed
usp2022nlpg,20220711T080939,,P,BL,CANS,,HHZ,-20.2896,-46.3921,207.14509832779868,-18.65377617,-45.43397903,0.0,2022-07-11T08:10:12.319073Z,2022-07-11T08:09:39.463460Z,2022-07-11T08:10:01.319073Z,2022-07-11T08:11:01.319073Z,earthquake,1.809422908,suspected,20220711T080939/BL_CANS_20220711T080939.mseed
usp2022nlpg,20220711T080939,,P,BL,DIAM,,HHZ,-18.2952,-43.6648,191.0248445338084,-18.65377617,-45.43397903,0.0,2022-07-11T08:10:10.164636Z,2022-07-11T08:09:39.463460Z,2022-07-11T08:09:59.164636Z,2022-07-11T08:10:59.164636Z,earthquake,1.809422908,suspected,20220711T080939/BL_DIAM_20220711T080939.mseed
usp2023iafm,20230424T230338,,P,BL,BB19B,,HHZ,-21.0662,-48.5279,23.106418856416855,-21.27,-48.48,0.0,2023-04-24T23:03:41.996941Z,2023-04-24T23:03:38.000000Z,2023-04-24T23:03:30.996941Z,2023-04-24T23:04:30.996941Z,earthquake,1.003968515,known,20230424T230338/BL_BB19B_20230424T230338.mseed
usp2020tenc,20200929T202053,,P,BR,SDBA,,HHZ,-12.4085,-44.903,262.2199533581383,-10.74054146,-46.6113472,0.0,2020-09-29T20:21:33.296405Z,2020-09-29T20:20:53.263431Z,2020-09-29T20:21:22.296405Z,2020-09-29T20:22:22.296405Z,earthquake,2.9799819,suspected,20200929T202053/BR_SDBA_20200929T202053.mseed
usp2020tenc,20200929T202053,,P,BR,SMTB,,HHZ,-8.8617,-47.5886,233.8348485251562,-10.74054146,-46.6113472,0.0,2020-09-29T20:21:29.636272Z,2020-09-29T20:20:53.263431Z,2020-09-29T20:21:18.636272Z,2020-09-29T20:22:18.636272Z,earthquake,2.9799819,suspected,20200929T202053/BR_SMTB_20200929T202053.mseed
usp2019rojz,20190907T190252,,P,BR,CZSB,,HHZ,-7.7299,-72.7049,364.57839451851964,-6.360663414,-75.70670319,41000.0,2019-09-07T19:03:42.027011Z,2019-09-07T19:02:52.611577Z,2019-09-07T19:03:31.027011Z,2019-09-07T19:04:31.027011Z,earthquake,4.400764437,known,20190907T190252/BR_CZSB_20190907T190252.mseed
usp2014wxrn,20141123T004607,,P,BR,SNDB,,HHZ,-11.9742,-51.2943,371.1193807148127,-15.32147884,-51.07078934,0.0,2014-11-23T00:47:01.451870Z,2014-11-23T00:46:07.955333Z,2014-11-23T00:46:50.451870Z,2014-11-23T00:47:50.451870Z,earthquake,3.307072926,suspected,20141123T004607/BR_SNDB_20141123T004607.mseed
usp2014wxrn,20141123T004607,,P,BR,ARAG,,HHZ,-15.706,-51.812,90.19108937890272,-15.32147884,-51.07078934,0.0,2014-11-23T00:46:22.164733Z,2014-11-23T00:46:07.955333Z,2014-11-23T00:46:11.164733Z,2014-11-23T00:47:11.164733Z,earthquake,3.307072926,suspected,20141123T004607/BR_ARAG_20141123T004607.mseed
usp2024irzo,20240503T163044,,P,BL,DIAM,,HHZ,-18.2952,-43.6648,150.10569405021153,-19.5905,-44.08666667,0.0,2024-05-03T16:31:09.504721Z,2024-05-03T16:30:44.170000Z,2024-05-03T16:30:58.504721Z,2024-05-03T16:31:58.504721Z,earthquake,2.54839941,suspected,20240503T163044/BL_DIAM_20240503T163044.mseed
usp2024irzo,20240503T163044,,P,VL,GNG4,,HHZ,-19.9724,-43.6034,65.96911336677059,-19.5905,-44.08666667,0.0,2024-05-03T16:30:55.391376Z,2024-05-03T16:30:44.170000Z,2024-05-03T16:30:44.391376Z,2024-05-03T16:31:44.391376Z,earthquake,2.54839941,suspected,20240503T163044/VL_GNG4_20240503T163044.mseed
usp2024irzo,20240503T163044,,P,VL,FJAO,,HHZ,-20.1001,-44.1283,56.58223887720579,-19.5905,-44.08666667,0.0,2024-05-03T16:30:53.817256Z,2024-05-03T16:30:44.170000Z,2024-05-03T16:30:42.817256Z,2024-05-03T16:31:42.817256Z,earthquake,2.54839941,suspected,20240503T163044/VL_FJAO_20240503T163044.mseed
usp2024irzo,20240503T163044,,P,BL,PRMB,,HHZ,-19.4566,-44.1487,16.189470798491485,-19.5905,-44.08666667,0.0,2024-05-03T16:30:47.313819Z,2024-05-03T16:30:44.170000Z,2024-05-03T16:30:36.313819Z,2024-05-03T16:31:36.313819Z,earthquake,2.54839941,suspected,20240503T163044/BL_PRMB_20240503T163044.mseed
usp2021fhdz,20210317T013835,,P,BL,CANS,,HHZ,-20.2896,-46.3921,399.6256253905872,-21.92516667,-49.82116667,0.0,2021-03-17T01:39:30.547605Z,2021-03-17T01:38:35.020000Z,2021-03-17T01:39:19.547605Z,2021-03-17T01:40:19.547605Z,earthquake,3.005249203,known,20210317T013835/BL_CANS_20210317T013835.mseed
usp2021fhdz,20210317T013835,,P,BL,PTGB,,HHZ,-24.72095,-52.01182,382.16982921872324,-21.92516667,-49.82116667,0.0,2021-03-17T01:39:28.483792Z,2021-03-17T01:38:35.020000Z,2021-03-17T01:39:17.483792Z,2021-03-17T01:40:17.483792Z,earthquake,3.005249203,known,20210317T013835/BL_PTGB_20210317T013835.mseed
usp2021fhdz,20210317T013835,,P,ON,PET01,,HHZ,-24.290108,-47.275344,369.5856614011034,-21.92516667,-49.82116667,0.0,2021-03-17T01:39:27.443684Z,2021-03-17T01:38:35.020000Z,2021-03-17T01:39:16.443684Z,2021-03-17T01:40:16.443684Z,earthquake,3.005249203,known,20210317T013835/ON_PET01_20210317T013835.mseed
usp2021fhdz,20210317T013835,,P,BL,VABB,,HHZ,-23.0021,-46.9657,317.15761334256734,-21.92516667,-49.82116667,0.0,2021-03-17T01:39:21.039882Z,2021-03-17T01:38:35.020000Z,2021-03-17T01:39:10.039882Z,2021-03-17T01:40:10.039882Z,earthquake,3.005249203,known,20210317T013835/BL_VABB_20210317T013835.mseed
usp2021fhdz,20210317T013835,,P,BL,BB19B,,HHZ,-21.0662,-48.5279,164.32973108063385,-21.92516667,-49.82116667,0.0,2021-03-17T01:39:01.645551Z,2021-03-17T01:38:35.020000Z,2021-03-17T01:38:50.645551Z,2021-03-17T01:39:50.645551Z,earthquake,3.005249203,known,20210317T013835/BL_BB19B_20210317T013835.mseed
usp2021fhdz,20210317T013835,,P,BL,PCMB,,HHZ,-21.6074,-51.2619,153.11258753407546,-21.92516667,-49.82116667,0.0,2021-03-17T01:38:59.990305Z,2021-03-17T01:38:35.020000Z,2021-03-17T01:38:48.990305Z,2021-03-17T01:39:48.990305Z,earthquake,3.005249203,known,20210317T013835/BL_PCMB_20210317T013835.mseed
usp2019kfrx,20190526T100440,,P,BR,CZSB,,HHZ,-7.7299,-72.7049,337.7504989978853,-5.69916153,-74.98674774,165011.673,2019-05-26T10:05:28.553464Z,2019-05-26T10:04:40.478383Z,2019-05-26T10:05:17.553464Z,2019-05-26T10:06:17.553464Z,earthquake,4.525439542,known,20190526T100440/BR_CZSB_20190526T100440.mseed
usp2016fahp,20160312T073113,,P,BL,BB19B,,HHZ,-21.0662,-48.5279,34.15670825295021,-21.3719,-48.5721,0.0,2016-03-12T07:31:18.895733Z,2016-03-12T07:31:13.000000Z,2016-03-12T07:31:07.895733Z,2016-03-12T07:32:07.895733Z,earthquake,1.651960237,suspected,20160312T073113/BL_BB19B_20160312T073113.mseed
usp2016sobl,20160920T201657,,P,NB,NBAN,,HHZ,-9.668656,-36.274726,152.03654414387947,-8.669340134,-35.32483292,0.0,2016-09-20T20:17:22.523356Z,2016-09-20T20:16:57.441520Z,2016-09-20T20:17:11.523356Z,2016-09-20T20:18:11.523356Z,earthquake,1.248428194,suspected,20160920T201657/NB_NBAN_20160920T201657.mseed
usp2016sobl,20160920T201657,,P,NB,NBRF,,HHZ,-8.679466,-35.127172,21.78228758501417,-8.669340134,-35.32483292,0.0,2016-09-20T20:17:01.293327Z,2016-09-20T20:16:57.441520Z,2016-09-20T20:16:50.293327Z,2016-09-20T20:17:50.293327Z,earthquake,1.248428194,suspected,20160920T201657/NB_NBRF_20160920T201657.mseed
usp2020uhil,20201015T145615,,P,NB,NBPS,,HHZ,-4.393969,-41.445618,124.19680805831757,-3.545318365,-40.71306229,0.0,2020-10-15T14:56:36.462897Z,2020-10-15T14:56:15.270920Z,2020-10-15T14:56:25.462897Z,2020-10-15T14:57:25.462897Z,earthquake,2.060342019,known,20201015T145615/NB_NBPS_20201015T145615.mseed
usp2020uhil,20201015T145615,,P,NB,NBMO,,HHZ,-3.310348,-40.042927,78.86922327114942,-3.545318365,-40.71306229,0.0,2020-10-15T14:56:28.825759Z,2020-10-15T14:56:15.270920Z,2020-10-15T14:56:17.825759Z,2020-10-15T14:57:17.825759Z,earthquake,2.060342019,known,20201015T145615/NB_NBMO_20201015T145615.mseed
usp2023hzda,20230424T084101,,P,NB,NBPS,,HHZ,-4.393969,-41.445618,269.25777907684807,-4.135433197,-39.0338707,0.0,2023-04-24T08:41:42.461423Z,2023-04-24T08:41:01.628383Z,2023-04-24T08:41:31.461423Z,2023-04-24T08:42:31.461423Z,earthquake,1.831382826,suspected,20230424T084101/NB_NBPS_20230424T084101.mseed
usp2023hzda,20230424T084101,,P,NB,NBPB,,HHZ,-5.543242,-39.583619,167.19548773153582,-4.135433197,-39.0338707,0.0,2023-04-24T08:41:29.307634Z,2023-04-24T08:41:01.628383Z,2023-04-24T08:41:18.307634Z,2023-04-24T08:42:18.307634Z,earthquake,1.831382826,suspected,20230424T084101/NB_NBPB_20230424T084101.mseed
usp2023hzda,20230424T084101,,P,NB,NBMO,,HHZ,-3.310348,-40.042927,144.52902946930132,-4.135433197,-39.0338707,0.0,2023-04-24T08:41:25.615299Z,2023-04-24T08:41:01.628383Z,2023-04-24T08:41:14.615299Z,2023-04-24T08:42:14.615299Z,earthquake,1.831382826,suspected,20230424T084101/NB_NBMO_20230424T084101.mseed
usp2021izxd,20210509T002222,,P,BL,SJMB,,HHZ,-18.702916,-41.184694,369.052109794533,-15.99998188,-43.21845627,0.0,2021-05-09T00:23:15.879191Z,2021-05-09T00:22:22.732477Z,2021-05-09T00:23:04.879191Z,2021-05-09T00:24:04.879191Z,earthquake,2.848890706,known,20210509T002222/BL_SJMB_20210509T002222.mseed
usp2021izxd,20210509T002222,,P,BL,DIAM,,HHZ,-18.2952,-43.6648,258.41485343076374,-15.99998188,-43.21845627,0.0,2021-05-09T00:23:02.085752Z,2021-05-09T00:22:22.732477Z,2021-05-09T00:22:51.085752Z,2021-05-09T00:23:51.085752Z,earthquake,2.848890706,known,20210509T002222/BL_DIAM_20210509T002222.mseed
usp2023kdrt,20230525T074348,,P,NB,NBPB,,HHZ,-5.543242,-39.583619,316.71069440073546,-2.974648952,-40.84575653,0.0,2023-05-25T07:44:35.574111Z,2023-05-25T07:43:48.994366Z,2023-05-25T07:44:24.574111Z,2023-05-25T07:45:24.574111Z,earthquake,1.933751592,known,20230525T074348/NB_NBPB_20230525T074348.mseed
usp2023kdrt,20230525T074348,,P,NB,NBCL,,HHZ,-4.224377,-38.291041,315.6816864794484,-2.974648952,-40.84575653,0.0,2023-05-25T07:44:35.500000Z,2023-05-25T07:43:48.994366Z,2023-05-25T07:44:24.500000Z,2023-05-25T07:45:24.500000Z,earthquake,1.933751592,known,20230525T074348/NB_NBCL_20230525T074348.mseed
usp2023kdrt,20230525T074348,,P,NB,NBPS,,HHZ,-4.393969,-41.445618,170.50769371462061,-2.974648952,-40.84575653,0.0,2023-05-25T07:44:16.782051Z,2023-05-25T07:43:48.994366Z,2023-05-25T07:44:05.782051Z,2023-05-25T07:45:05.782051Z,earthquake,1.933751592,known,20230525T074348/NB_NBPS_20230525T074348.mseed
usp2023ebno,20230227T180752,,P,NB,NBCL,,HHZ,-4.224377,-38.291041,267.2780036647438,-3.807706356,-40.66188431,0.0,2023-02-27T18:08:33.468203Z,2023-02-27T18:07:52.987049Z,2023-02-27T18:08:22.468203Z,2023-02-27T18:09:22.468203Z,earthquake,1.881422465,suspected,20230227T180752/NB_NBCL_20230227T180752.mseed
usp2023ebno,20230227T180752,,P,NB,NBPB,,HHZ,-5.543242,-39.583619,226.15082090266927,-3.807706356,-40.66188431,0.0,2023-02-27T18:08:28.347520Z,2023-02-27T18:07:52.987049Z,2023-02-27T18:08:17.347520Z,2023-02-27T18:09:17.347520Z,earthquake,1.881422465,suspected,20230227T180752/NB_NBPB_20230227T180752.mseed
usp2023ebno,20230227T180752,,P,NB,NBMO,,HHZ,-3.310348,-40.042927,88.05665004025829,-3.807706356,-40.66188431,0.0,2023-02-27T18:08:08.346153Z,2023-02-27T18:07:52.987049Z,2023-02-27T18:07:57.346153Z,2023-02-27T18:08:57.346153Z,earthquake,1.881422465,suspected,20230227T180752/NB_NBMO_20230227T180752.mseed
usp2019zhnv,20191226T212026,,P,NB,NBPA,,HHZ,-5.75028,-37.112047,271.4902235350866,-8.028104782,-36.19591522,0.0,2019-12-26T21:21:07.060075Z,2019-12-26T21:20:26.022501Z,2019-12-26T21:20:56.060075Z,2019-12-26T21:21:56.060075Z,earthquake,1.863389852,known,20191226T212026/NB_NBPA_20191226T212026.mseed
usp2019zhnv,20191226T212026,,P,NB,NBTA,,HHZ,-9.121932,-38.063215,238.51225648808557,-8.028104782,-36.19591522,0.0,2019-12-26T21:21:02.925759Z,2019-12-26T21:20:26.022501Z,2019-12-26T21:20:51.925759Z,2019-12-26T21:21:51.925759Z,earthquake,1.863389852,known,20191226T212026/NB_NBTA_20191226T212026.mseed
usp2019zhnv,20191226T212026,,P,NB,NBPV,,HHZ,-6.417527,-35.290516,204.2639050712889,-8.028104782,-36.19591522,0.0,2019-12-26T21:20:58.612825Z,2019-12-26T21:20:26.022501Z,2019-12-26T21:20:47.612825Z,2019-12-26T21:21:47.612825Z,earthquake,1.863389852,known,20191226T212026/NB_NBPV_20191226T212026.mseed
usp2023tlto,20231004T193357,,P,BL,AMBA,,HHZ,-22.92694,-54.9905,296.16300424622585,-20.49552536,-56.1834259,0.0,2023-10-04T19:34:41.870237Z,2023-10-04T19:33:57.538336Z,2023-10-04T19:34:30.870237Z,2023-10-04T19:35:30.870237Z,earthquake,1.806321219,suspected,20231004T193357/BL_AMBA_20231004T193357.mseed
usp2023tlto,20231004T193357,,P,BL,MURT,,HHZ,-21.6592,-57.61,196.40522980781623,-20.49552536,-56.1834259,0.0,2023-10-04T19:34:29.441352Z,2023-10-04T19:33:57.538336Z,2023-10-04T19:34:18.441352Z,2023-10-04T19:35:18.441352Z,earthquake,1.806321219,suspected,20231004T193357/BL_MURT_20231004T193357.mseed
usp2023tlto,20231004T193357,,P,BL,COIM,,HHZ,-19.9092,-57.7889,179.9085251896815,-20.49552536,-56.1834259,0.0,2023-10-04T19:34:26.831329Z,2023-10-04T19:33:57.538336Z,2023-10-04T19:34:15.831329Z,2023-10-04T19:35:15.831329Z,earthquake,1.806321219,suspected,20231004T193357/BL_COIM_20231004T193357.mseed
usp2023tlto,20231004T193357,,P,BL,AQDB,,HHZ,-20.47579,-55.69971,50.50966563801095,-20.49552536,-56.1834259,0.0,2023-10-04T19:34:06.541725Z,2023-10-04T19:33:57.538336Z,2023-10-04T19:33:55.541725Z,2023-10-04T19:34:55.541725Z,earthquake,1.806321219,suspected,20231004T193357/BL_AQDB_20231004T193357.mseed
usp2022xglv,20221127T200712,,P,XC,PSAL,,HHZ,-31.0824,-57.6077,334.79138639488485,-33.67643738,-55.78721237,0.0,2022-11-27T20:08:01.906216Z,2022-11-27T20:07:12.156701Z,2022-11-27T20:07:50.906216Z,2022-11-27T20:08:50.906216Z,earthquake,3.581488932,known,20221127T200712/XC_PSAL_20221127T200712.mseed
usp2022xglv,20221127T200712,,P,BL,PLTB,,HHZ,-31.76367,-53.60445,294.71920823361523,-33.67643738,-55.78721237,0.0,2022-11-27T20:07:55.874856Z,2022-11-27T20:07:12.156701Z,2022-11-27T20:07:44.874856Z,2022-11-27T20:08:44.874856Z,earthquake,3.581488932,known,20221127T200712/BL_PLTB_20221127T200712.mseed
usp2022xglv,20221127T200712,,P,UY,ANCO,,HHZ,-34.281112,-57.97264,212.79137068897109,-33.67643738,-55.78721237,0.0,2022-11-27T20:07:46.369027Z,2022-11-27T20:07:12.156701Z,2022-11-27T20:07:35.369027Z,2022-11-27T20:08:35.369027Z,earthquake,3.581488932,known,20221127T200712/UY_ANCO_20221127T200712.mseed
usp2014qvme,20140828T103505,,P,BR,VILB,,HHZ,-12.9528,-60.2002,363.34714561189173,-16.18466667,-60.79816667,0.0,2014-08-28T10:35:58.738144Z,2014-08-28T10:35:05.570000Z,2014-08-28T10:35:47.738144Z,2014-08-28T10:36:47.738144Z,earthquake,3.229207732,known,20140828T103505/BR_VILB_20140828T103505.mseed
usp2014qvme,20140828T103505,,P,BR,PTLB,,HHZ,-15.44874,-59.13676,195.7320581106974,-16.18466667,-60.79816667,0.0,2014-08-28T10:35:36.184444Z,2014-08-28T10:35:05.570000Z,2014-08-28T10:35:25.184444Z,2014-08-28T10:36:25.184444Z,earthquake,3.229207732,known,20140828T103505/BR_PTLB_20140828T103505.mseed
usp2020ojvc,20200723T142312,,P,BL,RCLB,,HHZ,-22.4191,-47.531,258.02934650718504,-24.68453598,-48.12096786,0.0,2020-07-23T14:23:51.400807Z,2020-07-23T14:23:12.016369Z,2020-07-23T14:23:40.400807Z,2020-07-23T14:24:40.400807Z,earthquake,2.003411066,known,20200723T142312/BL_RCLB_20200723T142312.mseed
usp2020ojvc,20200723T142312,,P,BL,VABB,,HHZ,-23.0021,-46.9657,220.39151013768108,-24.68453598,-48.12096786,0.0,2020-07-23T14:23:46.745635Z,2020-07-23T14:23:12.016369Z,2020-07-23T14:23:35.745635Z,2020-07-23T14:24:35.745635Z,earthquake,2.003411066,known,20200723T142312/BL_VABB_20200723T142312.mseed
usp2020ojvc,20200723T142312,,P,BL,FRTB,,HHZ,-23.3439,-49.564,208.8089914816285,-24.68453598,-48.12096786,0.0,2020-07-23T14:23:45.129497Z,2020-07-23T14:23:12.016369Z,2020-07-23T14:23:34.129497Z,2020-07-23T14:24:34.129497Z,earthquake,2.003411066,known,20200723T142312/BL_FRTB_20200723T142312.mseed
usp2020ojvc,20200723T142312,,P,ON,PET01,,HHZ,-24.290108,-47.275344,96.2080648642555,-24.68453598,-48.12096786,0.0,2020-07-23T14:23:28.086393Z,2020-07-23T14:23:12.016369Z,2020-07-23T14:23:17.086393Z,2020-07-23T14:24:17.086393Z,earthquake,2.003411066,known,20200723T142312/ON_PET01_20200723T142312.mseed
usp2018nlvh,20180711T111250,,P,BL,CLDB,,HHZ,-10.8732,-55.7965,137.6938362625462,-11.70239449,-56.73712158,0.0,2018-07-11T11:13:13.495853Z,2018-07-11T11:12:50.129063Z,2018-07-11T11:13:02.495853Z,2018-07-11T11:14:02.495853Z,earthquake,1.588598936,suspected,20180711T111250/BL_CLDB_20180711T111250.mseed
usp2018nlvh,20180711T111250,,P,BR,PDRB,,HHZ,-11.612297,-56.729597,10.00026470949897,-11.70239449,-56.73712158,0.0,2018-07-11T11:12:51.707870Z,2018-07-11T11:12:50.129063Z,2018-07-11T11:12:40.707870Z,2018-07-11T11:13:40.707870Z,earthquake,1.588598936,suspected,20180711T111250/BR_PDRB_20180711T111250.mseed
usp2019xphv,20191202T161838,,P,BR,SNDB,,HHZ,-11.9742,-51.2943,328.38780859986184,-10.36308479,-48.76893234,0.0,2019-12-02T16:19:26.948561Z,2019-12-02T16:18:38.838658Z,2019-12-02T16:19:15.948561Z,2019-12-02T16:20:15.948561Z,earthquake,2.529157032,suspected,20191202T161838/BR_SNDB_20191202T161838.mseed
usp2019xphv,20191202T161838,,P,BR,SMTB,,HHZ,-8.8617,-47.5886,210.62139947479685,-10.36308479,-48.76893234,0.0,2019-12-02T16:19:12.214276Z,2019-12-02T16:18:38.838658Z,2019-12-02T16:19:01.214276Z,2019-12-02T16:20:01.214276Z,earthquake,2.529157032,suspected,20191202T161838/BR_SMTB_20191202T161838.mseed
usp2019kclw,20190524T153758,,P,BR,ARAG,,HHZ,-15.706,-51.812,122.71445786328123,-15.08070946,-50.86790848,0.0,2019-05-24T15:38:20.898212Z,2019-05-24T15:37:58.196020Z,2019-05-24T15:38:09.898212Z,2019-05-24T15:39:09.898212Z,earthquake,3.212060264,known,20190524T153758/BR_ARAG_20190524T153758.mseed
usp2019kclw,20190524T153758,,P,BR,SNDB,,HHZ,-11.9742,-51.2943,346.7743237009953,-15.08070946,-50.86790848,0.0,2019-05-24T15:38:47.650310Z,2019-05-24T15:37:58.196020Z,2019-05-24T15:38:36.650310Z,2019-05-24T15:39:36.650310Z,earthquake,3.212060264,known,20190524T153758/BR_SNDB_20190524T153758.mseed
usp2024ljrc,20240610T194531,,P,BR,SDBA,,HHZ,-12.4085,-44.903,354.82397940652044,-9.281439781,-45.62644958,0.0,2024-06-10T19:46:23.355084Z,2024-06-10T19:45:31.670098Z,2024-06-10T19:46:12.355084Z,2024-06-10T19:47:12.355084Z,earthquake,2.658963295,suspected,20240610T194531/BR_SDBA_20240610T194531.mseed
usp2024ljrc,20240610T194531,,P,BR,SMTB,,HHZ,-8.8617,-47.5886,220.6497359155209,-9.281439781,-45.62644958,0.0,2024-06-10T19:46:05.987996Z,2024-06-10T19:45:31.670098Z,2024-06-10T19:45:54.987996Z,2024-06-10T19:46:54.987996Z,earthquake,2.658963295,suspected,20240610T194531/BR_SMTB_20240610T194531.mseed
usp2013vjnc,20131101T010514,,P,NB,NBPA,,HHZ,-5.75028,-37.112047,114.8853305672145,-5.440600872,-36.12224579,2000.0,2013-11-01T01:05:34.753326Z,2013-11-01T01:05:14.259611Z,2013-11-01T01:05:23.753326Z,2013-11-01T01:06:23.753326Z,earthquake,1.978852545,known,20131101T010514/NB_NBPA_20131101T010514.mseed
usp2014rumu,20140911T031718,,P,BL,CLDB,,HHZ,-10.8732,-55.7965,124.85927038404306,-11.62365532,-56.65063858,0.0,2014-09-11T03:17:40.017410Z,2014-09-11T03:17:18.374747Z,2014-09-11T03:17:29.017410Z,2014-09-11T03:18:29.017410Z,earthquake,3.901265045,known,20140911T031718/BL_CLDB_20140911T031718.mseed
usp2021iwed,20210506T232226,,P,BR,BOAV,,HHZ,2.3953,-60.5225,345.99771781396146,-0.522,-61.6468,0.0,2021-05-06T23:23:15.983000Z,2021-05-06T23:22:26.000000Z,2021-05-06T23:23:04.983000Z,2021-05-06T23:24:04.983000Z,earthquake,4.024181365,suspected,20210506T232226/BR_BOAV_20210506T232226.mseed
usp2021iwed,20210506T232226,,P,BR,MACA,,HHZ,-3.1615,-60.6838,310.9066827378089,-0.522,-61.6468,0.0,2021-05-06T23:23:12.051993Z,2021-05-06T23:22:26.000000Z,2021-05-06T23:23:01.051993Z,2021-05-06T23:24:01.051993Z,earthquake,4.024181365,suspected,20210506T232226/BR_MACA_20210506T232226.mseed
usp2015bnhz,20150122T122005,,P,ON,CAM01,,HHZ,-21.825656,-41.657401,142.2540826442216,-22.48295784,-40.47247696,0.0,2015-01-22T12:20:29.450256Z,2015-01-22T12:20:05.259160Z,2015-01-22T12:20:18.450256Z,2015-01-22T12:21:18.450256Z,earthquake,2.970946843,known,20150122T122005/ON_CAM01_20150122T122005.mseed
usp2015bnhz,20150122T122005,,P,ON,ALF01,,HHZ,-20.616865,-40.725213,208.27356588506706,-22.48295784,-40.47247696,0.0,2015-01-22T12:20:39.017578Z,2015-01-22T12:20:05.259160Z,2015-01-22T12:20:28.017578Z,2015-01-22T12:21:28.017578Z,earthquake,2.970946843,known,20150122T122005/ON_ALF01_20150122T122005.mseed
usp2015bnhz,20150122T122005,,P,ON,DUB01,,HHZ,-22.080966,-42.374182,200.97347032183873,-22.48295784,-40.47247696,0.0,2015-01-22T12:20:35.769592Z,2015-01-22T12:20:05.259160Z,2015-01-22T12:20:24.769592Z,2015-01-22T12:21:24.769592Z,earthquake,2.970946843,known,20150122T122005/ON_DUB01_20150122T122005.mseed
usp2015bnhz,20150122T122005,,P,ON,VAS01,,HHZ,-22.280081,-43.442624,306.69532854435795,-22.48295784,-40.47247696,0.0,2015-01-22T12:20:50.365173Z,2015-01-22T12:20:05.259160Z,2015-01-22T12:20:39.365173Z,2015-01-22T12:21:39.365173Z,earthquake,2.970946843,known,20150122T122005/ON_VAS01_20150122T122005.mseed
usp2015bnhz,20150122T122005,,P,ON,RIB01,,HHZ,-19.314216,-40.394365,350.9242623536516,-22.48295784,-40.47247696,0.0,2015-01-22T12:20:56.078186Z,2015-01-22T12:20:05.259160Z,2015-01-22T12:20:45.078186Z,2015-01-22T12:21:45.078186Z,earthquake,2.970946843,known,20150122T122005/ON_RIB01_20150122T122005.mseed
usp2015bnhz,20150122T122005,,P,ON,MAN01,,HHZ,-22.86516,-43.964094,361.3015265241929,-22.48295784,-40.47247696,0.0,2015-01-22T12:20:57.252136Z,2015-01-22T12:20:05.259160Z,2015-01-22T12:20:46.252136Z,2015-01-22T12:21:46.252136Z,earthquake,2.970946843,known,20150122T122005/ON_MAN01_20150122T122005.mseed
usp2024lxuk,20240618T131946,,P,BL,FRTB,,HHZ,-23.3439,-49.564,378.3853690544611,-20.00130653,-48.8035202,0.0,2024-06-18T13:20:40.967244Z,2024-06-18T13:19:46.627230Z,2024-06-18T13:20:29.967244Z,2024-06-18T13:21:29.967244Z,earthquake,3.23449794,known,20240618T131946/BL_FRTB_20240618T131946.mseed
usp2024lxuk,20240618T131946,,P,BL,PCMB,,HHZ,-21.6074,-51.2619,311.62820944631903,-20.00130653,-48.8035202,0.0,2024-06-18T13:20:32.789394Z,2024-06-18T13:19:46.627230Z,2024-06-18T13:20:21.789394Z,2024-06-18T13:21:21.789394Z,earthquake,3.23449794,known,20240618T131946/BL_PCMB_20240618T131946.mseed
usp2024lxuk,20240618T131946,,P,BL,PMNB,,HHZ,-18.54,-46.44,296.46326085640027,-20.00130653,-48.8035202,0.0,2024-06-18T13:20:30.514488Z,2024-06-18T13:19:46.627230Z,2024-06-18T13:20:19.514488Z,2024-06-18T13:21:19.514488Z,earthquake,3.23449794,known,20240618T131946/BL_PMNB_20240618T131946.mseed
usp2024lxuk,20240618T131946,,P,BL,CANS,,HHZ,-20.2896,-46.3921,254.12505992293922,-20.00130653,-48.8035202,0.0,2024-06-18T13:20:26.028554Z,2024-06-18T13:19:46.627230Z,2024-06-18T13:20:15.028554Z,2024-06-18T13:21:15.028554Z,earthquake,3.23449794,known,20240618T131946/BL_CANS_20240618T131946.mseed
usp2024lxuk,20240618T131946,,P,BR,IPMB,,HHZ,-17.982956,-48.211734,231.94145157726612,-20.00130653,-48.8035202,0.0,2024-06-18T13:20:22.898976Z,2024-06-18T13:19:46.627230Z,2024-06-18T13:20:11.898976Z,2024-06-18T13:21:11.898976Z,earthquake,3.23449794,known,20240618T131946/BR_IPMB_20240618T131946.mseed
usp2024lxuk,20240618T131946,,P,BL,ITRB,,HHZ,-19.7042,-50.359,166.21311109829722,-20.00130653,-48.8035202,0.0,2024-06-18T13:20:13.816345Z,2024-06-18T13:19:46.627230Z,2024-06-18T13:20:02.816345Z,2024-06-18T13:21:02.816345Z,earthquake,3.23449794,known,20240618T131946/BL_ITRB_20240618T131946.mseed
usp2024lxuk,20240618T131946,,P,BL,BB19B,,HHZ,-21.0662,-48.5279,121.34887003737259,-20.00130653,-48.8035202,0.0,2024-06-18T13:20:07.235869Z,2024-06-18T13:19:46.627230Z,2024-06-18T13:19:56.235869Z,2024-06-18T13:20:56.235869Z,earthquake,3.23449794,known,20240618T131946/BL_BB19B_20240618T131946.mseed
usp2021uafp,20211012T173216,,P,NB,NBMA,,HHZ,-7.365352,-38.764058,397.6432172406437,-5.426810265,-35.73668289,0.0,2021-10-12T17:33:13.156783Z,2021-10-12T17:32:16.490501Z,2021-10-12T17:33:02.156783Z,2021-10-12T17:34:02.156783Z,earthquake,2.36534766,known,20211012T173216/NB_NBMA_20211012T173216.mseed
usp2021uafp,20211012T173216,,P,NB,NBPA,,HHZ,-5.75028,-37.112047,156.5239169488146,-5.426810265,-35.73668289,0.0,2021-10-12T17:32:42.972130Z,2021-10-12T17:32:16.490501Z,2021-10-12T17:32:31.972130Z,2021-10-12T17:33:31.972130Z,earthquake,2.36534766,known,20211012T173216/NB_NBPA_20211012T173216.mseed
usp2022futy,20220324T122855,,P,BL,ITAB,,HHZ,-27.2349,-52.1313,227.6819699145107,-28.96457291,-50.88092422,0.0,2022-03-24T12:29:30.137295Z,2022-03-24T12:28:55.100868Z,2022-03-24T12:29:19.137295Z,2022-03-24T12:30:19.137295Z,earthquake,2.271233805,suspected,20220324T122855/BL_ITAB_20220324T122855.mseed
usp2022jioc,20220513T180144,,P,NB,NBMA,,HHZ,-7.365352,-38.764058,306.6002677447461,-9.964160919,-39.73382568,0.0,2022-05-13T18:02:30.061792Z,2022-05-13T18:01:44.697127Z,2022-05-13T18:02:19.061792Z,2022-05-13T18:03:19.061792Z,earthquake,2.88724153,suspected,20220513T180144/NB_NBMA_20220513T180144.mseed
usp2022jioc,20220513T180144,,P,NB,NBTA,,HHZ,-9.121932,-38.063215,205.7135075171201,-9.964160919,-39.73382568,0.0,2022-05-13T18:02:18.702860Z,2022-05-13T18:01:44.697127Z,2022-05-13T18:02:07.702860Z,2022-05-13T18:03:07.702860Z,earthquake,2.88724153,suspected,20220513T180144/NB_NBTA_20220513T180144.mseed
usp2022jioc,20220513T180144,,P,NB,NBPN,,HHZ,-10.847009,-40.198957,110.1362868898687,-9.964160919,-39.73382568,0.0,2022-05-13T18:02:03.582860Z,2022-05-13T18:01:44.697127Z,2022-05-13T18:01:52.582860Z,2022-05-13T18:02:52.582860Z,earthquake,2.88724153,suspected,20220513T180144/NB_NBPN_20220513T180144.mseed
usp2021jyrx,20210522T140809,,P,BR,SNDB,,HHZ,-11.9742,-51.2943,193.48374192596546,-12.04318047,-49.51895523,0.0,2021-05-22T14:08:40.409457Z,2021-05-22T14:08:09.320294Z,2021-05-22T14:08:29.409457Z,2021-05-22T14:09:29.409457Z,earthquake,2.531523398,known,20210522T140809/BR_SNDB_20210522T140809.mseed
usp2019chwe,20190202T181321,,P,ON,DUB01,,HHZ,-22.080966,-42.374182,180.35720863433232,-22.59849358,-44.0342598,0.0,2019-02-02T18:13:50.590109Z,2019-02-02T18:13:21.742203Z,2019-02-02T18:13:39.590109Z,2019-02-02T18:14:39.590109Z,earthquake,1.709978355,suspected,20190202T181321/ON_DUB01_20190202T181321.mseed
usp2019chwe,20190202T181321,,P,ON,MAN01,,HHZ,-22.86516,-43.964094,30.39759814532667,-22.59849358,-44.0342598,0.0,2019-02-02T18:13:27.226733Z,2019-02-02T18:13:21.742203Z,2019-02-02T18:13:16.226733Z,2019-02-02T18:14:16.226733Z,earthquake,1.709978355,suspected,20190202T181321/ON_MAN01_20190202T181321.mseed
usp2017zixz,20171227T153534,,P,XC,FDPY,,HHZ,-22.27697,-59.94391,342.36328761235245,-23.10429382,-63.15435028,131811.7371,2017-12-27T15:36:22.437706Z,2017-12-27T15:35:34.884277Z,2017-12-27T15:36:11.437706Z,2017-12-27T15:37:11.437706Z,earthquake,4.226802806,known,20171227T153534/XC_FDPY_20171227T153534.mseed
usp2020osfd,20200728T043314,,P,XC,BBSD,,HHZ,-17.18752,-60.60987,268.89695486993696,-18.02237701,-62.98910522,10000.0,2020-07-28T04:33:54.239466Z,2020-07-28T04:33:14.565802Z,2020-07-28T04:33:43.239466Z,2020-07-28T04:34:43.239466Z,earthquake,2.817506912,suspected,20200728T043314/XC_BBSD_20200728T043314.mseed
usp2023qpyc,20230825T094743,,P,NB,NBAN,,HHZ,-9.668656,-36.274726,392.1806354358365,-9.903150558,-39.84160995,0.0,2023-08-25T09:48:40.008502Z,2023-08-25T09:47:43.895651Z,2023-08-25T09:48:29.008502Z,2023-08-25T09:49:29.008502Z,earthquake,2.264801019,known,20230825T094743/NB_NBAN_20230825T094743.mseed
usp2023qpyc,20230825T094743,,P,NB,NBMA,,HHZ,-7.365352,-38.764058,304.70444885676517,-9.903150558,-39.84160995,0.0,2023-08-25T09:48:28.833208Z,2023-08-25T09:47:43.895651Z,2023-08-25T09:48:17.833208Z,2023-08-25T09:49:17.833208Z,earthquake,2.264801019,known,20230825T094743/NB_NBMA_20230825T094743.mseed
usp2023qpyc,20230825T094743,,P,NB,NBLA,,HHZ,-10.99255,-37.788972,254.99812018321026,-9.903150558,-39.84160995,0.0,2023-08-25T09:48:22.839998Z,2023-08-25T09:47:43.895651Z,2023-08-25T09:48:11.839998Z,2023-08-25T09:49:11.839998Z,earthquake,2.264801019,known,20230825T094743/NB_NBLA_20230825T094743.mseed
usp2023qpyc,20230825T094743,,P,NB,NBTA,,HHZ,-9.121932,-38.063215,213.52757880499232,-9.903150558,-39.84160995,0.0,2023-08-25T09:48:17.947329Z,2023-08-25T09:47:43.895651Z,2023-08-25T09:48:06.947329Z,2023-08-25T09:49:06.947329Z,earthquake,2.264801019,known,20230825T094743/NB_NBTA_20230825T094743.mseed
usp2021hbax,20210411T042102,,P,BR,CZSB,,HHZ,-7.7299,-72.7049,227.5827532133253,-9.243307114,-71.30442047,553078.7964,2021-04-11T04:22:12.958208Z,2021-04-11T04:21:02.674738Z,2021-04-11T04:22:01.958208Z,2021-04-11T04:23:01.958208Z,earthquake,4.264534065,known,20210411T042102/BR_CZSB_20210411T042102.mseed
usp2024lgsw,20240609T051423,,P,GE,SALTA,,HHZ,-24.2241,-66.34,96.923653302103,-24.24373245,-67.29404449,167349.5636,2024-06-09T05:14:49.444542Z,2024-06-09T05:14:23.538012Z,2024-06-09T05:14:38.444542Z,2024-06-09T05:15:38.444542Z,earthquake,4.169536458,known,20240609T051423/GE_SALTA_20240609T051423.mseed
usp2015aine,20150105T154445,,P,BL,ITAB,,HHZ,-27.2349,-52.1313,390.00037463089603,-25.01585388,-49.10372162,0.0,2015-01-05T15:45:41.149158Z,2015-01-05T15:44:45.592308Z,2015-01-05T15:45:30.149158Z,2015-01-05T15:46:30.149158Z,earthquake,3.133329073,suspected,20150105T154445/BL_ITAB_20150105T154445.mseed
usp2015aine,20150105T154445,,P,BL,PTGB,,HHZ,-24.72095,-52.01182,295.6886035794041,-25.01585388,-49.10372162,0.0,2015-01-05T15:45:30.315562Z,2015-01-05T15:44:45.592308Z,2015-01-05T15:45:19.315562Z,2015-01-05T15:46:19.315562Z,earthquake,3.133329073,suspected,20150105T154445/BL_PTGB_20150105T154445.mseed
usp2015aine,20150105T154445,,P,ON,PET01,,HHZ,-24.290108,-47.275344,201.79062485961165,-25.01585388,-49.10372162,0.0,2015-01-05T15:45:17.510902Z,2015-01-05T15:44:45.592308Z,2015-01-05T15:45:06.510902Z,2015-01-05T15:46:06.510902Z,earthquake,3.133329073,suspected,20150105T154445/ON_PET01_20150105T154445.mseed
usp2015aine,20150105T154445,,P,BL,FRTB,,HHZ,-23.3439,-49.564,191.000851281225,-25.01585388,-49.10372162,0.0,2015-01-05T15:45:16.839484Z,2015-01-05T15:44:45.592308Z,2015-01-05T15:45:05.839484Z,2015-01-05T15:46:05.839484Z,earthquake,3.133329073,suspected,20150105T154445/BL_FRTB_20150105T154445.mseed
usp2023vuzo,20231107T075251,,P,BL,SJMB,,HHZ,-18.702916,-41.184694,330.32952525803444,-20.26371956,-43.86658096,0.0,2023-11-07T07:53:39.887829Z,2023-11-07T07:52:51.678648Z,2023-11-07T07:53:28.887829Z,2023-11-07T07:54:28.887829Z,earthquake,2.092046918,suspected,20231107T075251/BL_SJMB_20231107T075251.mseed
usp2023vuzo,20231107T075251,,P,BL,CANS,,HHZ,-20.2896,-46.3921,263.8363975654853,-20.26371956,-43.86658096,0.0,2023-11-07T07:53:31.770098Z,2023-11-07T07:52:51.678648Z,2023-11-07T07:53:20.770098Z,2023-11-07T07:54:20.770098Z,earthquake,2.092046918,suspected,20231107T075251/BL_CANS_20231107T075251.mseed
usp2023vuzo,20231107T075251,,P,BL,DIAM,,HHZ,-18.2952,-43.6648,218.9359813777789,-20.26371956,-43.86658096,0.0,2023-11-07T07:53:26.280187Z,2023-11-07T07:52:51.678648Z,2023-11-07T07:53:15.280187Z,2023-11-07T07:54:15.280187Z,earthquake,2.092046918,suspected,20231107T075251/BL_DIAM_20231107T075251.mseed
usp2023vuzo,20231107T075251,,P,BL,BSCB,,HHZ,-20.9984,-44.7635,123.91230968179524,-20.26371956,-43.86658096,0.0,2023-11-07T07:53:12.723808Z,2023-11-07T07:52:51.678648Z,2023-11-07T07:53:01.723808Z,2023-11-07T07:54:01.723808Z,earthquake,2.092046918,suspected,20231107T075251/BL_BSCB_20231107T075251.mseed
usp2017nbfr,20170705T155800,,P,BR,PDRB,,HHZ,-11.612297,-56.729597,314.1293027454911,-9.217503548,-58.27177429,0.0,2017-07-05T15:58:47.010742Z,2017-07-05T15:58:00.405143Z,2017-07-05T15:58:36.010742Z,2017-07-05T15:59:36.010742Z,earthquake,2.968121842,suspected,20170705T155800/BR_PDRB_20170705T155800.mseed
usp2017nbfr,20170705T155800,,P,BL,CLDB,,HHZ,-10.8732,-55.7965,327.35708349011514,-9.217503548,-58.27177429,0.0,2017-07-05T15:58:47.211776Z,2017-07-05T15:58:00.405143Z,2017-07-05T15:58:36.211776Z,2017-07-05T15:59:36.211776Z,earthquake,2.968121842,suspected,20170705T155800/BL_CLDB_20170705T155800.mseed
usp2014wgbg,20141113T091427,,P,BR,CZSB,,HHZ,-7.7299,-72.7049,172.15867341844395,-8.138439178,-74.21154785,155677.1545,2014-11-13T09:14:59.403183Z,2014-11-13T09:14:27.493516Z,2014-11-13T09:14:48.403183Z,2014-11-13T09:15:48.403183Z,earthquake,4.539817651,known,20141113T091427/BR_CZSB_20141113T091427.mseed
usp2016pvha,20160813T022641,,P,BL,C2SB,,HHZ,-18.7688,-52.8377,384.32028876604556,-18.63724709,-56.47877502,0.0,2016-08-13T02:27:36.782626Z,2016-08-13T02:26:41.746039Z,2016-08-13T02:27:25.782626Z,2016-08-13T02:28:25.782626Z,earthquake,3.117498643,known,20160813T022641/BL_C2SB_20160813T022641.mseed
usp2016pvha,20160813T022641,,P,BR,SALV,,HHZ,-15.90118,-55.69356,314.1044955039791,-18.63724709,-56.47877502,0.0,2016-08-13T02:27:29.186080Z,2016-08-13T02:26:41.746039Z,2016-08-13T02:27:18.186080Z,2016-08-13T02:28:18.186080Z,earthquake,3.117498643,known,20160813T022641/BR_SALV_20160813T022641.mseed
usp2016pvha,20160813T022641,,P,BL,AQDB,,HHZ,-20.47579,-55.69971,219.328506368216,-18.63724709,-56.47877502,0.0,2016-08-13T02:27:15.813964Z,2016-08-13T02:26:41.746039Z,2016-08-13T02:27:04.813964Z,2016-08-13T02:28:04.813964Z,earthquake,3.117498643,known,20160813T022641/BL_AQDB_20160813T022641.mseed
usp2016pvha,20160813T022641,,P,BL,PP1B,,HHZ,-17.6003,-54.8796,204.4888853504144,-18.63724709,-56.47877502,0.0,2016-08-13T02:27:15.048461Z,2016-08-13T02:26:41.746039Z,2016-08-13T02:27:04.048461Z,2016-08-13T02:28:04.048461Z,earthquake,3.117498643,known,20160813T022641/BL_PP1B_20160813T022641.mseed
usp2023tivt,20231003T051534,,P,NB,NBAN,,HHZ,-9.668656,-36.274726,397.2575436357875,-9.829656601,-39.89167404,0.0,2023-10-03T05:16:30.933942Z,2023-10-03T05:15:34.262748Z,2023-10-03T05:16:19.933942Z,2023-10-03T05:17:19.933942Z,earthquake,2.055739078,known,20231003T051534/NB_NBAN_20231003T051534.mseed
usp2023tivt,20231003T051534,,P,NB,NBLA,,HHZ,-10.99255,-37.788972,263.7328301376154,-9.829656601,-39.89167404,0.0,2023-10-03T05:16:14.116802Z,2023-10-03T05:15:34.262748Z,2023-10-03T05:16:03.116802Z,2023-10-03T05:17:03.116802Z,earthquake,2.055739078,known,20231003T051534/NB_NBLA_20231003T051534.mseed
usp2013vnza,20131103T113956,,P,NB,NBPA,,HHZ,-5.75028,-37.112047,111.89356896314287,-5.4824543,-36.13809586,2000.0,2013-11-03T11:40:15.909347Z,2013-11-03T11:39:56.297825Z,2013-11-03T11:40:04.909347Z,2013-11-03T11:41:04.909347Z,earthquake,2.436755759,known,20131103T113956/NB_NBPA_20131103T113956.mseed
usp2016xjca,20161128T063553,,P,BR,CZSB,,HHZ,-7.7299,-72.7049,176.86228622675966,-8.73856926,-73.95054626,158221.3898,2016-11-28T06:36:25.063160Z,2016-11-28T06:35:53.443870Z,2016-11-28T06:36:14.063160Z,2016-11-28T06:37:14.063160Z,earthquake,4.140862941,known,20161128T063553/BR_CZSB_20161128T063553.mseed
usp2020zafl,20201221T210842,,P,NB,NBIT,,HHZ,-14.930689,-39.434579,168.82864301265974,-15.99483333,-38.30716667,0.0,2020-12-21T21:09:09.998615Z,2020-12-21T21:08:42.200000Z,2020-12-21T21:08:58.998615Z,2020-12-21T21:09:58.998615Z,earthquake,3.097039721,known,20201221T210842/NB_NBIT_20201221T210842.mseed
usp2020zafl,20201221T210842,,P,ON,GUA01,,HHZ,-16.58349,-39.805342,172.86591154870501,-15.99483333,-38.30716667,0.0,2020-12-21T21:09:11.795193Z,2020-12-21T21:08:42.200000Z,2020-12-21T21:09:00.795193Z,2020-12-21T21:10:00.795193Z,earthquake,3.097039721,known,20201221T210842/ON_GUA01_20201221T210842.mseed
usp2020zafl,20201221T210842,,P,ON,CMC01,,HHZ,-15.360055,-39.519089,147.6947074801805,-15.99483333,-38.30716667,0.0,2020-12-21T21:09:07.446853Z,2020-12-21T21:08:42.200000Z,2020-12-21T21:08:56.446853Z,2020-12-21T21:09:56.446853Z,earthquake,3.097039721,known,20201221T210842/ON_CMC01_20201221T210842.mseed
usp2018gicq,20180331T193811,,P,BR,ARAG,,HHZ,-15.706,-51.812,255.0120015327426,-16.31487656,-49.51399612,0.0,2018-03-31T19:38:50.613590Z,2018-03-31T19:38:11.632764Z,2018-03-31T19:38:39.613590Z,2018-03-31T19:39:39.613590Z,earthquake,1.718031383,suspected,20180331T193811/BR_ARAG_20180331T193811.mseed
usp2018gicq,20180331T193811,,P,BR,IPMB,,HHZ,-17.982956,-48.211734,230.81992602658332,-16.31487656,-49.51399612,0.0,2018-03-31T19:38:47.547166Z,2018-03-31T19:38:11.632764Z,2018-03-31T19:38:36.547166Z,2018-03-31T19:39:36.547166Z,earthquake,1.718031383,suspected,20180331T193811/BR_IPMB_20180331T193811.mseed
usp2018gicq,20180331T193811,,P,GT,BDFB,,HHZ,-15.6418,-48.0148,176.9230532551765,-16.31487656,-49.51399612,0.0,2018-03-31T19:38:40.405162Z,2018-03-31T19:38:11.632764Z,2018-03-31T19:38:29.405162Z,2018-03-31T19:39:29.405162Z,earthquake,1.718031383,suspected,20180331T193811/GT_BDFB_20180331T193811.mseed
usp2021icmv,20210426T050212,,P,BL,PMNB,,HHZ,-18.54,-46.44,375.7989287571229,-21.34540939,-48.46152878,0.0,2021-04-26T05:03:06.465975Z,2021-04-26T05:02:12.409521Z,2021-04-26T05:02:55.465975Z,2021-04-26T05:03:55.465975Z,earthquake,1.884351706,suspected,20210426T050212/BL_PMNB_20210426T050212.mseed
usp2021icmv,20210426T050212,,P,BL,PCMB,,HHZ,-21.6074,-51.2619,291.66373681783637,-21.34540939,-48.46152878,0.0,2021-04-26T05:02:56.612266Z,2021-04-26T05:02:12.409521Z,2021-04-26T05:02:45.612266Z,2021-04-26T05:03:45.612266Z,earthquake,1.884351706,suspected,20210426T050212/BL_PCMB_20210426T050212.mseed
usp2021icmv,20210426T050212,,P,BL,CANS,,HHZ,-20.2896,-46.3921,245.08627629311295,-21.34540939,-48.46152878,0.0,2021-04-26T05:02:50.301922Z,2021-04-26T05:02:12.409521Z,2021-04-26T05:02:39.301922Z,2021-04-26T05:03:39.301922Z,earthquake,1.884351706,suspected,20210426T050212/BL_CANS_20210426T050212.mseed
usp2021icmv,20210426T050212,,P,BL,BB19B,,HHZ,-21.0662,-48.5279,31.672733623985227,-21.34540939,-48.46152878,0.0,2021-04-26T05:02:17.962361Z,2021-04-26T05:02:12.409521Z,2021-04-26T05:02:06.962361Z,2021-04-26T05:03:06.962361Z,earthquake,1.884351706,suspected,20210426T050212/BL_BB19B_20210426T050212.mseed
usp2022iywh,20220508T104859,,P,BL,PMNB,,HHZ,-18.54,-46.44,248.3603660356346,-19.4316082,-44.27560043,0.0,2022-05-08T10:49:37.914294Z,2022-05-08T10:48:59.751249Z,2022-05-08T10:49:26.914294Z,2022-05-08T10:50:26.914294Z,earthquake,2.012875234,suspected,20220508T104859/BL_PMNB_20220508T104859.mseed
usp2022iywh,20220508T104859,,P,BL,CANS,,HHZ,-20.2896,-46.3921,241.1671348442555,-19.4316082,-44.27560043,0.0,2022-05-08T10:49:37.060351Z,2022-05-08T10:48:59.751249Z,2022-05-08T10:49:26.060351Z,2022-05-08T10:50:26.060351Z,earthquake,2.012875234,suspected,20220508T104859/BL_CANS_20220508T104859.mseed
usp2022iywh,20220508T104859,,P,BL,BSCB,,HHZ,-20.9984,-44.7635,180.79297382267785,-19.4316082,-44.27560043,0.0,2022-05-08T10:49:28.992974Z,2022-05-08T10:48:59.751249Z,2022-05-08T10:49:17.992974Z,2022-05-08T10:50:17.992974Z,earthquake,2.012875234,suspected,20220508T104859/BL_BSCB_20220508T104859.mseed
usp2022iywh,20220508T104859,,P,BL,DIAM,,HHZ,-18.2952,-43.6648,141.29982637513712,-19.4316082,-44.27560043,0.0,2022-05-08T10:49:23.371452Z,2022-05-08T10:48:59.751249Z,2022-05-08T10:49:12.371452Z,2022-05-08T10:50:12.371452Z,earthquake,2.012875234,suspected,20220508T104859/BL_DIAM_20220508T104859.mseed
usp2020qtju,20200826T070644,,P,NB,NBPS,,HHZ,-4.393969,-41.445618,135.94474164688882,-3.653279543,-40.46853638,0.0,2020-08-26T07:07:06.808522Z,2020-08-26T07:06:44.123381Z,2020-08-26T07:06:55.808522Z,2020-08-26T07:07:55.808522Z,earthquake,2.020083588,known,20200826T070644/NB_NBPS_20200826T070644.mseed
usp2020qtju,20200826T070644,,P,NB,NBMO,,HHZ,-3.310348,-40.042927,60.617577837256206,-3.653279543,-40.46853638,0.0,2020-08-26T07:06:54.645667Z,2020-08-26T07:06:44.123381Z,2020-08-26T07:06:43.645667Z,2020-08-26T07:07:43.645667Z,earthquake,2.020083588,known,20200826T070644/NB_NBMO_20200826T070644.mseed
usp2016dugu,20160223T184434,,P,NB,NBMA,,HHZ,-7.365352,-38.764058,307.8660474993801,-8.318138123,-36.14108658,0.0,2016-02-23T18:45:19.344665Z,2016-02-23T18:44:34.376219Z,2016-02-23T18:45:08.344665Z,2016-02-23T18:46:08.344665Z,earthquake,2.038104948,suspected,20160223T184434/NB_NBMA_20160223T184434.mseed
usp2016dugu,20160223T184434,,P,NB,NBPV,,HHZ,-6.417527,-35.290516,230.21577068458805,-8.318138123,-36.14108658,0.0,2016-02-23T18:45:10.149005Z,2016-02-23T18:44:34.376219Z,2016-02-23T18:44:59.149005Z,2016-02-23T18:45:59.149005Z,earthquake,2.038104948,suspected,20160223T184434/NB_NBPV_20160223T184434.mseed
usp2016dugu,20160223T184434,,P,NB,NBAN,,HHZ,-9.668656,-36.274726,150.09032464221596,-8.318138123,-36.14108658,0.0,2016-02-23T18:44:59.583787Z,2016-02-23T18:44:34.376219Z,2016-02-23T18:44:48.583787Z,2016-02-23T18:45:48.583787Z,earthquake,2.038104948,suspected,20160223T184434/NB_NBAN_20160223T184434.mseed
usp2016dugu,20160223T184434,,P,NB,NBLV,,HHZ,-7.357693,-36.921745,136.7300486766507,-8.318138123,-36.14108658,0.0,2016-02-23T18:44:57.669433Z,2016-02-23T18:44:34.376219Z,2016-02-23T18:44:46.669433Z,2016-02-23T18:45:46.669433Z,earthquake,2.038104948,suspected,20160223T184434/NB_NBLV_20160223T184434.mseed
usp2016dugu,20160223T184434,,P,NB,NBRF,,HHZ,-8.679466,-35.127172,118.57403707298133,-8.318138123,-36.14108658,0.0,2016-02-23T18:44:54.069274Z,2016-02-23T18:44:34.376219Z,2016-02-23T18:44:43.069274Z,2016-02-23T18:45:43.069274Z,earthquake,2.038104948,suspected,20160223T184434/NB_NBRF_20160223T184434.mseed
usp2020dynz,20200226T025545,,P,BL,CLDB,,HHZ,-10.8732,-55.7965,138.90669446087065,-11.61536884,-56.82264328,0.0,2020-02-26T02:56:08.931425Z,2020-02-26T02:55:45.611045Z,2020-02-26T02:55:57.931425Z,2020-02-26T02:56:57.931425Z,earthquake,1.969113074,known,20200226T025545/BL_CLDB_20200226T025545.mseed
usp2020dynz,20200226T025545,,P,BR,PDRB,,HHZ,-11.612297,-56.729597,10.152869154012878,-11.61536884,-56.82264328,0.0,2020-02-26T02:55:47.455701Z,2020-02-26T02:55:45.611045Z,2020-02-26T02:55:36.455701Z,2020-02-26T02:56:36.455701Z,earthquake,1.969113074,known,20200226T025545/BR_PDRB_20200226T025545.mseed
usp2019ebde,20190227T125250,,P,BR,PRPB,,HHZ,-6.1724,-49.815,89.19393113665079,-5.819333333,-50.53933333,0.0,2019-02-27T12:53:05.304099Z,2019-02-27T12:52:50.780000Z,2019-02-27T12:52:54.304099Z,2019-02-27T12:53:54.304099Z,earthquake,3.546597475,suspected,20190227T125250/BR_PRPB_20190227T125250.mseed
usp2012hzep,20120423T092847,,P,ON,DUB01,,HHZ,-22.080966,-42.374182,287.6767069999659,-23.41172028,-44.7796669,0.0,2012-04-23T09:29:30.370849Z,2012-04-23T09:28:47.105631Z,2012-04-23T09:29:19.370849Z,2012-04-23T09:30:19.370849Z,earthquake,2.118416116,known,20120423T092847/ON_DUB01_20120423T092847.mseed
usp2012hzep,20120423T092847,,P,ON,VAS01,,HHZ,-22.280081,-43.442624,185.84042578457638,-23.41172028,-44.7796669,0.0,2012-04-23T09:29:17.311401Z,2012-04-23T09:28:47.105631Z,2012-04-23T09:29:06.311401Z,2012-04-23T09:30:06.311401Z,earthquake,2.118416116,known,20120423T092847/ON_VAS01_20120423T092847.mseed
usp2012hzep,20120423T092847,,P,ON,MAN01,,HHZ,-22.86516,-43.964094,103.15429954844728,-23.41172028,-44.7796669,0.0,2012-04-23T09:29:04.755493Z,2012-04-23T09:28:47.105631Z,2012-04-23T09:28:53.755493Z,2012-04-23T09:29:53.755493Z,earthquake,2.118416116,known,20120423T092847/ON_MAN01_20120423T092847.mseed
usp2012hzep,20120423T092847,,P,BL,ESAR,,HHZ,-23.0207,-44.4403,55.51507722542875,-23.41172028,-44.7796669,0.0,2012-04-23T09:28:56.762451Z,2012-04-23T09:28:47.105631Z,2012-04-23T09:28:45.762451Z,2012-04-23T09:29:45.762451Z,earthquake,2.118416116,known,20120423T092847/BL_ESAR_20120423T092847.mseed
usp2012hzep,20120423T092847,,P,ON,SLP01,,HHZ,-23.3243,-45.1559,39.66668038934037,-23.41172028,-44.7796669,0.0,2012-04-23T09:28:54.024658Z,2012-04-23T09:28:47.105631Z,2012-04-23T09:28:43.024658Z,2012-04-23T09:29:43.024658Z,earthquake,2.118416116,known,20120423T092847/ON_SLP01_20120423T092847.mseed
usp2012hzep,20120423T092847,,P,ON,PET01,,HHZ,-24.290108,-47.275344,272.2031891273038,-23.41172028,-44.7796669,0.0,2012-04-23T09:29:27.727233Z,2012-04-23T09:28:47.105631Z,2012-04-23T09:29:16.727233Z,2012-04-23T09:30:16.727233Z,earthquake,2.118416116,known,20120423T092847/ON_PET01_20120423T092847.mseed
usp2017ciqs,20170203T043541,,P,ON,DUB01,,HHZ,-22.080966,-42.374182,365.647891354363,-20.62157631,-45.53662491,0.0,2017-02-03T04:36:33.634670Z,2017-02-03T04:35:41.430716Z,2017-02-03T04:36:22.634670Z,2017-02-03T04:37:22.634670Z,earthquake,2.547640697,suspected,20170203T043541/ON_DUB01_20170203T043541.mseed
usp2017ciqs,20170203T043541,,P,BL,DIAM,,HHZ,-18.2952,-43.6648,323.9445953117739,-20.62157631,-45.53662491,0.0,2017-02-03T04:36:28.791282Z,2017-02-03T04:35:41.430716Z,2017-02-03T04:36:17.791282Z,2017-02-03T04:37:17.791282Z,earthquake,2.547640697,suspected,20170203T043541/BL_DIAM_20170203T043541.mseed
usp2020zick,20201226T044209,,P,BL,ITQB,,HHZ,-29.6638,-56.6275,312.355501426459,-26.84537315,-56.60614395,0.0,2020-12-26T04:42:54.409692Z,2020-12-26T04:42:09.649515Z,2020-12-26T04:42:43.409692Z,2020-12-26T04:43:43.409692Z,earthquake,3.324044128,known,20201226T044209/BL_ITQB_20201226T044209.mseed
usp2020zick,20201226T044209,,P,XC,SJPY,,HHZ,-24.99722,-56.10375,210.8457494106879,-26.84537315,-56.60614395,0.0,2020-12-26T04:42:43.481874Z,2020-12-26T04:42:09.649515Z,2020-12-26T04:42:32.481874Z,2020-12-26T04:43:32.481874Z,earthquake,3.324044128,known,20201226T044209/XC_SJPY_20201226T044209.mseed
